header: 
  seq: 548
  stamp: 
    secs: 1676104288
    nsecs: 532254400
  frame_id: "map"
pose: 
  position: 
    x: -0.4126903712749481
    y: 0.5182854533195496
    z: 0.1253667175769806
  orientation: 
    x: 0.05173712549643613
    y: -0.01829033745646005
    z: 0.03942656446745547
    w: -0.9977145700252257
---
header: 
  seq: 549
  stamp: 
    secs: 1676104288
    nsecs: 562254400
  frame_id: "map"
pose: 
  position: 
    x: -0.41272273659706116
    y: 0.5182227492332458
    z: 0.1253984123468399
  orientation: 
    x: 0.05175758120594309
    y: -0.018292778022406635
    z: 0.03942374062860523
    w: -0.99771360064771
---
header: 
  seq: 550
  stamp: 
    secs: 1676104288
    nsecs: 602256960
  frame_id: "map"
pose: 
  position: 
    x: -0.4127643406391144
    y: 0.5181493759155273
    z: 0.1254294216632843
  orientation: 
    x: 0.05174900037100408
    y: -0.01829593245059987
    z: 0.03941969453114822
    w: -0.9977141064098921
---
header: 
  seq: 551
  stamp: 
    secs: 1676104288
    nsecs: 632256960
  frame_id: "map"
pose: 
  position: 
    x: -0.412797212600708
    y: 0.5180962085723877
    z: 0.12544550001621246
  orientation: 
    x: 0.051746853515908055
    y: -0.018297404956119718
    z: 0.03942576367733376
    w: -0.9977139378224981
---
header: 
  seq: 552
  stamp: 
    secs: 1676104288
    nsecs: 662256960
  frame_id: "map"
pose: 
  position: 
    x: -0.41283273696899414
    y: 0.518051266670227
    z: 0.1254613995552063
  orientation: 
    x: 0.051745037250155036
    y: -0.018314267646791126
    z: 0.03944721642322584
    w: -0.9977128841512853
---
header: 
  seq: 553
  stamp: 
    secs: 1676104288
    nsecs: 702259008
  frame_id: "map"
pose: 
  position: 
    x: -0.4128752648830414
    y: 0.5180186033248901
    z: 0.12548404932022095
  orientation: 
    x: 0.05175028058152759
    y: -0.018310657505798366
    z: 0.03945113608013731
    w: -0.9977125048296487
---
header: 
  seq: 554
  stamp: 
    secs: 1676104288
    nsecs: 732259008
  frame_id: "map"
pose: 
  position: 
    x: -0.4129113256931305
    y: 0.5180043578147888
    z: 0.12549935281276703
  orientation: 
    x: 0.05174560754969895
    y: -0.018311595273177727
    z: 0.03944144230497982
    w: -0.9977131791792249
---
header: 
  seq: 555
  stamp: 
    secs: 1676104288
    nsecs: 762259008
  frame_id: "map"
pose: 
  position: 
    x: -0.4129503071308136
    y: 0.5179882049560547
    z: 0.1255088448524475
  orientation: 
    x: 0.05175596382063148
    y: -0.018305553785861493
    z: 0.03944224309510153
    w: -0.9977127155638912
---
header: 
  seq: 556
  stamp: 
    secs: 1676104288
    nsecs: 802259520
  frame_id: "map"
pose: 
  position: 
    x: -0.4129992127418518
    y: 0.517973005771637
    z: 0.12552416324615479
  orientation: 
    x: 0.05176539022671875
    y: -0.018303181708543743
    z: 0.03943722762012872
    w: -0.9977124205359517
---
header: 
  seq: 557
  stamp: 
    secs: 1676104288
    nsecs: 832259520
  frame_id: "map"
pose: 
  position: 
    x: -0.4130282700061798
    y: 0.517971932888031
    z: 0.12553651630878448
  orientation: 
    x: 0.051769665497664576
    y: -0.01829820047788536
    z: 0.03944776433225643
    w: -0.9977119147737695
---
header: 
  seq: 558
  stamp: 
    secs: 1676104288
    nsecs: 872259520
  frame_id: "map"
pose: 
  position: 
    x: -0.41306519508361816
    y: 0.5179834365844727
    z: 0.12555506825447083
  orientation: 
    x: 0.051778051403429226
    y: -0.018292764851516475
    z: 0.03945084105219774
    w: -0.997711451158436
---
header: 
  seq: 559
  stamp: 
    secs: 1676104288
    nsecs: 902261824
  frame_id: "map"
pose: 
  position: 
    x: -0.41308310627937317
    y: 0.5180099606513977
    z: 0.1255645453929901
  orientation: 
    x: 0.051779224929742455
    y: -0.018282961757970645
    z: 0.03945176828286498
    w: -0.997711535452133
---
header: 
  seq: 560
  stamp: 
    secs: 1676104288
    nsecs: 932261824
  frame_id: "map"
pose: 
  position: 
    x: -0.4131026864051819
    y: 0.5180220603942871
    z: 0.12557615339756012
  orientation: 
    x: 0.05177095756198924
    y: -0.018287604496751923
    z: 0.0394583431912327
    w: -0.99771161974583
---
header: 
  seq: 561
  stamp: 
    secs: 1676104288
    nsecs: 972261824
  frame_id: "map"
pose: 
  position: 
    x: -0.413129597902298
    y: 0.5180428624153137
    z: 0.12558752298355103
  orientation: 
    x: 0.05177846496938024
    y: -0.018294416481142498
    z: 0.039452948394623294
    w: -0.9977112825710418
---
header: 
  seq: 562
  stamp: 
    secs: 1676104289
    nsecs:   2264384
  frame_id: "map"
pose: 
  position: 
    x: -0.4131535589694977
    y: 0.5180552005767822
    z: 0.12559396028518677
  orientation: 
    x: 0.05176537573873958
    y: -0.018293202125069772
    z: 0.03944843868183261
    w: -0.9977121676548606
---
header: 
  seq: 563
  stamp: 
    secs: 1676104289
    nsecs:  32264384
  frame_id: "map"
pose: 
  position: 
    x: -0.41317498683929443
    y: 0.5180727243423462
    z: 0.12559722363948822
  orientation: 
    x: 0.05176261775434014
    y: -0.01829620772220421
    z: 0.03945463426856373
    w: -0.997712041214315
---
header: 
  seq: 564
  stamp: 
    secs: 1676104289
    nsecs:  72264384
  frame_id: "map"
pose: 
  position: 
    x: -0.41320866346359253
    y: 0.5180947184562683
    z: 0.1256081908941269
  orientation: 
    x: 0.051751409326814275
    y: -0.018288787242688256
    z: 0.03945509788389735
    w: -0.9977127577107398
---
header: 
  seq: 565
  stamp: 
    secs: 1676104289
    nsecs: 102266944
  frame_id: "map"
pose: 
  position: 
    x: -0.41324254870414734
    y: 0.5181187391281128
    z: 0.1256166696548462
  orientation: 
    x: 0.05174574979531268
    y: -0.018288045721572267
    z: 0.03944856512237819
    w: -0.9977133056197705
---
header: 
  seq: 566
  stamp: 
    secs: 1676104289
    nsecs: 132266944
  frame_id: "map"
pose: 
  position: 
    x: -0.41328006982803345
    y: 0.5181423425674438
    z: 0.1256292313337326
  orientation: 
    x: 0.05174870929433155
    y: -0.018291908743656098
    z: 0.03945138896122838
    w: -0.9977129262981338
---
header: 
  seq: 567
  stamp: 
    secs: 1676104289
    nsecs: 172266944
  frame_id: "map"
pose: 
  position: 
    x: -0.4133234918117523
    y: 0.5181769728660583
    z: 0.12564915418624878
  orientation: 
    x: 0.051760017820622624
    y: -0.018291848157561363
    z: 0.039444898346557726
    w: -0.9977126734170427
---
header: 
  seq: 568
  stamp: 
    secs: 1676104289
    nsecs: 203269504
  frame_id: "map"
pose: 
  position: 
    x: -0.41335150599479675
    y: 0.5182065367698669
    z: 0.12566685676574707
  orientation: 
    x: 0.051775485714026126
    y: -0.01828280239019971
    z: 0.03943984072473641
    w: -0.9977121676548606
---
header: 
  seq: 569
  stamp: 
    secs: 1676104289
    nsecs: 233269504
  frame_id: "map"
pose: 
  position: 
    x: -0.4133860766887665
    y: 0.5182231664657593
    z: 0.12568232417106628
  orientation: 
    x: 0.051777366517140926
    y: -0.01828384025634429
    z: 0.03943769123546234
    w: -0.9977121255080121
---
header: 
  seq: 570
  stamp: 
    secs: 1676104289
    nsecs: 263269504
  frame_id: "map"
pose: 
  position: 
    x: -0.41342759132385254
    y: 0.5182420015335083
    z: 0.1256975531578064
  orientation: 
    x: 0.05178048538393073
    y: -0.018271185665078897
    z: 0.0394344880749755
    w: -0.9977123783891032
---
header: 
  seq: 571
  stamp: 
    secs: 1676104289
    nsecs: 303272064
  frame_id: "map"
pose: 
  position: 
    x: -0.41348832845687866
    y: 0.5182645916938782
    z: 0.1257178783416748
  orientation: 
    x: 0.05178776361783296
    y: -0.01828421694380286
    z: 0.0394232348664231
    w: -0.9977121676548606
---
header: 
  seq: 572
  stamp: 
    secs: 1676104289
    nsecs: 333272064
  frame_id: "map"
pose: 
  position: 
    x: -0.4135333001613617
    y: 0.5182757377624512
    z: 0.1257312297821045
  orientation: 
    x: 0.051796688213005135
    y: -0.01827563479177483
    z: 0.039419230915814604
    w: -0.9977120412143151
---
header: 
  seq: 573
  stamp: 
    secs: 1676104289
    nsecs: 373272064
  frame_id: "map"
pose: 
  position: 
    x: -0.4135873019695282
    y: 0.5182977318763733
    z: 0.1257525235414505
  orientation: 
    x: 0.051798611162968446
    y: -0.018279875818406233
    z: 0.03940936855326302
    w: -0.9977122940954062
---
header: 
  seq: 574
  stamp: 
    secs: 1676104289
    nsecs: 403274624
  frame_id: "map"
pose: 
  position: 
    x: -0.41362878680229187
    y: 0.5183081030845642
    z: 0.1257726103067398
  orientation: 
    x: 0.05179674748201085
    y: -0.01827561766961762
    z: 0.03941552199314563
    w: -0.9977122098017092
---
header: 
  seq: 575
  stamp: 
    secs: 1676104289
    nsecs: 433274624
  frame_id: "map"
pose: 
  position: 
    x: -0.4136672914028168
    y: 0.5183220505714417
    z: 0.12579604983329773
  orientation: 
    x: 0.0517941277919581
    y: -0.01828070295030826
    z: 0.03941269815429539
    w: -0.9977123362422546
---
header: 
  seq: 576
  stamp: 
    secs: 1676104289
    nsecs: 473274624
  frame_id: "map"
pose: 
  position: 
    x: -0.4137148857116699
    y: 0.5183390974998474
    z: 0.12581652402877808
  orientation: 
    x: 0.0517947217991043
    y: -0.018283796792406763
    z: 0.03941257171374986
    w: -0.997712209801709
---
header: 
  seq: 577
  stamp: 
    secs: 1676104289
    nsecs: 503277440
  frame_id: "map"
pose: 
  position: 
    x: -0.41374993324279785
    y: 0.5183590650558472
    z: 0.12582574784755707
  orientation: 
    x: 0.05180721043715369
    y: -0.01829596406073625
    z: 0.03941177092362815
    w: -0.9977114090115874
---
header: 
  seq: 578
  stamp: 
    secs: 1676104289
    nsecs: 533277440
  frame_id: "map"
pose: 
  position: 
    x: -0.4137924313545227
    y: 0.5183919072151184
    z: 0.1258307248353958
  orientation: 
    x: 0.051809479781528195
    y: -0.018303240977549463
    z: 0.03941274030114391
    w: -0.9977111139836478
---
header: 
  seq: 579
  stamp: 
    secs: 1676104289
    nsecs: 563277440
  frame_id: "map"
pose: 
  position: 
    x: -0.41383183002471924
    y: 0.518433690071106
    z: 0.12583187222480774
  orientation: 
    x: 0.051803940105127046
    y: -0.01832320541285347
    z: 0.03941750289502566
    w: -0.9977108189557082
---
header: 
  seq: 580
  stamp: 
    secs: 1676104289
    nsecs: 603280000
  frame_id: "map"
pose: 
  position: 
    x: -0.41387519240379333
    y: 0.5185020565986633
    z: 0.1258375346660614
  orientation: 
    x: 0.0517881877204961
    y: -0.018315302878757673
    z: 0.03941008504968771
    w: -0.9977120833611636
---
header: 
  seq: 581
  stamp: 
    secs: 1676104289
    nsecs: 633280000
  frame_id: "map"
pose: 
  position: 
    x: -0.41390901803970337
    y: 0.5185534954071045
    z: 0.12584185600280762
  orientation: 
    x: 0.05179254728513894
    y: -0.01831843491643764
    z: 0.03941143374884006
    w: -0.9977117461863755
---
header: 
  seq: 582
  stamp: 
    secs: 1676104289
    nsecs: 673280000
  frame_id: "map"
pose: 
  position: 
    x: -0.4139547049999237
    y: 0.5186309218406677
    z: 0.12585650384426117
  orientation: 
    x: 0.05180391903170278
    y: -0.018321034850155155
    z: 0.039408357028898756
    w: -0.9977112825710419
---
header: 
  seq: 583
  stamp: 
    secs: 1676104289
    nsecs: 703282304
  frame_id: "map"
pose: 
  position: 
    x: -0.4139825701713562
    y: 0.5186971426010132
    z: 0.12587189674377441
  orientation: 
    x: 0.051810171253261574
    y: -0.018316320988567013
    z: 0.039415817021085216
    w: -0.9977107346620112
---
header: 
  seq: 584
  stamp: 
    secs: 1676104289
    nsecs: 733282304
  frame_id: "map"
pose: 
  position: 
    x: -0.414009690284729
    y: 0.5187675356864929
    z: 0.12588275969028473
  orientation: 
    x: 0.051815126142139636
    y: -0.018312978216644495
    z: 0.03941784006981375
    w: -0.9977104817809201
---
header: 
  seq: 585
  stamp: 
    secs: 1676104289
    nsecs: 763282304
  frame_id: "map"
pose: 
  position: 
    x: -0.4140287935733795
    y: 0.5188450217247009
    z: 0.12588787078857422
  orientation: 
    x: 0.05180832732863922
    y: -0.01831956629590235
    z: 0.03941661781120693
    w: -0.9977106925151628
---
header: 
  seq: 586
  stamp: 
    secs: 1676104289
    nsecs: 803286656
  frame_id: "map"
pose: 
  position: 
    x: -0.4140506982803345
    y: 0.5189571976661682
    z: 0.12589198350906372
  orientation: 
    x: 0.051809574611937345
    y: -0.018319325268612432
    z: 0.03941467905617542
    w: -0.9977107768088598
---
header: 
  seq: 587
  stamp: 
    secs: 1676104289
    nsecs: 833286656
  frame_id: "map"
pose: 
  position: 
    x: -0.41405990719795227
    y: 0.5190504193305969
    z: 0.1258888989686966
  orientation: 
    x: 0.05181636157163661
    y: -0.018321373342032262
    z: 0.039413203916477534
    w: -0.9977103974872231
---
header: 
  seq: 588
  stamp: 
    secs: 1676104289
    nsecs: 864286656
  frame_id: "map"
pose: 
  position: 
    x: -0.41407009959220886
    y: 0.5191466212272644
    z: 0.12588922679424286
  orientation: 
    x: 0.05181335334032414
    y: -0.01832384946938227
    z: 0.03941227668581029
    w: -0.9977105660746172
---
header: 
  seq: 589
  stamp: 
    secs: 1676104289
    nsecs: 904288960
  frame_id: "map"
pose: 
  position: 
    x: -0.4140706956386566
    y: 0.5192745327949524
    z: 0.12590236961841583
  orientation: 
    x: 0.051831966442297775
    y: -0.018325013776072385
    z: 0.039421253964543095
    w: -0.9977092595223134
---
header: 
  seq: 590
  stamp: 
    secs: 1676104289
    nsecs: 934288960
  frame_id: "map"
pose: 
  position: 
    x: -0.4140658378601074
    y: 0.5193720459938049
    z: 0.12591399252414703
  orientation: 
    x: 0.05183877579251031
    y: -0.0183239258605452
    z: 0.03941918876896605
    w: -0.9977089644943737
---
header: 
  seq: 591
  stamp: 
    secs: 1676104289
    nsecs: 963288960
  frame_id: "map"
pose: 
  position: 
    x: -0.4140557050704956
    y: 0.5194690227508545
    z: 0.1259254664182663
  orientation: 
    x: 0.051837002990694825
    y: -0.018320994020395658
    z: 0.03942239192945289
    w: -0.9977089644943737
---
header: 
  seq: 592
  stamp: 
    secs: 1676104290
    nsecs:   3292032
  frame_id: "map"
pose: 
  position: 
    x: -0.41403016448020935
    y: 0.5196051597595215
    z: 0.12594451010227203
  orientation: 
    x: 0.05183968458393133
    y: -0.018316062839119886
    z: 0.03941880944732945
    w: -0.9977090909349193
---
header: 
  seq: 593
  stamp: 
    secs: 1676104290
    nsecs:  34292032
  frame_id: "map"
pose: 
  position: 
    x: -0.4140039384365082
    y: 0.5197080373764038
    z: 0.12596267461776733
  orientation: 
    x: 0.051849358602753595
    y: -0.01830928114777668
    z: 0.039420326733875855
    w: -0.9977086694664342
---
header: 
  seq: 594
  stamp: 
    secs: 1676104290
    nsecs:  63292032
  frame_id: "map"
pose: 
  position: 
    x: -0.4139712452888489
    y: 0.5198043584823608
    z: 0.12597838044166565
  orientation: 
    x: 0.05186396511994065
    y: -0.01830895187552269
    z: 0.03942829248824445
    w: -0.9977076157952215
---
header: 
  seq: 595
  stamp: 
    secs: 1676104290
    nsecs: 104294592
  frame_id: "map"
pose: 
  position: 
    x: -0.4139174818992615
    y: 0.5199201107025146
    z: 0.12599343061447144
  orientation: 
    x: 0.05185578599715151
    y: -0.01831562424847757
    z: 0.03943735406067427
    w: -0.9977074893546759
---
header: 
  seq: 596
  stamp: 
    secs: 1676104290
    nsecs: 134294592
  frame_id: "map"
pose: 
  position: 
    x: -0.4138689935207367
    y: 0.5200052261352539
    z: 0.1260027140378952
  orientation: 
    x: 0.05185281859559854
    y: -0.018315562345293822
    z: 0.03943035768382143
    w: -0.997707995116858
---
header: 
  seq: 597
  stamp: 
    secs: 1676104290
    nsecs: 164294592
  frame_id: "map"
pose: 
  position: 
    x: -0.41381168365478516
    y: 0.5200913548469543
    z: 0.1260106861591339
  orientation: 
    x: 0.0518456220212153
    y: -0.01830415108605949
    z: 0.03942702808278911
    w: -0.9977086273195858
---
header: 
  seq: 598
  stamp: 
    secs: 1676104290
    nsecs: 204296896
  frame_id: "map"
pose: 
  position: 
    x: -0.41372886300086975
    y: 0.5202008485794067
    z: 0.12602642178535461
  orientation: 
    x: 0.051837358604729135
    y: -0.01830198315753921
    z: 0.03942154899248267
    w: -0.9977093859628589
---
header: 
  seq: 599
  stamp: 
    secs: 1676104290
    nsecs: 234296896
  frame_id: "map"
pose: 
  position: 
    x: -0.4136601984500885
    y: 0.5202738046646118
    z: 0.12603256106376648
  orientation: 
    x: 0.051837907830848795
    y: -0.018302324283594348
    z: 0.039423192719574604
    w: -0.9977092595223134
---
header: 
  seq: 600
  stamp: 
    secs: 1676104290
    nsecs: 264296896
  frame_id: "map"
pose: 
  position: 
    x: -0.413590669631958
    y: 0.5203465819358826
    z: 0.1260310262441635
  orientation: 
    x: 0.051829494266214804
    y: -0.018310226817690144
    z: 0.03942066390866394
    w: -0.9977095966971015
---
header: 
  seq: 601
  stamp: 
    secs: 1676104290
    nsecs: 304299456
  frame_id: "map"
pose: 
  position: 
    x: -0.4134930670261383
    y: 0.520435631275177
    z: 0.12603110074996948
  orientation: 
    x: 0.05182997895497268
    y: -0.018307092145832145
    z: 0.0394281239008504
    w: -0.9977093859628589
---
header: 
  seq: 602
  stamp: 
    secs: 1676104290
    nsecs: 334299456
  frame_id: "map"
pose: 
  position: 
    x: -0.4134182929992676
    y: 0.5204980969429016
    z: 0.12603144347667694
  orientation: 
    x: 0.05182806917589953
    y: -0.018310329550633386
    z: 0.03942201260781629
    w: -0.9977096809907985
---
header: 
  seq: 603
  stamp: 
    secs: 1676104290
    nsecs: 364299456
  frame_id: "map"
pose: 
  position: 
    x: -0.41333910822868347
    y: 0.5205525755882263
    z: 0.12602843344211578
  orientation: 
    x: 0.05183224171390211
    y: -0.0183125580652484
    z: 0.03941210809841625
    w: -0.997709807431344
---
header: 
  seq: 604
  stamp: 
    secs: 1676104290
    nsecs: 404302016
  frame_id: "map"
pose: 
  position: 
    x: -0.413230299949646
    y: 0.5206171870231628
    z: 0.12602810561656952
  orientation: 
    x: 0.05183456505892627
    y: -0.018305356222509103
    z: 0.039404142344047655
    w: -0.9977101024592836
---
header: 
  seq: 605
  stamp: 
    secs: 1676104290
    nsecs: 434302016
  frame_id: "map"
pose: 
  position: 
    x: -0.41314661502838135
    y: 0.5206587314605713
    z: 0.1260269433259964
  orientation: 
    x: 0.05183014490818869
    y: -0.01829610498926096
    z: 0.03940637612701874
    w: -0.9977104817809201
---
header: 
  seq: 606
  stamp: 
    secs: 1676104290
    nsecs: 464302016
  frame_id: "map"
pose: 
  position: 
    x: -0.41306552290916443
    y: 0.5206950306892395
    z: 0.12603341042995453
  orientation: 
    x: 0.051839322384451936
    y: -0.018293665740403395
    z: 0.03940979002174814
    w: -0.9977098495781925
---
header: 
  seq: 607
  stamp: 
    secs: 1676104290
    nsecs: 504304576
  frame_id: "map"
pose: 
  position: 
    x: -0.41295793652534485
    y: 0.5207452178001404
    z: 0.12605097889900208
  orientation: 
    x: 0.05181985317461794
    y: -0.018296644995757505
    z: 0.03941311962278051
    w: -0.9977106503683142
---
header: 
  seq: 608
  stamp: 
    secs: 1676104290
    nsecs: 534304576
  frame_id: "map"
pose: 
  position: 
    x: -0.4128876030445099
    y: 0.5207757949829102
    z: 0.12605968117713928
  orientation: 
    x: 0.051819909809445626
    y: -0.01829591927970971
    z: 0.03941151804253709
    w: -0.9977107346620112
---
header: 
  seq: 609
  stamp: 
    secs: 1676104290
    nsecs: 565304576
  frame_id: "map"
pose: 
  position: 
    x: -0.4128223955631256
    y: 0.5207960605621338
    z: 0.12606516480445862
  orientation: 
    x: 0.05181955946376738
    y: -0.018284431629312457
    z: 0.03940178212053109
    w: -0.9977113668647389
---
header: 
  seq: 610
  stamp: 
    secs: 1676104290
    nsecs: 604307136
  frame_id: "map"
pose: 
  position: 
    x: -0.41273969411849976
    y: 0.5208113193511963
    z: 0.12608064711093903
  orientation: 
    x: 0.05181155156255031
    y: -0.018283615034122562
    z: 0.03940380516925961
    w: -0.997711704039527
---
header: 
  seq: 611
  stamp: 
    secs: 1676104290
    nsecs: 634307136
  frame_id: "map"
pose: 
  position: 
    x: -0.41268107295036316
    y: 0.5208162665367126
    z: 0.1260911226272583
  orientation: 
    x: 0.05181449130523394
    y: -0.018284916318070336
    z: 0.0393965137644672
    w: -0.9977118304800725
---
header: 
  seq: 612
  stamp: 
    secs: 1676104290
    nsecs: 664307136
  frame_id: "map"
pose: 
  position: 
    x: -0.4126284718513489
    y: 0.520828127861023
    z: 0.12609784305095673
  orientation: 
    x: 0.05181298455539968
    y: -0.0182817289626517
    z: 0.039397651729377
    w: -0.997711956920618
---
header: 
  seq: 613
  stamp: 
    secs: 1676104290
    nsecs: 704309696
  frame_id: "map"
pose: 
  position: 
    x: -0.4125567376613617
    y: 0.5208350419998169
    z: 0.12610262632369995
  orientation: 
    x: 0.051809222949170085
    y: -0.01829359330050752
    z: 0.03940039127453022
    w: -0.9977118304800725
---
header: 
  seq: 614
  stamp: 
    secs: 1676104290
    nsecs: 734309696
  frame_id: "map"
pose: 
  position: 
    x: -0.4125058352947235
    y: 0.5208279490470886
    z: 0.12610559165477753
  orientation: 
    x: 0.05180415742481468
    y: -0.018290508678032127
    z: 0.03940308867283493
    w: -0.9977119990674665
---
header: 
  seq: 615
  stamp: 
    secs: 1676104290
    nsecs: 764309696
  frame_id: "map"
pose: 
  position: 
    x: -0.41246652603149414
    y: 0.5208207964897156
    z: 0.1260993629693985
  orientation: 
    x: 0.05179505238844731
    y: -0.018284361823594615
    z: 0.03939744099513444
    w: -0.9977128420044368
---
header: 
  seq: 616
  stamp: 
    secs: 1676104290
    nsecs: 804312256
  frame_id: "map"
pose: 
  position: 
    x: -0.41242292523384094
    y: 0.520807147026062
    z: 0.12609069049358368
  orientation: 
    x: 0.05179150283354928
    y: -0.018289660472705842
    z: 0.039399253309620415
    w: -0.9977127998575882
---
header: 
  seq: 617
  stamp: 
    secs: 1676104290
    nsecs: 834312256
  frame_id: "map"
pose: 
  position: 
    x: -0.4123894274234772
    y: 0.5208003520965576
    z: 0.12608018517494202
  orientation: 
    x: 0.05179529341573723
    y: -0.018294762875553695
    z: 0.03939529150586038
    w: -0.9977127155638912
---
header: 
  seq: 618
  stamp: 
    secs: 1676104290
    nsecs: 864312256
  frame_id: "map"
pose: 
  position: 
    x: -0.4123576581478119
    y: 0.5207859873771667
    z: 0.12606678903102875
  orientation: 
    x: 0.05180096216686195
    y: -0.018300526457087556
    z: 0.039408314882050245
    w: -0.9977118304800725
---
header: 
  seq: 619
  stamp: 
    secs: 1676104290
    nsecs: 905314304
  frame_id: "map"
pose: 
  position: 
    x: -0.4123186767101288
    y: 0.5207588076591492
    z: 0.126046285033226
  orientation: 
    x: 0.051803891372833456
    y: -0.018304108939210986
    z: 0.03940742979823151
    w: -0.99771161974583
---
header: 
  seq: 620
  stamp: 
    secs: 1676104290
    nsecs: 935314304
  frame_id: "map"
pose: 
  position: 
    x: -0.41229063272476196
    y: 0.5207422971725464
    z: 0.12602882087230682
  orientation: 
    x: 0.05179546068604226
    y: -0.018304410552595643
    z: 0.03941168662993113
    w: -0.9977118304800725
---
header: 
  seq: 621
  stamp: 
    secs: 1676104290
    nsecs: 965314304
  frame_id: "map"
pose: 
  position: 
    x: -0.4122648537158966
    y: 0.5207219123840332
    z: 0.12600909173488617
  orientation: 
    x: 0.05179602440014109
    y: -0.018300211672812743
    z: 0.03942032673387584
    w: -0.997711535452133
---
header: 
  seq: 622
  stamp: 
    secs: 1676104290
    nsecs: 995315072
  frame_id: "map"
pose: 
  position: 
    x: -0.4122450649738312
    y: 0.5206989049911499
    z: 0.12598946690559387
  orientation: 
    x: 0.05178766483615676
    y: -0.018291364785892505
    z: 0.03942100108345201
    w: -0.9977121255080121
---
header: 
  seq: 623
  stamp: 
    secs: 1676104291
    nsecs:  35315072
  frame_id: "map"
pose: 
  position: 
    x: -0.4122336506843567
    y: 0.5206723213195801
    z: 0.12595488131046295
  orientation: 
    x: 0.05179403032737092
    y: -0.01829391862149446
    z: 0.03941720786708608
    w: -0.9977118726269211
---
header: 
  seq: 624
  stamp: 
    secs: 1676104291
    nsecs:  65315072
  frame_id: "map"
pose: 
  position: 
    x: -0.41223540902137756
    y: 0.5206581354141235
    z: 0.1259269118309021
  orientation: 
    x: 0.051794944387148
    y: -0.01828657716731947
    z: 0.03942449927187844
    w: -0.9977117461863755
---
header: 
  seq: 625
  stamp: 
    secs: 1676104291
    nsecs:  95317632
  frame_id: "map"
pose: 
  position: 
    x: -0.4122377932071686
    y: 0.5206518769264221
    z: 0.1258976310491562
  orientation: 
    x: 0.051795004973242735
    y: -0.018290325602658905
    z: 0.03942719667018314
    w: -0.9977115775989814
---
header: 
  seq: 626
  stamp: 
    secs: 1676104291
    nsecs: 135317632
  frame_id: "map"
pose: 
  position: 
    x: -0.41223689913749695
    y: 0.5206605195999146
    z: 0.12585435807704926
  orientation: 
    x: 0.051797679981034156
    y: -0.018292381578612824
    z: 0.039426943789092075
    w: -0.9977113247178904
---
header: 
  seq: 627
  stamp: 
    secs: 1676104291
    nsecs: 165317632
  frame_id: "map"
pose: 
  position: 
    x: -0.4122333228588104
    y: 0.5206720232963562
    z: 0.1258133351802826
  orientation: 
    x: 0.05179680411683854
    y: -0.018292577824876206
    z: 0.0394360053615219
    w: -0.9977110296899508
---
header: 
  seq: 628
  stamp: 
    secs: 1676104291
    nsecs: 195319168
  frame_id: "map"
pose: 
  position: 
    x: -0.41223782300949097
    y: 0.520677387714386
    z: 0.1257641762495041
  orientation: 
    x: 0.05179366154244645
    y: -0.01828991467088592
    z: 0.03944350750055687
    w: -0.9977109453962538
---
header: 
  seq: 629
  stamp: 
    secs: 1676104291
    nsecs: 235319168
  frame_id: "map"
pose: 
  position: 
    x: -0.4122541546821594
    y: 0.5206867456436157
    z: 0.1256943643093109
  orientation: 
    x: 0.05180243203820376
    y: -0.018287834987329717
    z: 0.039442748857283674
    w: -0.9977106082214657
---
header: 
  seq: 630
  stamp: 
    secs: 1676104291
    nsecs: 266319168
  frame_id: "map"
pose: 
  position: 
    x: -0.4122733771800995
    y: 0.5206977128982544
    z: 0.125652015209198
  orientation: 
    x: 0.05181010803298881
    y: -0.018295795473342213
    z: 0.03944746930431686
    w: -0.9977098495781925
---
header: 
  seq: 631
  stamp: 
    secs: 1676104291
    nsecs: 305321728
  frame_id: "map"
pose: 
  position: 
    x: -0.41229939460754395
    y: 0.520712673664093
    z: 0.12560510635375977
  orientation: 
    x: 0.05179971488356382
    y: -0.018302669360916533
    z: 0.039445109080800296
    w: -0.9977103553403747
---
header: 
  seq: 632
  stamp: 
    secs: 1676104291
    nsecs: 335321728
  frame_id: "map"
pose: 
  position: 
    x: -0.41231992840766907
    y: 0.5207242965698242
    z: 0.12557493150234222
  orientation: 
    x: 0.05179864277310483
    y: -0.01830313561042819
    z: 0.03944738501061983
    w: -0.9977102710466776
---
header: 
  seq: 633
  stamp: 
    secs: 1676104291
    nsecs: 365321728
  frame_id: "map"
pose: 
  position: 
    x: -0.4123380482196808
    y: 0.5207356810569763
    z: 0.12554800510406494
  orientation: 
    x: 0.051803390879007385
    y: -0.018298182038639137
    z: 0.039444392584375605
    w: -0.9977103131935261
---
header: 
  seq: 634
  stamp: 
    secs: 1676104291
    nsecs: 405324544
  frame_id: "map"
pose: 
  position: 
    x: -0.4123649001121521
    y: 0.520760715007782
    z: 0.125515416264534
  orientation: 
    x: 0.05180045113632375
    y: -0.01829652777483509
    z: 0.039452990541471805
    w: -0.997710144606132
---
header: 
  seq: 635
  stamp: 
    secs: 1676104291
    nsecs: 435324544
  frame_id: "map"
pose: 
  position: 
    x: -0.41239050030708313
    y: 0.5207796692848206
    z: 0.12549658119678497
  orientation: 
    x: 0.05180259140597469
    y: -0.018287838938596764
    z: 0.039453285569411384
    w: -0.9977101867529806
---
header: 
  seq: 636
  stamp: 
    secs: 1676104291
    nsecs: 465324544
  frame_id: "map"
pose: 
  position: 
    x: -0.41241925954818726
    y: 0.5207909345626831
    z: 0.1254824697971344
  orientation: 
    x: 0.05179813305965565
    y: -0.018281597253750104
    z: 0.039450714611652206
    w: -0.9977106503683142
---
header: 
  seq: 637
  stamp: 
    secs: 1676104291
    nsecs: 495327104
  frame_id: "map"
pose: 
  position: 
    x: -0.41244760155677795
    y: 0.5207971930503845
    z: 0.12546561658382416
  orientation: 
    x: 0.051802819262374455
    y: -0.018289623594213395
    z: 0.039448818003469215
    w: -0.9977102710466776
---
header: 
  seq: 638
  stamp: 
    secs: 1676104291
    nsecs: 535327104
  frame_id: "map"
pose: 
  position: 
    x: -0.4124811291694641
    y: 0.5207974910736084
    z: 0.12544573843479156
  orientation: 
    x: 0.05179665791995777
    y: -0.018287065807344387
    z: 0.03945442353432118
    w: -0.9977104817809201
---
header: 
  seq: 639
  stamp: 
    secs: 1676104291
    nsecs: 566327104
  frame_id: "map"
pose: 
  position: 
    x: -0.4125085771083832
    y: 0.5207936763763428
    z: 0.12542790174484253
  orientation: 
    x: 0.05178914787838874
    y: -0.0182946812160347
    z: 0.039454634268563736
    w: -0.9977106925151626
---
header: 
  seq: 640
  stamp: 
    secs: 1676104291
    nsecs: 596329664
  frame_id: "map"
pose: 
  position: 
    x: -0.41253483295440674
    y: 0.5207886099815369
    z: 0.12540633976459503
  orientation: 
    x: 0.05180525719414301
    y: -0.01828664829012633
    z: 0.03946179923281057
    w: -0.9977096809907985
---
header: 
  seq: 641
  stamp: 
    secs: 1676104291
    nsecs: 636329664
  frame_id: "map"
pose: 
  position: 
    x: -0.41256678104400635
    y: 0.5207870602607727
    z: 0.12537233531475067
  orientation: 
    x: 0.05181243796345805
    y: -0.0182823809217146
    z: 0.039460366239961187
    w: -0.9977095124034044
---
header: 
  seq: 642
  stamp: 
    secs: 1676104291
    nsecs: 665329664
  frame_id: "map"
pose: 
  position: 
    x: -0.4125869572162628
    y: 0.5207789540290833
    z: 0.12534518539905548
  orientation: 
    x: 0.05180998027535426
    y: -0.018280882074414435
    z: 0.039461293470628434
    w: -0.9977095966971015
---
header: 
  seq: 643
  stamp: 
    secs: 1676104291
    nsecs: 705332224
  frame_id: "map"
pose: 
  position: 
    x: -0.41261017322540283
    y: 0.5207681059837341
    z: 0.12530508637428284
  orientation: 
    x: 0.051801877543728045
    y: -0.018289216613707464
    z: 0.03946217855444716
    w: -0.997709807431344
---
header: 
  seq: 644
  stamp: 
    secs: 1676104291
    nsecs: 736332224
  frame_id: "map"
pose: 
  position: 
    x: -0.41262689232826233
    y: 0.5207512378692627
    z: 0.1252848505973816
  orientation: 
    x: 0.05179562795634728
    y: -0.018294349309602678
    z: 0.03946698329517742
    w: -0.997709891725041
---
header: 
  seq: 645
  stamp: 
    secs: 1676104291
    nsecs: 766332224
  frame_id: "map"
pose: 
  position: 
    x: -0.4126317501068115
    y: 0.5207312703132629
    z: 0.12526600062847137
  orientation: 
    x: 0.051807269706159405
    y: -0.018295082928184575
    z: 0.0394638222815391
    w: -0.9977093438160104
---
header: 
  seq: 646
  stamp: 
    secs: 1676104291
    nsecs: 806335040
  frame_id: "map"
pose: 
  position: 
    x: -0.41262611746788025
    y: 0.5206957459449768
    z: 0.12523940205574036
  orientation: 
    x: 0.051813374413748406
    y: -0.018295210685819123
    z: 0.039465213127539964
    w: -0.9977089644943737
---
header: 
  seq: 647
  stamp: 
    secs: 1676104291
    nsecs: 836335040
  frame_id: "map"
pose: 
  position: 
    x: -0.41262274980545044
    y: 0.5206635594367981
    z: 0.12522172927856445
  orientation: 
    x: 0.05180763717399486
    y: -0.018293171832022406
    z: 0.03947680351088045
    w: -0.9977088380538283
---
header: 
  seq: 648
  stamp: 
    secs: 1676104291
    nsecs: 866335040
  frame_id: "map"
pose: 
  position: 
    x: -0.41261714696884155
    y: 0.5206294655799866
    z: 0.12520499527454376
  orientation: 
    x: 0.051812491964107706
    y: -0.01828639409194625
    z: 0.039477014245123
    w: -0.9977087116132827
---
header: 
  seq: 649
  stamp: 
    secs: 1676104291
    nsecs: 906337600
  frame_id: "map"
pose: 
  position: 
    x: -0.41259297728538513
    y: 0.5205791592597961
    z: 0.12519069015979767
  orientation: 
    x: 0.05180576163923612
    y: -0.018274679902238255
    z: 0.03948143966421667
    w: -0.9977090909349193
---
header: 
  seq: 650
  stamp: 
    secs: 1676104291
    nsecs: 936337600
  frame_id: "map"
pose: 
  position: 
    x: -0.4125693738460541
    y: 0.5205386281013489
    z: 0.12518519163131714
  orientation: 
    x: 0.05179879818960872
    y: -0.018268461924993876
    z: 0.03947945876233664
    w: -0.9977097231376469
---
header: 
  seq: 651
  stamp: 
    secs: 1676104291
    nsecs: 966337600
  frame_id: "map"
pose: 
  position: 
    x: -0.41254958510398865
    y: 0.5204967856407166
    z: 0.1251780092716217
  orientation: 
    x: 0.05179336388032884
    y: -0.018277620962010906
    z: 0.0394823247480354
    w: -0.9977096388439499
---
header: 
  seq: 652
  stamp: 
    secs: 1676104291
    nsecs: 996339904
  frame_id: "map"
pose: 
  position: 
    x: -0.41253671050071716
    y: 0.5204556584358215
    z: 0.1251683533191681
  orientation: 
    x: 0.05180793088484542
    y: -0.018285091490909462
    z: 0.03948894180325158
    w: -0.9977085008790402
---
header: 
  seq: 653
  stamp: 
    secs: 1676104292
    nsecs:  36339904
  frame_id: "map"
pose: 
  position: 
    x: -0.41251760721206665
    y: 0.5204005837440491
    z: 0.12515853345394135
  orientation: 
    x: 0.05181200859243885
    y: -0.018285428665697545
    z: 0.039488351747372426
    w: -0.9977083322916461
---
header: 
  seq: 654
  stamp: 
    secs: 1676104292
    nsecs:  66339904
  frame_id: "map"
pose: 
  position: 
    x: -0.4124974310398102
    y: 0.5203655958175659
    z: 0.12515532970428467
  orientation: 
    x: 0.051804916068087875
    y: -0.018285645985385176
    z: 0.039482661922823487
    w: -0.9977088802006768
---
header: 
  seq: 655
  stamp: 
    secs: 1676104292
    nsecs: 106341952
  frame_id: "map"
pose: 
  position: 
    x: -0.4124588966369629
    y: 0.5203310251235962
    z: 0.12514959275722504
  orientation: 
    x: 0.0517963800141754
    y: -0.018292190600705516
    z: 0.039478025769487265
    w: -0.9977093859628589
---
header: 
  seq: 656
  stamp: 
    secs: 1676104292
    nsecs: 136341952
  frame_id: "map"
pose: 
  position: 
    x: -0.4124322235584259
    y: 0.5203076004981995
    z: 0.1251438409090042
  orientation: 
    x: 0.05179488248396425
    y: -0.018295595275811784
    z: 0.03947794147579024
    w: -0.9977094702565559
---
header: 
  seq: 657
  stamp: 
    secs: 1676104292
    nsecs: 166341952
  frame_id: "map"
pose: 
  position: 
    x: -0.4124078154563904
    y: 0.5202817320823669
    z: 0.12513937056064606
  orientation: 
    x: 0.05179351534556568
    y: -0.018292752997715326
    z: 0.039486160111249904
    w: -0.9977092595223134
---
header: 
  seq: 658
  stamp: 
    secs: 1676104292
    nsecs: 206344256
  frame_id: "map"
pose: 
  position: 
    x: -0.41237425804138184
    y: 0.5202529430389404
    z: 0.12512701749801636
  orientation: 
    x: 0.05179185844758359
    y: -0.01828212935771255
    z: 0.03947692995142598
    w: -0.997709891725041
---
header: 
  seq: 659
  stamp: 
    secs: 1676104292
    nsecs: 236344256
  frame_id: "map"
pose: 
  position: 
    x: -0.41234493255615234
    y: 0.5202410817146301
    z: 0.12511399388313293
  orientation: 
    x: 0.05179258416363139
    y: -0.01828281029273381
    z: 0.03947427469996978
    w: -0.9977099338718896
---
header: 
  seq: 660
  stamp: 
    secs: 1676104292
    nsecs: 266344256
  frame_id: "map"
pose: 
  position: 
    x: -0.4123103618621826
    y: 0.5202338099479675
    z: 0.12510229647159576
  orientation: 
    x: 0.05179114195115891
    y: -0.018277914672861464
    z: 0.03946984928087618
    w: -0.9977103131935261
---
header: 
  seq: 661
  stamp: 
    secs: 1676104292
    nsecs: 296346560
  frame_id: "map"
pose: 
  position: 
    x: -0.41227468848228455
    y: 0.5202367901802063
    z: 0.12508681416511536
  orientation: 
    x: 0.0517920902552504
    y: -0.018290590337551114
    z: 0.039464875952751874
    w: -0.997710144606132
---
header: 
  seq: 662
  stamp: 
    secs: 1676104292
    nsecs: 336346560
  frame_id: "map"
pose: 
  position: 
    x: -0.41221702098846436
    y: 0.5202466249465942
    z: 0.1250682920217514
  orientation: 
    x: 0.05178383605838735
    y: -0.01828881358446858
    z: 0.03947022860251277
    w: -0.9977104396340717
---
header: 
  seq: 663
  stamp: 
    secs: 1676104292
    nsecs: 366346560
  frame_id: "map"
pose: 
  position: 
    x: -0.41217347979545593
    y: 0.5202590823173523
    z: 0.12505154311656952
  orientation: 
    x: 0.051786061938824325
    y: -0.018282683852188272
    z: 0.03947524407748554
    w: -0.9977102288998291
---
header: 
  seq: 664
  stamp: 
    secs: 1676104292
    nsecs: 396348608
  frame_id: "map"
pose: 
  position: 
    x: -0.4121338129043579
    y: 0.5202698707580566
    z: 0.12503397464752197
  orientation: 
    x: 0.05180225027991956
    y: -0.0182867365350904
    z: 0.03946146205802248
    w: -0.9977098495781925
---
header: 
  seq: 665
  stamp: 
    secs: 1676104292
    nsecs: 436348608
  frame_id: "map"
pose: 
  position: 
    x: -0.4120835065841675
    y: 0.5202866792678833
    z: 0.125001460313797
  orientation: 
    x: 0.05180144817270883
    y: -0.018282976245949815
    z: 0.0394548871496548
    w: -0.9977101867529805
---
header: 
  seq: 666
  stamp: 
    secs: 1676104292
    nsecs: 466348608
  frame_id: "map"
pose: 
  position: 
    x: -0.4120422601699829
    y: 0.5203015804290771
    z: 0.12498006224632263
  orientation: 
    x: 0.05179154234621976
    y: -0.01827802003998274
    z: 0.03944544625558838
    w: -0.9977111982773449
---
header: 
  seq: 667
  stamp: 
    secs: 1676104292
    nsecs: 497351168
  frame_id: "map"
pose: 
  position: 
    x: -0.4120042622089386
    y: 0.5203152298927307
    z: 0.1249651238322258
  orientation: 
    x: 0.051792340502163435
    y: -0.018273481351233727
    z: 0.039439419256251294
    w: -0.9977114933052844
---
header: 
  seq: 668
  stamp: 
    secs: 1676104292
    nsecs: 537351168
  frame_id: "map"
pose: 
  position: 
    x: -0.41195395588874817
    y: 0.5203352570533752
    z: 0.12494717538356781
  orientation: 
    x: 0.05177780379069422
    y: -0.01827541088664211
    z: 0.03943659541740105
    w: -0.9977123783891032
---
header: 
  seq: 669
  stamp: 
    secs: 1676104292
    nsecs: 566351168
  frame_id: "map"
pose: 
  position: 
    x: -0.41191723942756653
    y: 0.520350992679596
    z: 0.12493392825126648
  orientation: 
    x: 0.05177131581020158
    y: -0.018266399363594876
    z: 0.03942723881703165
    w: -0.9977132213260733
---
header: 
  seq: 670
  stamp: 
    secs: 1676104292
    nsecs: 597353728
  frame_id: "map"
pose: 
  position: 
    x: -0.41188156604766846
    y: 0.5203700065612793
    z: 0.12491738051176071
  orientation: 
    x: 0.05178998027864683
    y: -0.018267480693676987
    z: 0.03943204355776191
    w: -0.9977120412143151
---
header: 
  seq: 671
  stamp: 
    secs: 1676104292
    nsecs: 637353728
  frame_id: "map"
pose: 
  position: 
    x: -0.41185110807418823
    y: 0.5204028487205505
    z: 0.12489145249128342
  orientation: 
    x: 0.05179154498039779
    y: -0.01826956696267827
    z: 0.03943103203339765
    w: -0.9977119569206181
---
header: 
  seq: 672
  stamp: 
    secs: 1676104292
    nsecs: 667353728
  frame_id: "map"
pose: 
  position: 
    x: -0.41183388233184814
    y: 0.5204344987869263
    z: 0.12487209588289261
  orientation: 
    x: 0.05178593418118978
    y: -0.01827582576968214
    z: 0.03943608965521892
    w: -0.9977119569206181
---
header: 
  seq: 673
  stamp: 
    secs: 1676104292
    nsecs: 697356032
  frame_id: "map"
pose: 
  position: 
    x: -0.41182243824005127
    y: 0.5204679369926453
    z: 0.12485688924789429
  orientation: 
    x: 0.05179675275036692
    y: -0.018274801074427718
    z: 0.039431200620791695
    w: -0.99771161974583
---
header: 
  seq: 674
  stamp: 
    secs: 1676104292
    nsecs: 737356032
  frame_id: "map"
pose: 
  position: 
    x: -0.4118093252182007
    y: 0.520501434803009
    z: 0.12484189122915268
  orientation: 
    x: 0.05178937968605554
    y: -0.018275888989954907
    z: 0.03943128491448872
    w: -0.9977119569206181
---
header: 
  seq: 675
  stamp: 
    secs: 1676104292
    nsecs: 767356032
  frame_id: "map"
pose: 
  position: 
    x: -0.41181397438049316
    y: 0.5205284953117371
    z: 0.12483596056699753
  orientation: 
    x: 0.0517897392513569
    y: -0.018272378947727357
    z: 0.03942593226472781
    w: -0.9977121676548606
---
header: 
  seq: 676
  stamp: 
    secs: 1676104292
    nsecs: 797358336
  frame_id: "map"
pose: 
  position: 
    x: -0.41182398796081543
    y: 0.5205619931221008
    z: 0.12482689321041107
  orientation: 
    x: 0.051777956573020076
    y: -0.018271633475344322
    z: 0.039427491698122714
    w: -0.9977127155638912
---
header: 
  seq: 677
  stamp: 
    secs: 1676104292
    nsecs: 837358336
  frame_id: "map"
pose: 
  position: 
    x: -0.41184425354003906
    y: 0.520606279373169
    z: 0.12481775879859924
  orientation: 
    x: 0.051771213077258335
    y: -0.01827398316214881
    z: 0.03942534220884865
    w: -0.9977130948855278
---
header: 
  seq: 678
  stamp: 
    secs: 1676104292
    nsecs: 867358336
  frame_id: "map"
pose: 
  position: 
    x: -0.4118654429912567
    y: 0.5206377506256104
    z: 0.12481028586626053
  orientation: 
    x: 0.0517770016834835
    y: -0.018278025308338802
    z: 0.03943098988654913
    w: -0.9977125891233457
---
header: 
  seq: 679
  stamp: 
    secs: 1676104292
    nsecs: 897359616
  frame_id: "map"
pose: 
  position: 
    x: -0.41189801692962646
    y: 0.52066969871521
    z: 0.1248101145029068
  orientation: 
    x: 0.05177594142682565
    y: -0.018278063503920267
    z: 0.039435499599339764
    w: -0.9977124626828002
---
header: 
  seq: 680
  stamp: 
    secs: 1676104292
    nsecs: 937359616
  frame_id: "map"
pose: 
  position: 
    x: -0.4119483232498169
    y: 0.5207063555717468
    z: 0.12481427192687988
  orientation: 
    x: 0.051775065562630035
    y: -0.018270236043898387
    z: 0.03943971428419087
    w: -0.9977124626828001
---
header: 
  seq: 681
  stamp: 
    secs: 1676104292
    nsecs: 967359616
  frame_id: "map"
pose: 
  position: 
    x: -0.41199660301208496
    y: 0.5207210183143616
    z: 0.12482769042253494
  orientation: 
    x: 0.051770827170176656
    y: -0.01827582313550411
    z: 0.039437185473280206
    w: -0.9977126312701943
---
header: 
  seq: 682
  stamp: 
    secs: 1676104292
    nsecs: 997361920
  frame_id: "map"
pose: 
  position: 
    x: -0.4120558500289917
    y: 0.5207276940345764
    z: 0.12485068291425705
  orientation: 
    x: 0.05177672377770113
    y: -0.0182707905383741
    z: 0.03943899778776618
    w: -0.9977123362422546
---
header: 
  seq: 683
  stamp: 
    secs: 1676104293
    nsecs:  38361920
  frame_id: "map"
pose: 
  position: 
    x: -0.4121364951133728
    y: 0.5207338929176331
    z: 0.124883271753788
  orientation: 
    x: 0.05176964705841835
    y: -0.018270891954228333
    z: 0.03943815485079596
    w: -0.9977127577107398
---
header: 
  seq: 684
  stamp: 
    secs: 1676104293
    nsecs:  67361920
  frame_id: "map"
pose: 
  position: 
    x: -0.41218826174736023
    y: 0.520735502243042
    z: 0.12490402907133102
  orientation: 
    x: 0.05176550876473019
    y: -0.018269335155011463
    z: 0.039441948067161954
    w: -0.9977128420044368
---
header: 
  seq: 685
  stamp: 
    secs: 1676104293
    nsecs:  97363712
  frame_id: "map"
pose: 
  position: 
    x: -0.41224348545074463
    y: 0.5207398533821106
    z: 0.12492037564516068
  orientation: 
    x: 0.051773139978488696
    y: -0.018275796793723792
    z: 0.039442032360858977
    w: -0.9977123362422546
---
header: 
  seq: 686
  stamp: 
    secs: 1676104293
    nsecs: 137363712
  frame_id: "map"
pose: 
  position: 
    x: -0.4123164713382721
    y: 0.5207376480102539
    z: 0.12495248019695282
  orientation: 
    x: 0.05177368261916327
    y: -0.01827399501594995
    z: 0.039447469304316904
    w: -0.9977121255080121
---
header: 
  seq: 687
  stamp: 
    secs: 1676104293
    nsecs: 167363712
  frame_id: "map"
pose: 
  position: 
    x: -0.41236695647239685
    y: 0.5207303166389465
    z: 0.12497972697019577
  orientation: 
    x: 0.05176637145803564
    y: -0.018281274566941192
    z: 0.039446584220498175
    w: -0.9977124205359517
---
header: 
  seq: 688
  stamp: 
    secs: 1676104293
    nsecs: 197367040
  frame_id: "map"
pose: 
  position: 
    x: -0.41241592168807983
    y: 0.5207225680351257
    z: 0.1250121295452118
  orientation: 
    x: 0.05176117949313471
    y: -0.0182775630100942
    z: 0.03944759574486244
    w: -0.9977127577107398
---
header: 
  seq: 689
  stamp: 
    secs: 1676104293
    nsecs: 237367040
  frame_id: "map"
pose: 
  position: 
    x: -0.41247645020484924
    y: 0.520700991153717
    z: 0.12505918741226196
  orientation: 
    x: 0.051764681632828165
    y: -0.018277063833357147
    z: 0.039453580597350955
    w: -0.9977123362422546
---
header: 
  seq: 690
  stamp: 
    secs: 1676104293
    nsecs: 267367040
  frame_id: "map"
pose: 
  position: 
    x: -0.412518173456192
    y: 0.5206775665283203
    z: 0.12509246170520782
  orientation: 
    x: 0.05176260985180604
    y: -0.01827357749873189
    z: 0.039451304667531356
    w: -0.9977125891233457
---
header: 
  seq: 691
  stamp: 
    secs: 1676104293
    nsecs: 298369600
  frame_id: "map"
pose: 
  position: 
    x: -0.41256144642829895
    y: 0.5206491947174072
    z: 0.12512168288230896
  orientation: 
    x: 0.051770546630216255
    y: -0.018281988429187844
    z: 0.03944675280789222
    w: -0.9977121676548606
---
header: 
  seq: 692
  stamp: 
    secs: 1676104293
    nsecs: 338369600
  frame_id: "map"
pose: 
  position: 
    x: -0.41261643171310425
    y: 0.5206068158149719
    z: 0.1251640021800995
  orientation: 
    x: 0.05177018969909293
    y: -0.01828001147857488
    z: 0.03944721642322584
    w: -0.9977122098017092
---
header: 
  seq: 693
  stamp: 
    secs: 1676104293
    nsecs: 368369600
  frame_id: "map"
pose: 
  position: 
    x: -0.4126509428024292
    y: 0.520572304725647
    z: 0.12519599497318268
  orientation: 
    x: 0.051761698426207
    y: -0.01827315603024678
    z: 0.03944544625558837
    w: -0.9977128841512853
---
header: 
  seq: 694
  stamp: 
    secs: 1676104293
    nsecs: 397372160
  frame_id: "map"
pose: 
  position: 
    x: -0.4126853942871094
    y: 0.5205378532409668
    z: 0.12522754073143005
  orientation: 
    x: 0.05175805535798884
    y: -0.018269602524081704
    z: 0.03943828129134149
    w: -0.9977133899134674
---
header: 
  seq: 695
  stamp: 
    secs: 1676104293
    nsecs: 438372160
  frame_id: "map"
pose: 
  position: 
    x: -0.4127194285392761
    y: 0.5204921364784241
    z: 0.12527574598789215
  orientation: 
    x: 0.051759114297557675
    y: -0.01827012935968809
    z: 0.03943710117958318
    w: -0.9977133899134674
---
header: 
  seq: 696
  stamp: 
    secs: 1676104293
    nsecs: 468372160
  frame_id: "map"
pose: 
  position: 
    x: -0.4127410650253296
    y: 0.5204522609710693
    z: 0.12530934810638428
  orientation: 
    x: 0.05176394801424627
    y: -0.01825779350396456
    z: 0.039430399830669975
    w: -0.99771360064771
---
header: 
  seq: 697
  stamp: 
    secs: 1676104293
    nsecs: 498374720
  frame_id: "map"
pose: 
  position: 
    x: -0.4127615690231323
    y: 0.520402193069458
    z: 0.12534089386463165
  orientation: 
    x: 0.05175488117346036
    y: -0.01825133976778633
    z: 0.039431959264064884
    w: -0.9977141485567407
---
header: 
  seq: 698
  stamp: 
    secs: 1676104293
    nsecs: 538374720
  frame_id: "map"
pose: 
  position: 
    x: -0.41278019547462463
    y: 0.5203321576118469
    z: 0.12538015842437744
  orientation: 
    x: 0.051760090260518504
    y: -0.018244887348697118
    z: 0.03942921971891167
    w: -0.9977141064098921
---
header: 
  seq: 699
  stamp: 
    secs: 1676104293
    nsecs: 568374720
  frame_id: "map"
pose: 
  position: 
    x: -0.41279199719429016
    y: 0.5202751159667969
    z: 0.12541115283966064
  orientation: 
    x: 0.051769298029829124
    y: -0.018247317377931567
    z: 0.0394293461594572
    w: -0.9977135585008614
---
header: 
  seq: 700
  stamp: 
    secs: 1676104293
    nsecs: 598377280
  frame_id: "map"
pose: 
  position: 
    x: -0.4128022789955139
    y: 0.5202161073684692
    z: 0.12544338405132294
  orientation: 
    x: 0.051768623680252944
    y: -0.01825474575998162
    z: 0.03942445712502992
    w: -0.9977136427945584
---
header: 
  seq: 701
  stamp: 
    secs: 1676104293
    nsecs: 638377280
  frame_id: "map"
pose: 
  position: 
    x: -0.4128164052963257
    y: 0.5201345682144165
    z: 0.12549450993537903
  orientation: 
    x: 0.05176680346323288
    y: -0.018257403645615834
    z: 0.03942302413218054
    w: -0.9977138113819525
---
header: 
  seq: 702
  stamp: 
    secs: 1676104293
    nsecs: 668377280
  frame_id: "map"
pose: 
  position: 
    x: -0.4128291606903076
    y: 0.5200636982917786
    z: 0.1255362629890442
  orientation: 
    x: 0.051769097832298695
    y: -0.01826374411213869
    z: 0.03943288649473213
    w: -0.9977131370323764
---
header: 
  seq: 703
  stamp: 
    secs: 1676104293
    nsecs: 698379328
  frame_id: "map"
pose: 
  position: 
    x: -0.4128367006778717
    y: 0.5199871063232422
    z: 0.1255776286125183
  orientation: 
    x: 0.05177691475560845
    y: -0.01826859231680646
    z: 0.03943153779557978
    w: -0.9977127155638913
---
header: 
  seq: 704
  stamp: 
    secs: 1676104293
    nsecs: 738379328
  frame_id: "map"
pose: 
  position: 
    x: -0.4128444492816925
    y: 0.5198858380317688
    z: 0.12563259899616241
  orientation: 
    x: 0.05178498324292025
    y: -0.018273937064033244
    z: 0.039428924690972096
    w: -0.9977122940954061
---
header: 
  seq: 705
  stamp: 
    secs: 1676104293
    nsecs: 768379328
  frame_id: "map"
pose: 
  position: 
    x: -0.4128512740135193
    y: 0.5198119282722473
    z: 0.12567000091075897
  orientation: 
    x: 0.051792431381305536
    y: -0.018277800086117076
    z: 0.03942947260000274
    w: -0.9977118304800725
---
header: 
  seq: 706
  stamp: 
    secs: 1676104293
    nsecs: 798381888
  frame_id: "map"
pose: 
  position: 
    x: -0.4128577709197998
    y: 0.5197363495826721
    z: 0.1257115602493286
  orientation: 
    x: 0.05177857955612463
    y: -0.018279381910025247
    z: 0.039424246390787364
    w: -0.9977126734170427
---
header: 
  seq: 707
  stamp: 
    secs: 1676104293
    nsecs: 838381888
  frame_id: "map"
pose: 
  position: 
    x: -0.4128609895706177
    y: 0.5196347832679749
    z: 0.12577535212039948
  orientation: 
    x: 0.0517845169934086
    y: -0.01827993508741195
    z: 0.03942631158636441
    w: -0.9977122940954061
---
header: 
  seq: 708
  stamp: 
    secs: 1676104293
    nsecs: 868381888
  frame_id: "map"
pose: 
  position: 
    x: -0.4128691256046295
    y: 0.5195526480674744
    z: 0.1258220672607422
  orientation: 
    x: 0.05177987952298339
    y: -0.01828693804970984
    z: 0.03942407780339332
    w: -0.9977125048296487
---
header: 
  seq: 709
  stamp: 
    secs: 1676104293
    nsecs: 898383936
  frame_id: "map"
pose: 
  position: 
    x: -0.41288477182388306
    y: 0.5194636583328247
    z: 0.12586161494255066
  orientation: 
    x: 0.05178056836053874
    y: -0.018286986782003432
    z: 0.03941101228035495
    w: -0.9977130105918308
---
header: 
  seq: 710
  stamp: 
    secs: 1676104293
    nsecs: 938383936
  frame_id: "map"
pose: 
  position: 
    x: -0.41288721561431885
    y: 0.5193374156951904
    z: 0.12591448426246643
  orientation: 
    x: 0.05178056836053874
    y: -0.018286986782003432
    z: 0.03941101228035495
    w: -0.9977130105918308
---
header: 
  seq: 711
  stamp: 
    secs: 1676104293
    nsecs: 968383936
  frame_id: "map"
pose: 
  position: 
    x: -0.41282230615615845
    y: 0.5191694498062134
    z: 0.1259632110595703
  orientation: 
    x: 0.051475984940151646
    y: -0.01866421556415511
    z: 0.039681890075734486
    w: -0.9977110296899508
---
header: 
  seq: 712
  stamp: 
    secs: 1676104293
    nsecs: 998386496
  frame_id: "map"
pose: 
  position: 
    x: -0.41267406940460205
    y: 0.5189115405082703
    z: 0.12601828575134277
  orientation: 
    x: 0.05047071543162701
    y: -0.01972517159627477
    z: 0.0402488073350545
    w: -0.9977192483254104
---
header: 
  seq: 713
  stamp: 
    secs: 1676104294
    nsecs:  38386496
  frame_id: "map"
pose: 
  position: 
    x: -0.4125767946243286
    y: 0.5175574421882629
    z: 0.1261574923992157
  orientation: 
    x: 0.048341627866428726
    y: -0.02054942434171216
    z: 0.0396124320693885
    w: -0.9978335084317235
---
header: 
  seq: 714
  stamp: 
    secs: 1676104294
    nsecs:  68386496
  frame_id: "map"
pose: 
  position: 
    x: -0.4131169021129608
    y: 0.5155284404754639
    z: 0.1263493001461029
  orientation: 
    x: 0.036831719323352864
    y: -0.019205829567844925
    z: 0.03874032948000112
    w: -0.9983856321472162
---
header: 
  seq: 715
  stamp: 
    secs: 1676104294
    nsecs:  98389056
  frame_id: "map"
pose: 
  position: 
    x: -0.41407379508018494
    y: 0.5132339000701904
    z: 0.12658639252185822
  orientation: 
    x: 0.020951372909060097
    y: -0.013249867426863168
    z: 0.03832960844126242
    w: -0.9989576913220546
---
header: 
  seq: 716
  stamp: 
    secs: 1676104294
    nsecs: 138389056
  frame_id: "map"
pose: 
  position: 
    x: -0.41537749767303467
    y: 0.5106284022331238
    z: 0.1268254518508911
  orientation: 
    x: 0.013968719300617412
    y: -0.009941401228033359
    z: 0.03805902567382251
    w: -0.9991284703522207
---
header: 
  seq: 717
  stamp: 
    secs: 1676104294
    nsecs: 169389056
  frame_id: "map"
pose: 
  position: 
    x: -0.4161231815814972
    y: 0.5091298222541809
    z: 0.12693539261817932
  orientation: 
    x: 0.003668721654832801
    y: -0.004575219036055279
    z: 0.03770448638414885
    w: -0.9992717696371577
---
header: 
  seq: 718
  stamp: 
    secs: 1676104294
    nsecs: 198391360
  frame_id: "map"
pose: 
  position: 
    x: -0.4165957570075989
    y: 0.5080516934394836
    z: 0.12697833776474
  orientation: 
    x: -0.0013895896625743401
    y: -0.0019346863788946224
    z: 0.03728318648643395
    w: -0.9993019467806915
---
header: 
  seq: 719
  stamp: 
    secs: 1676104294
    nsecs: 238391360
  frame_id: "map"
pose: 
  position: 
    x: -0.4169338345527649
    y: 0.5070395469665527
    z: 0.12698262929916382
  orientation: 
    x: -0.0023159435189606618
    y: -0.0015792402322744575
    z: 0.03712977195785428
    w: -0.9993065829340277
---
header: 
  seq: 720
  stamp: 
    secs: 1676104294
    nsecs: 269391360
  frame_id: "map"
pose: 
  position: 
    x: -0.4171674847602844
    y: 0.5063666105270386
    z: 0.12698349356651306
  orientation: 
    x: -0.002840220679933324
    y: -0.0016085550117750542
    z: 0.03697555663915296
    w: -0.9993108397657273
---
header: 
  seq: 721
  stamp: 
    secs: 1676104294
    nsecs: 299393920
  frame_id: "map"
pose: 
  position: 
    x: -0.4174506366252899
    y: 0.5056656002998352
    z: 0.12695491313934326
  orientation: 
    x: -0.0032110013646941206
    y: -0.0015098579173878903
    z: 0.03660795182644094
    w: -0.9993233995265836
---
header: 
  seq: 722
  stamp: 
    secs: 1676104294
    nsecs: 329393920
  frame_id: "map"
pose: 
  position: 
    x: -0.4178451895713806
    y: 0.5049723386764526
    z: 0.1269366443157196
  orientation: 
    x: -0.003375312088384793
    y: -0.0012787385119068786
    z: 0.03656272825798874
    w: -0.9993248746662814
---
header: 
  seq: 723
  stamp: 
    secs: 1676104294
    nsecs: 369393920
  frame_id: "map"
pose: 
  position: 
    x: -0.4183245897293091
    y: 0.5041014552116394
    z: 0.1268845647573471
  orientation: 
    x: -0.0038037608160060962
    y: -0.0007201827922046995
    z: 0.03611668816019796
    w: -0.9993400896785939
---
header: 
  seq: 724
  stamp: 
    secs: 1676104294
    nsecs: 399396480
  frame_id: "map"
pose: 
  position: 
    x: -0.41868382692337036
    y: 0.5034908652305603
    z: 0.1268773078918457
  orientation: 
    x: -0.00425472567426371
    y: -0.0005624388273934399
    z: 0.035885133374479114
    w: -0.9993467488806587
---
header: 
  seq: 725
  stamp: 
    secs: 1676104294
    nsecs: 429396480
  frame_id: "map"
pose: 
  position: 
    x: -0.418954074382782
    y: 0.5028946995735168
    z: 0.126842200756073
  orientation: 
    x: -0.0044764582686459995
    y: -0.0004608010436649108
    z: 0.03556806263313164
    w: -0.9993571591522408
---
header: 
  seq: 726
  stamp: 
    secs: 1676104294
    nsecs: 469396480
  frame_id: "map"
pose: 
  position: 
    x: -0.41930708289146423
    y: 0.5021554231643677
    z: 0.1267860382795334
  orientation: 
    x: -0.0047261625410048545
    y: -0.0008268737525791068
    z: 0.03529739557199469
    w: -0.999365419934549
---
header: 
  seq: 727
  stamp: 
    secs: 1676104294
    nsecs: 499399296
  frame_id: "map"
pose: 
  position: 
    x: -0.41964191198349
    y: 0.501697838306427
    z: 0.12674520909786224
  orientation: 
    x: -0.004763634217417452
    y: -0.0006948617558727636
    z: 0.03483407526631443
    w: -0.9993815621775286
---
header: 
  seq: 728
  stamp: 
    secs: 1676104294
    nsecs: 529399296
  frame_id: "map"
pose: 
  position: 
    x: -0.419972687959671
    y: 0.5013234615325928
    z: 0.12668827176094055
  orientation: 
    x: -0.0048886658069753055
    y: -0.00047172382751043887
    z: 0.03475542924699312
    w: -0.9993838381073482
---
header: 
  seq: 729
  stamp: 
    secs: 1676104294
    nsecs: 569399296
  frame_id: "map"
pose: 
  position: 
    x: -0.4203403890132904
    y: 0.5009594559669495
    z: 0.12661650776863098
  orientation: 
    x: -0.005043284484187806
    y: -0.0002195151103877253
    z: 0.0342478547503764
    w: -0.999400654699904
---
header: 
  seq: 730
  stamp: 
    secs: 1676104294
    nsecs: 599401856
  frame_id: "map"
pose: 
  position: 
    x: -0.4205876290798187
    y: 0.500771164894104
    z: 0.1265513300895691
  orientation: 
    x: -0.005162659670330467
    y: 0.00012042704635809723
    z: 0.03370466616676801
    w: -0.9994185249636727
---
header: 
  seq: 731
  stamp: 
    secs: 1676104294
    nsecs: 639401856
  frame_id: "map"
pose: 
  position: 
    x: -0.4208432137966156
    y: 0.5007065534591675
    z: 0.12645426392555237
  orientation: 
    x: -0.005071398243141968
    y: 2.8786626805254183e-05
    z: 0.03360486242949419
    w: -0.9994224024737356
---
header: 
  seq: 732
  stamp: 
    secs: 1676104294
    nsecs: 669401856
  frame_id: "map"
pose: 
  position: 
    x: -0.421037495136261
    y: 0.5007745027542114
    z: 0.1263897567987442
  orientation: 
    x: -0.004899544468338798
    y: 0.0002905020924452066
    z: 0.03296418818528009
    w: -0.9994445295692038
---
header: 
  seq: 733
  stamp: 
    secs: 1676104294
    nsecs: 699404416
  frame_id: "map"
pose: 
  position: 
    x: -0.42115312814712524
    y: 0.5008598566055298
    z: 0.12633009254932404
  orientation: 
    x: -0.005038703977862532
    y: 0.00046383512284943327
    z: 0.032356388482904515
    w: -0.9994636220915794
---
header: 
  seq: 734
  stamp: 
    secs: 1676104294
    nsecs: 739404416
  frame_id: "map"
pose: 
  position: 
    x: -0.4212448000907898
    y: 0.5010823011398315
    z: 0.1262568235397339
  orientation: 
    x: -0.005075786948379292
    y: 0.0003012536547186594
    z: 0.0320019756337764
    w: -0.9994749595938287
---
header: 
  seq: 735
  stamp: 
    secs: 1676104294
    nsecs: 769404416
  frame_id: "map"
pose: 
  position: 
    x: -0.4212697744369507
