Time,header.seq,header.stamp.secs,header.stamp.nsecs,header.frame_id,vector.x,vector.y,vector.z
1676104290.2493439,1,0,0,,0.4242808433698118,0.4242808433698118,0.2
1676104290.259065,2,0,0,,0.42428654567465185,0.42428654567465185,0.2
1676104290.2616768,3,0,0,,0.4242858753173053,0.4242858753173053,0.2
1676104290.271216,4,0,0,,0.4242858753173053,0.4242858753173053,0.2
1676104290.2921784,5,0,0,,0.4242356225132198,0.4242356225132198,0.2
1676104290.3013215,6,0,0,,0.42423681985668843,0.42423681985668843,0.2
1676104290.3103359,7,0,0,,0.4242332704501599,0.4242332704501599,0.2
1676104290.3191762,8,0,0,,0.4242281246576458,0.4242281246576458,0.2
1676104290.3264916,9,0,0,,0.4242283184025437,0.4242283184025437,0.2
1676104290.3316326,10,0,0,,0.4242271753076464,0.4242271753076464,0.2
1676104290.340564,11,0,0,,0.42422853927172727,0.42422853927172727,0.2
1676104290.3504627,12,0,0,,0.4242827226148546,0.4242827226148546,0.2
1676104290.3595173,13,0,0,,0.4242835595928133,0.4242835595928133,0.2
1676104290.3718047,14,0,0,,0.42428283111199744,0.42428283111199744,0.2
1676104290.3819554,15,0,0,,0.4242805505856872,0.4242805505856872,0.2
1676104290.391131,16,0,0,,0.4242812596920133,0.4242812596920133,0.2
1676104290.4029436,17,0,0,,0.4242803994646669,0.4242803994646669,0.2
1676104290.4136615,18,0,0,,0.4242803994646669,0.4242803994646669,0.2
1676104290.4215417,19,0,0,,0.42430364282123745,0.42430364282123745,0.2
1676104290.4294164,20,0,0,,0.42430323208205406,0.42430323208205406,0.2
1676104290.449083,21,0,0,,0.4243027050959319,0.4243027050959319,0.2
1676104290.4561281,22,0,0,,0.42428553858138623,0.42428553858138623,0.2
1676104290.461391,23,0,0,,0.4242877046493441,0.4242877046493441,0.2
1676104290.4702804,24,0,0,,0.42428844475485383,0.42428844475485383,0.2
1676104290.4897838,25,0,0,,0.4242518262591213,0.4242518262591213,0.2
1676104290.4962986,26,0,0,,0.4242536435862631,0.4242536435862631,0.2
1676104290.50093,27,0,0,,0.4242545348127932,0.4242545348127932,0.2
1676104290.51098,28,0,0,,0.42425216337524363,0.42425216337524363,0.2
1676104290.5258014,29,0,0,,0.42422584666267044,0.42422584666267044,0.2
1676104290.5308666,30,0,0,,0.42422584666267044,0.42422584666267044,0.2
1676104290.5389185,31,0,0,,0.4242283110977709,0.4242283110977709,0.2
1676104290.5518243,32,0,0,,0.42420255844604227,0.42420255844604227,0.2
1676104290.5618691,33,0,0,,0.4242011014844105,0.4242011014844105,0.2
1676104290.5711029,34,0,0,,0.42420085736583923,0.42420085736583923,0.2
1676104290.582233,35,0,0,,0.4241770256859437,0.4241770256859437,0.2
1676104290.5894296,36,0,0,,0.42417796341124925,0.42417796341124925,0.2
1676104290.6020303,37,0,0,,0.42417796341124925,0.42417796341124925,0.2
1676104290.6125236,38,0,0,,0.4241753401053325,0.4241753401053325,0.2
1676104290.6177957,39,0,0,,0.42415742984090005,0.42415742984090005,0.2
1676104290.6323595,40,0,0,,0.4241561937484518,0.4241561937484518,0.2
1676104290.6419506,41,0,0,,0.4241590069243685,0.4241590069243685,0.2
1676104290.6519272,42,0,0,,0.4241196958553792,0.4241196958553792,0.2
1676104290.6600974,43,0,0,,0.42412031583905224,0.42412031583905224,0.2
1676104290.6713805,44,0,0,,0.42412031583905224,0.42412031583905224,0.2
1676104290.682858,45,0,0,,0.4241406819197164,0.4241406819197164,0.2
1676104290.6923468,46,0,0,,0.4241409880366549,0.4241409880366549,0.2
1676104290.6996837,47,0,0,,0.4241409880366549,0.4241409880366549,0.2
1676104290.7082229,48,0,0,,0.42414028280522675,0.42414028280522675,0.2
1676104290.7178566,49,0,0,,0.42412262173943227,0.42412262173943227,0.2
1676104290.7282753,50,0,0,,0.42412262173943227,0.42412262173943227,0.2
1676104290.749945,52,0,0,,0.4241329819846526,0.4241329819846526,0.2
1676104290.7680392,53,0,0,,0.4241336213428155,0.4241336213428155,0.2
1676104290.7713988,54,0,0,,0.4241334043485299,0.4241334043485299,0.2
1676104290.7824407,55,0,0,,0.4241077122279257,0.4241077122279257,0.2
1676104290.7915368,56,0,0,,0.4241057941534371,0.4241057941534371,0.2
1676104290.8098674,57,0,0,,0.42410978529833265,0.42410978529833265,0.2
1676104290.8157113,58,0,0,,0.4241061893930287,0.4241061893930287,0.2
1676104290.8222337,59,0,0,,0.4240720982467383,0.4240720982467383,0.2
1676104290.8303926,60,0,0,,0.42407210212163626,0.42407210212163626,0.2
1676104290.8404713,61,0,0,,0.42407127676837153,0.42407127676837153,0.2
1676104290.8511748,62,0,0,,0.4241037178608403,0.4241037178608403,0.2
1676104290.861559,63,0,0,,0.4241066821577773,0.4241066821577773,0.2
1676104290.871305,64,0,0,,0.42410294288124895,0.42410294288124895,0.2
1676104290.8813686,65,0,0,,0.4241054073163495,0.4241054073163495,0.2
1676104290.8904047,66,0,0,,0.4240685394689068,0.4240685394689068,0.2
1676104290.908757,67,0,0,,0.42406671826686715,0.42406671826686715,0.2
1676104290.9161117,68,0,0,,0.42404348395086827,0.42404348395086827,0.2
1676104290.9217472,69,0,0,,0.4240417053727061,0.4240417053727061,0.2
1676104290.9306874,70,0,0,,0.4240405700276047,0.4240405700276047,0.2
1676104290.9408813,71,0,0,,0.42404218198515475,0.42404218198515475,0.2
1676104290.951585,72,0,0,,0.4240426972000674,0.4240426972000674,0.2
1676104290.9569635,73,0,0,,0.4240449213914946,0.4240449213914946,0.2
1676104290.9716525,74,0,0,,0.42404268170047554,0.42404268170047554,0.2
1676104290.982757,75,0,0,,0.42407946265354757,0.42407946265354757,0.2
1676104290.990268,76,0,0,,0.42408192321375016,0.42408192321375016,0.2
1676104291.0020223,77,0,0,,0.4240822254557908,0.4240822254557908,0.2
1676104291.018899,78,0,0,,0.4240799082668126,0.4240799082668126,0.2
1676104291.0237997,79,0,0,,0.42411729857739067,0.42411729857739067,0.2
1676104291.031147,80,0,0,,0.42411729857739067,0.42411729857739067,0.2
1676104291.0399055,81,0,0,,0.42411703895922753,0.42411703895922753,0.2
1676104291.0513072,82,0,0,,0.42414074952393777,0.42414074952393777,0.2
1676104291.065825,83,0,0,,0.42414269859761,0.42414269859761,0.2
1676104291.0707762,84,0,0,,0.4241409122696519,0.4241409122696519,0.2
1676104291.0849984,85,0,0,,0.4241426908478141,0.4241426908478141,0.2
1676104291.0913444,86,0,0,,0.42414799711182716,0.42414799711182716,0.2
1676104291.0997508,87,0,0,,0.4241477103693783,0.4241477103693783,0.2
1676104291.1126041,88,0,0,,0.42414641227856276,0.42414641227856276,0.2
1676104291.1217864,89,0,0,,0.424203840142265,0.424203840142265,0.2
1676104291.1325078,90,0,0,,0.42420379751838744,0.42420379751838744,0.2
1676104291.1413395,91,0,0,,0.4242019918159396,0.4242019918159396,0.2
1676104291.1496618,92,0,0,,0.4241565625739098,0.4241565625739098,0.2
1676104291.166233,93,0,0,,0.42415871701717384,0.42415871701717384,0.2
1676104291.1720636,94,0,0,,0.42415846127390866,0.42415846127390866,0.2
1676104291.1867776,95,0,0,,0.4241650876880438,0.4241650876880438,0.2
1676104291.192503,96,0,0,,0.42416247600682083,0.42416247600682083,0.2
1676104291.203729,97,0,0,,0.42416170102722944,0.42416170102722944,0.2
1676104291.2155404,98,0,0,,0.424160484309271,0.424160484309271,0.2
1676104291.2226274,99,0,0,,0.4241871835508943,0.4241871835508943,0.2
1676104291.2304366,100,0,0,,0.42418590483456853,0.42418590483456853,0.2
1676104291.2386465,101,0,0,,0.42418811352640395,0.42418811352640395,0.2
1676104291.2572515,102,0,0,,0.42417241292778407,0.42417241292778407,0.2
1676104291.2621772,103,0,0,,0.42417564071778213,0.42417564071778213,0.2
1676104291.2700808,104,0,0,,0.4241712233341113,0.4241712233341113,0.2
1676104291.289364,105,0,0,,0.4241368810422719,0.4241368810422719,0.2
1676104291.2990437,106,0,0,,0.42413439723268154,0.42413439723268154,0.2
1676104291.301843,107,0,0,,0.4241371677847207,0.4241371677847207,0.2
1676104291.3182943,108,0,0,,0.4241357999457419,0.4241357999457419,0.2
1676104291.3275132,109,0,0,,0.42412162778183826,0.42412162778183826,0.2
1676104291.3313494,110,0,0,,0.4241213952879608,0.4241213952879608,0.2
1676104291.339389,111,0,0,,0.42412370860204107,0.42412370860204107,0.2
1676104291.3514678,112,0,0,,0.4241283710956946,0.4241283710956946,0.2
1676104291.362316,113,0,0,,0.4241306030369178,0.4241306030369178,0.2
1676104291.3697193,114,0,0,,0.42412853384140886,0.42412853384140886,0.2
1676104291.3811734,115,0,0,,0.4241372114950791,0.4241372114950791,0.2
1676104291.396171,116,0,0,,0.42413890095058826,0.42413890095058826,0.2
1676104291.4008107,117,0,0,,0.4241414351338521,0.4241414351338521,0.2
1676104291.413785,118,0,0,,0.4241414351338521,0.4241414351338521,0.2
1676104291.42278,119,0,0,,0.424197693528384,0.424197693528384,0.2
1676104291.4318624,120,0,0,,0.42419698054715993,0.42419698054715993,0.2
1676104291.438871,121,0,0,,0.42419727891430264,0.42419727891430264,0.2
1676104291.4527953,122,0,0,,0.42418357133235784,0.42418357133235784,0.2
1676104291.4600742,123,0,0,,0.42418221511807297,0.42418221511807297,0.2
1676104291.470571,124,0,0,,0.42418641550745817,0.42418641550745817,0.2
1676104291.4831538,125,0,0,,0.4241405393373967,0.4241405393373967,0.2
1676104291.4893973,126,0,0,,0.42414046183943754,0.42414046183943754,0.2
1676104291.5020452,127,0,0,,0.424139609361887,0.424139609361887,0.2
1676104291.51589,128,0,0,,0.4241560256262124,0.4241560256262124,0.2
1676104291.5212972,129,0,0,,0.42415669210866097,0.42415669210866097,0.2
1676104291.5289276,130,0,0,,0.42415862568274143,0.42415862568274143,0.2
1676104291.5406303,131,0,0,,0.42415803282335407,0.42415803282335407,0.2
1676104291.5521097,132,0,0,,0.4241306835250557,0.4241306835250557,0.2
1676104291.5587971,133,0,0,,0.4241318924932182,0.4241318924932182,0.2
1676104291.570925,134,0,0,,0.42413084627076986,0.42413084627076986,0.2
1676104291.583659,135,0,0,,0.42413045659989124,0.42413045659989124,0.2
1676104291.5901115,136,0,0,,0.4241292088827491,0.4241292088827491,0.2
1676104291.6029878,137,0,0,,0.42412690719336277,0.42412690719336277,0.2
1676104291.621595,138,0,0,,0.42409308208130303,0.42409308208130303,0.2
1676104291.6289082,139,0,0,,0.4240935935678333,0.4240935935678333,0.2
1676104291.6324828,140,0,0,,0.4240945506676287,0.4240945506676287,0.2
1676104291.6399932,141,0,0,,0.4240944654198736,0.4240944654198736,0.2
1676104291.6528018,142,0,0,,0.4240854475312681,0.4240854475312681,0.2
1676104291.6614318,143,0,0,,0.4240849282949418,0.4240849282949418,0.2
1676104291.6718702,144,0,0,,0.4240840409433097,0.4240840409433097,0.2
1676104291.6799834,145,0,0,,0.4240861411380023,0.4240861411380023,0.2
1676104291.6881049,146,0,0,,0.4240834701188654,0.4240834701188654,0.2
1676104291.7059343,147,0,0,,0.42408078481458134,0.42408078481458134,0.2
1676104291.7179282,148,0,0,,0.42408275326274336,0.42408275326274336,0.2
1676104291.7224135,149,0,0,,0.42400772679682824,0.42400772679682824,0.2
1676104291.727639,150,0,0,,0.4240059365939721,0.4240059365939721,0.2
1676104291.7468207,151,0,0,,0.42400417739029983,0.42400417739029983,0.2
1676104291.761131,152,0,0,,0.4240000277032145,0.4240000277032145,0.2
1676104291.765639,153,0,0,,0.4239979817570933,0.4239979817570933,0.2
1676104291.7723784,154,0,0,,0.4239979817570933,0.4239979817570933,0.2
1676104291.7871854,155,0,0,,0.4239964634482563,0.4239964634482563,0.2
1676104291.792972,156,0,0,,0.4239986682651937,0.4239986682651937,0.2
1676104291.7975245,157,0,0,,0.42399792815968396,0.42399792815968396,0.2
1676104291.8183699,158,0,0,,0.4239755384973623,0.4239755384973623,0.2
1676104291.829242,159,0,0,,0.42397699933389205,0.42397699933389205,0.2
1676104291.8342264,160,0,0,,0.42397729770103476,0.42397729770103476,0.2
1676104291.8395522,161,0,0,,0.4239761701057293,0.4239761701057293,0.2
1676104291.8570836,162,0,0,,0.4239726445142739,0.4239726445142739,0.2
1676104291.868232,163,0,0,,0.42397391548080376,0.42397391548080376,0.2
1676104291.877389,164,0,0,,0.42397427972121166,0.42397427972121166,0.2
1676104291.8884473,165,0,0,,0.4239158117728681,0.4239158117728681,0.2
1676104291.897665,166,0,0,,0.4239186481981725,0.4239186481981725,0.2
1676104291.9015236,167,0,0,,0.4239155676542968,0.4239155676542968,0.2
1676104291.9145002,168,0,0,,0.4239158078979701,0.4239158078979701,0.2
1676104291.9208062,169,0,0,,0.4239026590870042,0.4239026590870042,0.2
1676104291.9292967,170,0,0,,0.42390234909516766,0.42390234909516766,0.2
1676104291.941349,171,0,0,,0.42390141524476,0.42390141524476,0.2
1676104291.9528344,172,0,0,,0.4239301277049445,0.4239301277049445,0.2
1676104291.9606013,173,0,0,,0.42392909310719,0.42392909310719,0.2
1676104291.9713812,174,0,0,,0.4239287056173944,0.4239287056173944,0.2
1676104291.986959,175,0,0,,0.4239287056173944,0.4239287056173944,0.2
1676104291.9927773,176,0,0,,0.42388095950586724,0.42388095950586724,0.2
1676104291.99929,177,0,0,,0.42388070376260206,0.42388070376260206,0.2
1676104292.0152352,178,0,0,,0.42388070376260206,0.42388070376260206,0.2
1676104292.0212343,179,0,0,,0.4238916938849725,0.4238916938849725,0.2
1676104292.0316541,180,0,0,,0.4238915970125236,0.4238915970125236,0.2
1676104292.0404487,181,0,0,,0.42389029892170804,0.42389029892170804,0.2
1676104292.051761,182,0,0,,0.42382458030033865,0.42382458030033865,0.2
1676104292.0606003,183,0,0,,0.42382189887095245,0.42382189887095245,0.2
1676104292.069822,184,0,0,,0.4238223561089114,0.4238223561089114,0.2
1676104292.0862944,185,0,0,,0.42383294604956206,0.42383294604956206,0.2
1676104292.0918226,186,0,0,,0.42383192307650147,0.42383192307650147,0.2
1676104292.100868,187,0,0,,0.423832233068338,0.423832233068338,0.2
1676104292.115265,188,0,0,,0.42383290342568447,0.42383290342568447,0.2
1676104292.1213555,189,0,0,,0.42384400308460934,0.42384400308460934,0.2
1676104292.1311662,190,0,0,,0.42384396433562976,0.42384396433562976,0.2
1676104292.1391404,191,0,0,,0.42384361559481365,0.42384361559481365,0.2
1676104292.1484444,192,0,0,,0.42384174832951516,0.42384174832951516,0.2
1676104292.1597874,193,0,0,,0.42384174832951516,0.42384174832951516,0.2
1676104292.1738875,194,0,0,,0.4238411593450257,0.4238411593450257,0.2
1676104292.1811302,195,0,0,,0.42381438714127057,0.42381438714127057,0.2
1676104292.191355,196,0,0,,0.42381133372168056,0.42381133372168056,0.2
1676104292.200778,197,0,0,,0.42381282555739397,0.42381282555739397,0.2
1676104292.2178245,198,0,0,,0.42381415077249524,0.42381415077249524,0.2
1676104292.2219336,199,0,0,,0.4237588514017221,0.4237588514017221,0.2
1676104292.2316728,200,0,0,,0.4237581577949878,0.4237581577949878,0.2
1676104292.2387655,201,0,0,,0.4237575068121311,0.4237575068121311,0.2
1676104292.252139,202,0,0,,0.42374349278743384,0.42374349278743384,0.2
1676104292.2602165,203,0,0,,0.42374320991988296,0.42374320991988296,0.2
1676104292.2716715,204,0,0,,0.42374532561416745,0.42374532561416745,0.2
1676104292.2827744,205,0,0,,0.4237431556713116,0.4237431556713116,0.2
1676104292.2915504,206,0,0,,0.42371259623629975,0.42371259623629975,0.2
1676104292.3000762,207,0,0,,0.4237141500703805,0.4237141500703805,0.2
1676104292.3125725,208,0,0,,0.42371214674813673,0.42371214674813673,0.2
1676104292.3215559,209,0,0,,0.42371365946395323,0.42371365946395323,0.2
1676104292.33088,210,0,0,,0.42371201263232156,0.42371201263232156,0.2
1676104292.339283,211,0,0,,0.4237123071245663,0.4237123071245663,0.2
1676104292.3511274,212,0,0,,0.42372839380119,0.42372839380119,0.2
1676104292.360195,213,0,0,,0.4237307032403723,0.4237307032403723,0.2
1676104292.3705888,214,0,0,,0.42373027700159704,0.42373027700159704,0.2
1676104292.381794,215,0,0,,0.4237112450658158,0.4237112450658158,0.2
1676104292.391345,216,0,0,,0.423711496934183,0.423711496934183,0.2
1676104292.4002614,217,0,0,,0.4237119657968358,0.4237119657968358,0.2
1676104292.412199,218,0,0,,0.4237108382015303,0.4237108382015303,0.2
1676104292.4198205,219,0,0,,0.42366618606306616,0.42366618606306616,0.2
1676104292.4309833,220,0,0,,0.4236662093124539,0.4236662093124539,0.2
1676104292.4425335,221,0,0,,0.4236633070138842,0.4236633070138842,0.2
1676104292.4500628,222,0,0,,0.4236571157397144,0.4236571157397144,0.2
1676104292.459983,223,0,0,,0.4236594600529783,0.4236594600529783,0.2
1676104292.470881,224,0,0,,0.4236584332050197,0.4236584332050197,0.2
1676104292.481822,225,0,0,,0.42367613266134635,0.42367613266134635,0.2
1676104292.4900775,226,0,0,,0.4236772602566518,0.4236772602566518,0.2
1676104292.5000465,227,0,0,,0.4236772602566518,0.4236772602566518,0.2
1676104292.5201685,228,0,0,,0.4236205801295862,0.4236205801295862,0.2
1676104292.5281527,229,0,0,,0.4236172632169351,0.4236172632169351,0.2
1676104292.5321977,230,0,0,,0.4236196269046888,0.4236196269046888,0.2
1676104292.5406356,231,0,0,,0.4236217890977487,0.4236217890977487,0.2
1676104292.5536613,232,0,0,,0.4235748671636731,0.4235748671636731,0.2
1676104292.560448,233,0,0,,0.42357170524694027,0.42357170524694027,0.2
1676104292.5708926,234,0,0,,0.4235735148242861,0.4235735148242861,0.2
1676104292.5817854,235,0,0,,0.42362532752491533,0.42362532752491533,0.2
1676104292.5877397,236,0,0,,0.42362189049042764,0.42362189049042764,0.2
1676104292.6019778,237,0,0,,0.4236240604332835,0.4236240604332835,0.2
1676104292.616359,238,0,0,,0.42362303358532494,0.42362303358532494,0.2
1676104292.6232133,239,0,0,,0.42355296433109796,0.42355296433109796,0.2
1676104292.6305225,240,0,0,,0.4235518328608945,0.4235518328608945,0.2
1676104292.6403785,241,0,0,,0.4235540880515054,0.4235540880515054,0.2
1676104292.6509707,242,0,0,,0.42352974842935803,0.42352974842935803,0.2
1676104292.6603644,243,0,0,,0.42353011654466394,0.42353011654466394,0.2
1676104292.6694133,244,0,0,,0.42353192224711184,0.42353192224711184,0.2
1676104292.6847134,245,0,0,,0.42353022116690875,0.42353022116690875,0.2
1676104292.6901426,246,0,0,,0.4235675793538988,0.4235675793538988,0.2
1676104292.6996417,247,0,0,,0.4235675793538988,0.4235675793538988,0.2
1676104292.7109544,248,0,0,,0.4235674359826744,0.4235674359826744,0.2
1676104292.7214458,249,0,0,,0.4234764157369733,0.4234764157369733,0.2
1676104292.7272375,250,0,0,,0.4234756252577901,0.4234756252577901,0.2
1676104292.737585,251,0,0,,0.4234756252577901,0.4234756252577901,0.2
1676104292.748794,252,0,0,,0.42351468960646543,0.42351468960646543,0.2
1676104292.7696083,253,0,0,,0.42351482135299595,0.42351482135299595,0.2
1676104292.772501,254,0,0,,0.42351647593442354,0.42351647593442354,0.2
1676104292.779537,255,0,0,,0.4235224268250168,0.4235224268250168,0.2
1676104292.7911124,256,0,0,,0.42352122173175216,0.42352122173175216,0.2
1676104292.8047657,257,0,0,,0.423520431252569,0.423520431252569,0.2
1676104292.8152926,258,0,0,,0.42350685588609427,0.42350685588609427,0.2
1676104292.8208487,259,0,0,,0.42350939006935806,0.42350939006935806,0.2
1676104292.8297632,260,0,0,,0.4235100061781332,0.4235100061781332,0.2
1676104292.8399296,261,0,0,,0.42350775098752236,0.42350775098752236,0.2
1676104292.8571937,262,0,0,,0.4235083545862884,0.4235083545862884,0.2
1676104292.8699212,263,0,0,,0.4235060063981265,0.4235060063981265,0.2
1676104292.8723567,264,0,0,,0.42350850183241073,0.42350850183241073,0.2
1676104292.883151,265,0,0,,0.4235304200040922,0.4235304200040922,0.2
1676104292.890151,266,0,0,,0.42353015651103115,0.42353015651103115,0.2
1676104292.8990912,267,0,0,,0.4235293001585827,0.4235293001585827,0.2
1676104292.9162693,268,0,0,,0.4234632256361097,0.4234632256361097,0.2
1676104292.9279897,269,0,0,,0.42346326825998726,0.42346326825998726,0.2
1676104292.9341433,270,0,0,,0.4234599629720301,0.4234599629720301,0.2
1676104292.9400923,271,0,0,,0.4234614199336618,0.4234614199336618,0.2
1676104292.9510963,272,0,0,,0.4234166120399535,0.4234166120399535,0.2
1676104292.9578278,273,0,0,,0.42342059543505317,0.42342059543505317,0.2
1676104292.9678142,274,0,0,,0.42342059543505317,0.42342059543505317,0.2
1676104292.9787717,275,0,0,,0.42343501738421624,0.42343501738421624,0.2
1676104292.993142,276,0,0,,0.42343501738421624,0.42343501738421624,0.2
1676104292.9998608,277,0,0,,0.42343497863523666,0.42343497863523666,0.2
1676104293.0084386,278,0,0,,0.42343468801788986,0.42343468801788986,0.2
1676104293.0204017,279,0,0,,0.4234122317351401,0.4234122317351401,0.2
1676104293.0310614,280,0,0,,0.42341048415616156,0.42341048415616156,0.2
1676104293.0413318,281,0,0,,0.4234083529622853,0.4234083529622853,0.2
1676104293.0544279,282,0,0,,0.42337746285945177,0.42337746285945177,0.2
1676104293.0601647,283,0,0,,0.42337377395659687,0.42337377395659687,0.2
1676104293.0768661,284,0,0,,0.4233755176606775,0.4233755176606775,0.2
1676104293.086125,285,0,0,,0.42337405823171137,0.42337405823171137,0.2
1676104293.0921075,286,0,0,,0.42337283376395707,0.42337283376395707,0.2
1676104293.1013987,287,0,0,,0.4233721982806921,0.4233721982806921,0.2
1676104293.1122985,288,0,0,,0.42337317088007925,0.42337317088007925,0.2
1676104293.120753,289,0,0,,0.42331758794657887,0.42331758794657887,0.2
1676104293.1302795,290,0,0,,0.4233167858427018,0.4233167858427018,0.2
1676104293.1468956,291,0,0,,0.4233151700102538,0.4233151700102538,0.2
1676104293.1525617,292,0,0,,0.423300554760471,0.423300554760471,0.2
1676104293.158224,293,0,0,,0.42329814844883984,0.42329814844883984,0.2
1676104293.1710927,294,0,0,,0.4232963892451674,0.4232963892451674,0.2
1676104293.1826332,295,0,0,,0.42327933707915255,0.42327933707915255,0.2
1676104293.1916826,296,0,0,,0.423276330158338,0.423276330158338,0.2
1676104293.2004216,297,0,0,,0.4232792324569077,0.4232792324569077,0.2
1676104293.2117622,298,0,0,,0.4232798020669073,0.4232798020669073,0.2
1676104293.2205672,299,0,0,,0.42327622299425305,0.42327622299425305,0.2
1676104293.230571,300,0,0,,0.42327425067119306,0.42327425067119306,0.2
1676104293.2400267,301,0,0,,0.4232750450252742,0.4232750450252742,0.2
1676104293.2524836,302,0,0,,0.4232794027581066,0.4232794027581066,0.2
1676104293.259475,303,0,0,,0.42327800779484215,0.42327800779484215,0.2
1676104293.2702873,304,0,0,,0.4232813208325953,0.4232813208325953,0.2
1676104293.289789,305,0,0,,0.4232868045563251,0.4232868045563251,0.2
1676104293.2936475,306,0,0,,0.42328473923571414,0.42328473923571414,0.2
1676104293.3003423,307,0,0,,0.42328735866673295,0.42328735866673295,0.2
1676104293.3112845,308,0,0,,0.42328735091693703,0.42328735091693703,0.2
1676104293.3189526,309,0,0,,0.423296473351419,0.423296473351419,0.2
1676104293.3304892,310,0,0,,0.4232948032703996,0.4232948032703996,0.2
1676104293.3484392,311,0,0,,0.42329653534978634,0.42329653534978634,0.2
1676104293.3528752,312,0,0,,0.4232844091870636,0.4232844091870636,0.2
1676104293.3603833,313,0,0,,0.42328330096624794,0.42328330096624794,0.2
1676104293.367962,314,0,0,,0.42328177425645297,0.42328177425645297,0.2
1676104293.3820884,315,0,0,,0.42322715217716994,0.42322715217716994,0.2
1676104293.393272,316,0,0,,0.42322927562125034,0.42322927562125034,0.2
1676104293.400458,317,0,0,,0.4232293841183931,0.4232293841183931,0.2
1676104293.4079099,318,0,0,,0.4232293841183931,0.4232293841183931,0.2
1676104293.4207823,319,0,0,,0.4232282362633199,0.4232282362633199,0.2
1676104293.430761,320,0,0,,0.4232281045167894,0.4232281045167894,0.2
1676104293.4432425,321,0,0,,0.4232284648822993,0.4232284648822993,0.2
1676104293.455509,322,0,0,,0.423219555028379,0.423219555028379,0.2
1676104293.4615502,323,0,0,,0.4232184894314408,0.4232184894314408,0.2
1676104293.4730008,324,0,0,,0.4232192024126649,0.4232192024126649,0.2
1676104293.4777288,325,0,0,,0.42322001614123583,0.42322001614123583,0.2
1676104293.4914281,326,0,0,,0.4231977784078569,0.4231977784078569,0.2
1676104293.499616,327,0,0,,0.423198123273775,0.423198123273775,0.2
1676104293.5131664,328,0,0,,0.4231992121201009,0.4231992121201009,0.2
1676104293.5226145,329,0,0,,0.42316640779398385,0.42316640779398385,0.2
1676104293.5317714,330,0,0,,0.4231623933997006,0.4231623933997006,0.2
1676104293.5406187,331,0,0,,0.42316682240806525,0.42316682240806525,0.2
1676104293.5542464,332,0,0,,0.4231317220325768,0.4231317220325768,0.2
1676104293.5593338,333,0,0,,0.4231345700825751,0.4231345700825751,0.2
1676104293.5718248,334,0,0,,0.4231329232509435,0.4231329232509435,0.2
1676104293.5824828,335,0,0,,0.4230845442333073,0.4230845442333073,0.2
1676104293.5895793,336,0,0,,0.42308516809187835,0.42308516809187835,0.2
1676104293.5994556,337,0,0,,0.4230845791073889,0.4230845791073889,0.2
1676104293.6140366,338,0,0,,0.42308595857106157,0.42308595857106157,0.2
1676104293.6241167,339,0,0,,0.42308492583394053,0.42308492583394053,0.2
1676104293.6297457,340,0,0,,0.4230812679302693,0.4230812679302693,0.2
1676104293.6411095,341,0,0,,0.4230840694814921,0.4230840694814921,0.2
1676104293.652416,342,0,0,,0.42308282520547513,0.42308282520547513,0.2
1676104293.660991,343,0,0,,0.42308114737465985,0.42308114737465985,0.2
1676104293.671256,344,0,0,,0.42308344906404616,0.42308344906404616,0.2
1676104293.687756,345,0,0,,0.4230808451326192,0.4230808451326192,0.2
1676104293.6920488,346,0,0,,0.4230511017234624,0.4230511017234624,0.2
1676104293.709198,347,0,0,,0.42305587947264317,0.42305587947264317,0.2
1676104293.7127237,348,0,0,,0.4230553705905378,0.4230553705905378,0.2
1676104293.7202148,349,0,0,,0.4230512980727852,0.4230512980727852,0.2
1676104293.731188,350,0,0,,0.4230538903795183,0.4230538903795183,0.2
1676104293.7394693,351,0,0,,0.4230561533199251,0.4230561533199251,0.2
1676104293.7523088,352,0,0,,0.4230656653635949,0.4230656653635949,0.2
1676104293.760753,353,0,0,,0.4230633597993106,0.4230633597993106,0.2
1676104293.771764,354,0,0,,0.4230645222686977,0.4230645222686977,0.2
1676104293.7858949,355,0,0,,0.4230867033091188,0.4230867033091188,0.2
1676104293.7888434,356,0,0,,0.42309091532319787,0.42309091532319787,0.2
1676104293.7982306,357,0,0,,0.42309091532319787,0.42309091532319787,0.2
1676104293.8199677,358,0,0,,0.4230574354954064,0.4230574354954064,0.2
1676104293.8228788,359,0,0,,0.4230574199958146,0.4230574199958146,0.2
1676104293.8299403,360,0,0,,0.4230574199958146,0.4230574199958146,0.2
1676104293.8400128,361,0,0,,0.423056757388264,0.423056757388264,0.2
1676104293.8475962,362,0,0,,0.423056757388264,0.423056757388264,0.2
1676104293.858368,363,0,0,,0.4230197974793613,0.4230197974793613,0.2
1676104293.8696487,364,0,0,,0.4230197974793613,0.4230197974793613,0.2
1676104293.878589,365,0,0,,0.42385719928643667,0.42385719928643667,0.2
1676104293.88764,366,0,0,,0.42385719928643667,0.42385719928643667,0.2
1676104293.8980722,367,0,0,,0.42385719928643667,0.42385719928643667,0.2
1676104293.909848,368,0,0,,0.42385719928643667,0.42385719928643667,0.2
1676104293.918149,369,0,0,,0.4232226783256978,0.4232226783256978,0.2
1676104293.9275973,370,0,0,,0.4232226783256978,0.4232226783256978,0.2
1676104293.938273,371,0,0,,0.4232226783256978,0.4232226783256978,0.2
1676104293.9493902,372,0,0,,0.4228842325821519,0.4228842325821519,0.2
1676104293.9585116,373,0,0,,0.4228842325821519,0.4228842325821519,0.2
1676104293.968794,374,0,0,,0.4228842325821519,0.4228842325821519,0.2
1676104293.9873886,375,0,0,,0.422883864466846,0.422883864466846,0.2
1676104293.991404,376,0,0,,0.42217273784846077,0.42217273784846077,0.2
1676104293.9995067,377,0,0,,0.4221623182478547,0.4221623182478547,0.2
1676104294.0133004,378,0,0,,0.4221212830784917,0.4221212830784917,0.2
1676104294.0207987,379,0,0,,0.4199845244574547,0.4199845244574547,0.2
1676104294.0273917,380,0,0,,0.4199845244574547,0.4199845244574547,0.2
1676104294.0445104,381,0,0,,0.4199572258013487,0.4199572258013487,0.2
1676104294.0507846,382,0,0,,0.4195529882180691,0.4195529882180691,0.2
1676104294.0617507,383,0,0,,0.41945966517567634,0.41945966517567634,0.2
1676104294.069902,384,0,0,,0.41944149965405464,0.41944149965405464,0.2
1676104294.0856109,385,0,0,,0.42046347634077075,0.42046347634077075,0.2
1676104294.0925562,386,0,0,,0.42045083642363545,0.42045083642363545,0.2
1676104294.100388,387,0,0,,0.4204420714044571,0.4204420714044571,0.2
1676104294.111314,388,0,0,,0.420450073068738,0.420450073068738,0.2
1676104294.1188571,389,0,0,,0.4212470304012299,0.4212470304012299,0.2
1676104294.1329567,390,0,0,,0.42124605392694475,0.42124605392694475,0.2
1676104294.139937,391,0,0,,0.4211911311233044,0.4211911311233044,0.2
1676104294.1514037,392,0,0,,0.4224845585204661,0.4224845585204661,0.2
1676104294.1618478,393,0,0,,0.4224589958186448,0.4224589958186448,0.2
1676104294.1723409,394,0,0,,0.4224589958186448,0.4224589958186448,0.2
1676104294.181735,395,0,0,,0.4228962435032428,0.4228962435032428,0.2
1676104294.1889062,396,0,0,,0.4228885169567168,0.4228885169567168,0.2
1676104294.2014914,397,0,0,,0.42289050865426664,0.42289050865426664,0.2
1676104294.2108428,398,0,0,,0.4228847118069232,0.4228847118069232,0.2
1676104294.2194517,399,0,0,,0.4229500967274234,0.4229500967274234,0.2
1676104294.2335622,400,0,0,,0.4229447997419164,0.4229447997419164,0.2
1676104294.2407346,401,0,0,,0.422942408929877,0.422942408929877,0.2
1676104294.2533908,402,0,0,,0.4225509567631781,0.4225509567631781,0.2
1676104294.2609916,403,0,0,,0.422550608022362,0.422550608022362,0.2
1676104294.272789,404,0,0,,0.42254829083338385,0.42254829083338385,0.2
1676104294.2833743,405,0,0,,0.422673713355884,0.422673713355884,0.2
1676104294.2871013,406,0,0,,0.4226725160124153,0.4226725160124153,0.2
1676104294.2971878,407,0,0,,0.4226725160124153,0.4226725160124153,0.2
1676104294.3220298,408,0,0,,0.42286560624860225,0.42286560624860225,0.2
1676104294.327222,409,0,0,,0.42285846481166783,0.42285846481166783,0.2
1676104294.3310294,410,0,0,,0.4228563103684038,0.4228563103684038,0.2
1676104294.3409793,411,0,0,,0.4228562677445263,0.4228562677445263,0.2
1676104294.3522513,412,0,0,,0.42193591668307784,0.42193591668307784,0.2
1676104294.3604305,413,0,0,,0.4219311893075705,0.4219311893075705,0.2
1676104294.3722289,414,0,0,,0.4219258031994104,0.4219258031994104,0.2
1676104294.3800364,415,0,0,,0.4219152131032944,0.4219152131032944,0.2
1676104294.392866,416,0,0,,0.42209614097669723,0.42209614097669723,0.2
1676104294.3999987,417,0,0,,0.42208150161221625,0.42208150161221625,0.2
1676104294.412794,418,0,0,,0.42208086612895135,0.42208086612895135,0.2
1676104294.4191322,419,0,0,,0.4219016485370696,0.4219016485370696,0.2
1676104294.427226,420,0,0,,0.421909603702575,0.421909603702575,0.2
1676104294.4386806,421,0,0,,0.421909603702575,0.421909603702575,0.2
1676104294.4482417,422,0,0,,0.42134665673851973,0.42134665673851973,0.2
1676104294.467084,423,0,0,,0.4213329008507729,0.4213329008507729,0.2
1676104294.4723728,424,0,0,,0.4213299636781216,0.4213299636781216,0.2
1676104294.4821131,425,0,0,,0.42260834670372316,0.42260834670372316,0.2
1676104294.490281,426,0,0,,0.42260214686699216,0.42260214686699216,0.2
1676104294.5004146,427,0,0,,0.4226052390355617,0.4226052390355617,0.2
1676104294.516492,428,0,0,,0.42259301760740575,0.42259301760740575,0.2
1676104294.521914,429,0,0,,0.4226081081340462,0.4226081081340462,0.2
1676104294.5324817,430,0,0,,0.4226081081340462,0.4226081081340462,0.2
1676104294.5392675,431,0,0,,0.42260880949057644,0.42260880949057644,0.2
1676104294.5532477,432,0,0,,0.4223838683153689,0.4223838683153689,0.2
1676104294.5610144,433,0,0,,0.4223838683153689,0.4223838683153689,0.2
1676104294.5689688,434,0,0,,0.4223848564143479,0.4223848564143479,0.2
1676104294.5815806,435,0,0,,0.42238296546414494,0.42238296546414494,0.2
1676104294.591554,436,0,0,,0.4229293889760971,0.4229293889760971,0.2
1676104294.6003566,437,0,0,,0.42293107455670836,0.42293107455670836,0.2
1676104294.6077754,438,0,0,,0.42293107455670836,0.42293107455670836,0.2
1676104294.6176703,439,0,0,,0.42204919831901794,0.42204919831901794,0.2
1676104294.6389036,440,0,0,,0.4220463696435094,0.4220463696435094,0.2
1676104294.6425755,441,0,0,,0.4220466447612643,0.4220466447612643,0.2
1676104294.6516597,442,0,0,,0.42193049705371266,0.42193049705371266,0.2
1676104294.6610768,443,0,0,,0.42193995955452324,0.42193995955452324,0.2
1676104294.671342,444,0,0,,0.4219312875328958,0.4219312875328958,0.2
1676104294.6818438,445,0,0,,0.4213354620879889,0.4213354620879889,0.2
1676104294.689111,446,0,0,,0.421340747448802,0.421340747448802,0.2
1676104294.7017603,447,0,0,,0.4213431305110455,0.4213431305110455,0.2
1676104294.7166913,448,0,0,,0.4213456259453297,0.4213456259453297,0.2
1676104294.7222543,449,0,0,,0.42232524698570373,0.42232524698570373,0.2
1676104294.731243,450,0,0,,0.42232668069794776,0.42232668069794776,0.2
1676104294.7404866,451,0,0,,0.42232447975590826,0.42232447975590826,0.2
1676104294.7518954,452,0,0,,0.42139614282041793,0.42139614282041793,0.2
1676104294.7576485,453,0,0,,0.42139614282041793,0.42139614282041793,0.2
1676104294.7720973,454,0,0,,0.42138833490103483,0.42138833490103483,0.2
1676104294.7859852,455,0,0,,0.42122921169728045,0.42122921169728045,0.2
1676104294.798094,456,0,0,,0.4212209620395303,0.4212209620395303,0.2
1676104294.8016174,457,0,0,,0.4212248020634055,0.4212248020634055,0.2
1676104294.8172796,458,0,0,,0.4212288280823827,0.4212288280823827,0.2
1676104294.820923,459,0,0,,0.42165702167823915,0.42165702167823915,0.2
1676104294.8319144,460,0,0,,0.42165415812864904,0.42165415812864904,0.2
1676104294.839442,461,0,0,,0.4216543789978326,0.4216543789978326,0.2
1676104294.8515773,462,0,0,,0.421755251197815,0.421755251197815,0.2
1676104294.8624477,463,0,0,,0.42175601455271244,0.42175601455271244,0.2
1676104294.871061,464,0,0,,0.4217545459663868,0.4217545459663868,0.2
1676104294.885372,465,0,0,,0.4215801188063622,0.4215801188063622,0.2
1676104294.8898952,466,0,0,,0.42157430258452894,0.42157430258452894,0.2
1676104294.9004698,467,0,0,,0.42158387745738035,0.42158387745738035,0.2
1676104294.9188447,468,0,0,,0.4215775458741189,0.4215775458741189,0.2
1676104294.9247112,469,0,0,,0.4221304420676828,0.4221304420676828,0.2
1676104294.9304962,470,0,0,,0.4221208323207498,0.4221208323207498,0.2
1676104294.9374657,471,0,0,,0.42211945285707714,0.42211945285707714,0.2
1676104294.9496171,472,0,0,,0.42172544220432645,0.42172544220432645,0.2
1676104294.961023,473,0,0,,0.42172544220432645,0.42172544220432645,0.2
1676104294.9750824,474,0,0,,0.4217207380782068,0.4217207380782068,0.2
1676104294.9829443,475,0,0,,0.4216916722016037,0.4216916722016037,0.2
1676104294.9904644,476,0,0,,0.42169188919588924,0.42169188919588924,0.2
1676104295.0011704,477,0,0,,0.421693977765888,0.421693977765888,0.2
1676104295.0188246,478,0,0,,0.421693977765888,0.421693977765888,0.2
1676104295.0230625,479,0,0,,0.4216860998085141,0.4216860998085141,0.2
1676104295.0311625,480,0,0,,0.4216825852760673,0.4216825852760673,0.2
1676104295.0397525,481,0,0,,0.42168879673749216,0.42168879673749216,0.2
1676104295.0506072,482,0,0,,0.42107919857352977,0.42107919857352977,0.2
1676104295.0573716,483,0,0,,0.42107919857352977,0.42107919857352977,0.2
1676104295.0697477,484,0,0,,0.42107919857352977,0.42107919857352977,0.2
1676104295.081623,485,0,0,,0.4210779276069999,0.4210779276069999,0.2
1676104295.093243,486,0,0,,0.4227071375586093,0.4227071375586093,0.2
1676104295.0997639,487,0,0,,0.4227023675592244,0.4227023675592244,0.2
1676104295.1186643,488,0,0,,0.42271310102656484,0.42271310102656484,0.2
1676104295.1263537,489,0,0,,0.42187695079818366,0.42187695079818366,0.2
1676104295.1303942,490,0,0,,0.421879616727978,0.421879616727978,0.2
1676104295.138547,491,0,0,,0.421879616727978,0.421879616727978,0.2
1676104295.1502683,492,0,0,,0.4220018554580212,0.4220018554580212,0.2
1676104295.15876,493,0,0,,0.42200463375985625,0.42200463375985625,0.2
1676104295.1741812,494,0,0,,0.42200710594475277,0.42200710594475277,0.2
1676104295.1865647,495,0,0,,0.42220839147463446,0.42220839147463446,0.2
1676104295.1928043,496,0,0,,0.42220839147463446,0.42220839147463446,0.2
1676104295.1993701,497,0,0,,0.4222106660397351,0.4222106660397351,0.2
1676104295.2123454,498,0,0,,0.4222142580701411,0.4222142580701411,0.2
1676104295.2205508,499,0,0,,0.4220171280324459,0.4220171280324459,0.2
1676104295.2319567,500,0,0,,0.4220131330126524,0.4220131330126524,0.2
1676104295.2411263,501,0,0,,0.42201558194816113,0.42201558194816113,0.2
1676104295.2508307,502,0,0,,0.42192980400785807,0.42192980400785807,0.2
1676104295.2608187,503,0,0,,0.42192847491785884,0.42192847491785884,0.2
1676104295.2678888,504,0,0,,0.42192848654255277,0.42192848654255277,0.2
1676104295.2864718,505,0,0,,0.4219252355031669,0.4219252355031669,0.2
1676104295.2924426,506,0,0,,0.42282240487970413,0.42282240487970413,0.2
1676104295.300929,507,0,0,,0.42282269549705087,0.42282269549705087,0.2
1676104295.313319,508,0,0,,0.4228179409972579,0.4228179409972579,0.2
1676104295.3197262,509,0,0,,0.42292071785144514,0.42292071785144514,0.2
1676104295.3325174,510,0,0,,0.4229261310838908,0.4229261310838908,0.2
1676104295.3406885,511,0,0,,0.4229238371443004,0.4229238371443004,0.2
1676104295.3503416,512,0,0,,0.42268404310211544,0.42268404310211544,0.2
1676104295.3608937,513,0,0,,0.4226835897390545,0.4226835897390545,0.2
1676104295.3713722,514,0,0,,0.42268859223231675,0.42268859223231675,0.2
1676104295.3849847,515,0,0,,0.4226822412745655,0.4226822412745655,0.2
1676104295.3898387,516,0,0,,0.4234482368568331,0.4234482368568331,0.2
1676104295.4019175,517,0,0,,0.42345832709111275,0.42345832709111275,0.2
1676104295.4154217,518,0,0,,0.42345280148662634,0.42345280148662634,0.2
1676104295.4189398,519,0,0,,0.42247906273417174,0.42247906273417174,0.2
1676104295.4271286,520,0,0,,0.42247906273417174,0.42247906273417174,0.2
1676104295.4426813,521,0,0,,0.4224703170894832,0.4224703170894832,0.2
1676104295.456463,522,0,0,,0.42280252828598025,0.42280252828598025,0.2
1676104295.4621089,523,0,0,,0.4228086312502623,0.4228086312502623,0.2
1676104295.467283,524,0,0,,0.42281091744005683,0.42281091744005683,0.2
1676104295.4854584,525,0,0,,0.42281091744005683,0.42281091744005683,0.2
1676104295.4928951,526,0,0,,0.422408539261818,0.422408539261818,0.2
1676104295.4996004,527,0,0,,0.42239848390161994,0.42239848390161994,0.2
1676104295.516648,528,0,0,,0.4224035251438618,0.4224035251438618,0.2
1676104295.5230143,529,0,0,,0.4204073273581267,0.4204073273581267,0.2
1676104295.5307007,530,0,0,,0.42030587090492255,0.42030587090492255,0.2
1676104295.539596,531,0,0,,0.41978852940380573,0.41978852940380573,0.2
1676104295.556616,532,0,0,,0.3945969068038464,0.3945969068038464,0.2
1676104295.5627265,533,0,0,,0.39352937241673475,0.39352937241673475,0.2
1676104295.5703971,534,0,0,,0.3924290292686224,0.3924290292686224,0.2
1676104295.5816164,535,0,0,,0.3924290292686224,0.3924290292686224,0.2
1676104295.591111,536,0,0,,0.2927954226130247,0.2927954226130247,0.2
1676104295.6008267,537,0,0,,0.29202052826941016,0.29202052826941016,0.2
1676104295.6125891,538,0,0,,0.2902740303874016,0.2902740303874016,0.2
1676104295.6209795,539,0,0,,0.19698481848299504,0.19698481848299504,0.2
1676104295.6300113,540,0,0,,0.18976698793530467,0.18976698793530467,0.2
1676104295.6402912,541,0,0,,0.1883476825618744,0.1883476825618744,0.2
1676104295.650652,542,0,0,,0.11646001966178421,0.11646001966178421,0.2
1676104295.66001,543,0,0,,0.11017806221842766,0.11017806221842766,0.2
1676104295.6725602,544,0,0,,0.1085422662961483,0.1085422662961483,0.2
1676104295.6868145,545,0,0,,0.10523795481324197,0.10523795481324197,0.2
1676104295.6899998,546,0,0,,0.07407159106254577,0.07407159106254577,0.2
1676104295.7002723,547,0,0,,0.0723968059170246,0.0723968059170246,0.2
1676104295.718667,548,0,0,,0.0691262680447102,0.0691262680447102,0.2
1676104295.7219224,549,0,0,,0.07850626273751259,0.07850626273751259,0.2
1676104295.7317169,550,0,0,,0.0769088748037815,0.0769088748037815,0.2
1676104295.7400627,551,0,0,,0.07078004945278168,0.07078004945278168,0.2
1676104295.75538,552,0,0,,0.0693089444434643,0.0693089444434643,0.2
1676104295.7604623,553,0,0,,0.0962691641676426,0.0962691641676426,0.2
1676104295.772329,554,0,0,,0.0935678255558014,0.0935678255558014,0.2
1676104295.7824228,555,0,0,,0.09102008014917373,0.09102008014917373,0.2
1676104295.7917066,556,0,0,,0.1344346842455864,0.1344346842455864,0.2
1676104295.8007479,557,0,0,,0.1289593526852131,0.1289593526852131,0.2
1676104295.8162923,558,0,0,,0.1289593526852131,0.1289593526852131,0.2
1676104295.8225183,559,0,0,,0.16041952058792117,0.16041952058792117,0.2
1676104295.831523,560,0,0,,0.15949221875786782,0.15949221875786782,0.2
1676104295.838622,561,0,0,,0.15508509581685068,0.15508509581685068,0.2
1676104295.8527584,562,0,0,,0.17783159738063814,0.17783159738063814,0.2
1676104295.8625216,563,0,0,,0.174585741431284,0.1747121805286408,0.19987356090264322
1676104295.8692956,564,0,0,,0.1730175806210101,0.17327763156056408,0.19973994906044604
1676104295.8808203,565,0,0,,0.1721718967118144,0.17256910214066506,0.19960279457114935
1676104295.891635,566,0,0,,0.1856318260596395,0.18609853879451754,0.19953328726512196
1676104295.9003148,567,0,0,,0.18278813513453007,0.1833381570839882,0.19944997805054188
1676104295.9131978,568,0,0,,0.18274444746624233,0.18337758150815964,0.1993668659580827
1676104295.921979,569,0,0,,0.182632077803731,0.18334846949815753,0.19928360830557348
1676104295.9311237,570,0,0,,0.17919900831828117,0.18001532339572907,0.19918368492255212
1676104295.9416134,571,0,0,,0.1770753828996182,0.17800168952941897,0.19907369337019923
1676104295.9523041,572,0,0,,0.17039028714170457,0.17145929728507997,0.1989309898566246
1676104295.9634187,573,0,0,,0.16813967230515484,0.16936187308311465,0.1987777992220402
1676104295.968376,574,0,0,,0.1665643615758419,0.16794682821273804,0.19861753336310387
1676104295.982491,575,0,0,,0.1580716066092849,0.159655794274807,0.19841581233447791
1676104295.9895284,576,0,0,,0.1557134275708795,0.15751006491184238,0.19820336265903712
1676104296.002203,577,0,0,,0.15407305570017102,0.1560892468070984,0.19798380889307263
1676104296.019832,578,0,0,,0.15085530163265468,0.1531059629249573,0.1977493387076974
1676104296.0230186,579,0,0,,0.14644403533681633,0.1489499468946457,0.19749408844217065
1676104296.0308151,580,0,0,,0.1454741947033167,0.14823891170263293,0.1972352830006838
1676104296.0412762,581,0,0,,0.1445006311424256,0.14752770959377293,0.19697292154865267
1676104296.0566912,582,0,0,,0.14420806446013454,0.14749765463829043,0.19671040982184412
1676104296.0677981,583,0,0,,0.14175449319814445,0.14531749589681628,0.1964369973013282
1676104296.0708148,584,0,0,,0.13859159262931348,0.14244238341093063,0.19614920921838286
1676104296.08851,585,0,0,,0.13761245125236513,0.14175446968555452,0.1958579815668106
1676104296.0934863,586,0,0,,0.14413097712852957,0.14853034384250643,0.19560063328602315
1676104296.0994968,587,0,0,,0.14184947969379424,0.14651626508235932,0.19533321461143494
1676104296.1112351,588,0,0,,0.14161102586648466,0.14654508582592013,0.19506594004056454
1676104296.122815,589,0,0,,0.14785193545845748,0.15302089096307755,0.19483104449537994
1676104296.1319323,590,0,0,,0.14635716480028632,0.151767283885479,0.19458988091480733
1676104296.1390352,591,0,0,,0.14363676020652058,0.14930037740468982,0.19433638280183077
1676104296.157452,592,0,0,,0.1532997419937849,0.15916752158403397,0.19413222040975095
1676104296.1655538,593,0,0,,0.1513410582939744,0.1574217292380333,0.19391932905594111
1676104296.1698103,594,0,0,,0.149420031328094,0.15572209181308747,0.19369793951500655
1676104296.1832566,595,0,0,,0.14866814572416545,0.15519423503398896,0.1934739106901765
1676104296.1929278,596,0,0,,0.1592530934334755,0.16594943556547165,0.19330365786800385
1676104296.1994903,597,0,0,,0.1580279634742618,0.16489980657339098,0.19312815690087082
1676104296.2125165,598,0,0,,0.15685415623492005,0.16390646699905398,0.19294768923586608
1676104296.2209752,599,0,0,,0.16323748006796837,0.17043760281801223,0.19279987724995615
1676104296.2304773,600,0,0,,0.1607051373657823,0.168064935438633,0.1926402019271493
1676104296.2438586,601,0,0,,0.15960879731018546,0.1671329307293892,0.19247586658079627
1676104296.2483587,602,0,0,,0.16610230234948398,0.17375764753103257,0.19234465481845142
1676104296.261065,603,0,0,,0.16554296985863448,0.17333165675640108,0.1922113131022334
1676104296.268779,604,0,0,,0.1631373994402051,0.1710707326745987,0.1920666667656064
1676104296.2885077,605,0,0,,0.16584224494795802,0.17390604794263842,0.1919361970053196
1676104296.298369,606,0,0,,0.16396396234858035,0.1721669306898117,0.19179703165876866
1676104296.3009367,607,0,0,,0.16297690452489855,0.17132325658321382,0.19165364794168474
1676104296.3109157,608,0,0,,0.16240098879652023,0.17089287647247314,0.1915081123240471
1676104296.3245838,609,0,0,,0.16616233596857788,0.174780322034359,0.1913820139342189
1676104296.3311813,610,0,0,,0.16518571884405614,0.17393403473615648,0.19125168410789967
1676104296.3424554,611,0,0,,0.16339002944083214,0.17227696053028108,0.19111306891055108
1676104296.3518393,612,0,0,,0.16333945325694085,0.1723645615386963,0.19097489171824455
1676104296.3580973,613,0,0,,0.16322086204223635,0.17238405007362367,0.19083681196861269
1676104296.3709533,614,0,0,,0.16141680253858567,0.17072635877609255,0.19069044376249314
1676104296.3819983,615,0,0,,0.16003208791248802,0.169494173283577,0.19053791462891104
1676104296.3927317,616,0,0,,0.16107029308475257,0.1706789835381508,0.19039130954660177
1676104296.3998318,617,0,0,,0.15922818879109624,0.16899191964626314,0.1902362691448331
1676104296.4120617,618,0,0,,0.1590911780860305,0.16900985964298249,0.19008131844304801
1676104296.4206617,619,0,0,,0.15897742069028617,0.16905084800720216,0.18992657268308402
1676104296.4279382,620,0,0,,0.15845204999738932,0.16868206697940827,0.18976998301798106
1676104296.4421918,621,0,0,,0.15831299048866032,0.1686995099210739,0.18961348056758642
1676104296.4581833,622,0,0,,0.1580284773977399,0.16857213614940644,0.18945634124833347
1676104296.4614003,623,0,0,,0.15629004049304723,0.16699870571613312,0.18929133477691412
1676104296.4732769,624,0,0,,0.15491676782941818,0.16579645079851152,0.18912031703090668
1676104296.4827757,625,0,0,,0.15437274014252428,0.16542529662847522,0.18894744351404907
1676104296.4907806,626,0,0,,0.1565112829943538,0.16772521341323854,0.18878606958111527
1676104296.4976864,627,0,0,,0.15522989558423758,0.1666107721424103,0.1886191234418273
1676104296.5212471,628,0,0,,0.15507803188246488,0.16662577954292299,0.1884522523395419
1676104296.5263736,629,0,0,,0.15662725646004677,0.16833333743333817,0.1882939190267086
1676104296.5292737,630,0,0,,0.1561186049096346,0.1679847620725632,0.18813384283707144
1676104296.5412045,631,0,0,,0.15454589649144412,0.16657915786504746,0.18796673862639668
1676104296.54749,632,0,0,,0.1591660140409708,0.17134256260156633,0.1878234514394045
1676104296.5575798,633,0,0,,0.15903668837839363,0.17135645466566085,0.1876802337127328
1676104296.568384,634,0,0,,0.15890743217613698,0.1713703467297554,0.1875370854463816
1676104296.5878432,635,0,0,,0.15842765187437535,0.17103538948059083,0.18739226239378454
1676104296.5941908,636,0,0,,0.15882543883359432,0.17157529994010925,0.18725013889348507
1676104296.5990834,637,0,0,,0.1577180909276843,0.1706148776459694,0.18710321328171492
1676104296.6187115,638,0,0,,0.1572743177548647,0.1703195069384575,0.18695481081640722
1676104296.6253042,639,0,0,,0.15900923581091164,0.17219345770597458,0.1868157781049371
1676104296.6281328,640,0,0,,0.15824221602174043,0.1715685949420929,0.18667362107964755
1676104296.6372468,641,0,0,,0.15811198434292079,0.17158046095848084,0.18653152338443996
1676104296.6478984,642,0,0,,0.16077119171010257,0.1743678291797638,0.1864033625303388
1676104296.6584783,643,0,0,,0.16065495620247125,0.17437969519615173,0.18627526100631953
1676104296.6757452,644,0,0,,0.1599268340526581,0.17378265974760057,0.18614417430505753
1676104296.68323,645,0,0,,0.1587854735013366,0.17277741213560105,0.18600806136573556
1676104296.688612,646,0,0,,0.15719252663156985,0.17132782613515854,0.18586470049641132
1676104296.7005613,647,0,0,,0.15674078413416148,0.17102097874403,0.1857198053901315
1676104296.7168171,648,0,0,,0.15573917364732026,0.17016852562904358,0.1855706480182767
1676104296.7254744,649,0,0,,0.15878720582895278,0.1733498087668419,0.1854373970621109
1676104296.7296312,650,0,0,,0.1580883243854642,0.17278699236154557,0.18530133202391863
1676104296.7405303,651,0,0,,0.1573636002448678,0.17220126191139223,0.1851623383334756
1676104296.753098,652,0,0,,0.15900417787839177,0.17397197964668276,0.18503219823170902
1676104296.7600777,653,0,0,,0.15864942014579775,0.1737484795165062,0.18490094062929155
1676104296.774427,654,0,0,,0.15822716131500006,0.17345892605543137,0.1847682352595687
1676104296.7817974,655,0,0,,0.15704792026673556,0.17241759702205658,0.18463032324467898
1676104296.7920902,656,0,0,,0.1594073432061553,0.17490250742435456,0.18450483578180074
1676104296.800168,657,0,0,,0.15904658824952841,0.17466841041564943,0.184378177833879
1676104296.819681,658,0,0,,0.1579040510138631,0.17365758525371552,0.18424646576014758
1676104296.8232305,659,0,0,,0.1625639493974209,0.17842535685300828,0.18413859254441262
1676104296.830004,660,0,0,,0.16198988084536792,0.17796148089647293,0.18402839994889497
1676104296.8405094,661,0,0,,0.1611934920316458,0.1772786985898018,0.183914793441844
1676104296.856675,662,0,0,,0.16384219171934128,0.180027261967659,0.1838149297516823
1676104296.8614533,663,0,0,,0.16353022271668913,0.17981621190547944,0.1837140108112097
1676104296.8672364,664,0,0,,0.1632127537887931,0.17960073928117753,0.18361201450761558
1676104296.886266,665,0,0,,0.16290823590471745,0.17939922527074814,0.18350901063396932
1676104296.8979297,666,0,0,,0.16282639547115565,0.17942028342008592,0.18340611205106974
1676104296.9069772,667,0,0,,0.16207532335183622,0.17877533462762835,0.18329998872420789
1676104296.9164143,668,0,0,,0.16175754425565006,0.17856473187208177,0.1831928123835683
1676104296.9254324,669,0,0,,0.16368051212078333,0.18058477585792543,0.1830957362628579
1676104296.9318492,670,0,0,,0.16273731368511915,0.1797428631067276,0.18299445057839156
1676104296.9411676,671,0,0,,0.16243603032563925,0.1795438604450226,0.18289216988061666
1676104296.9521928,672,0,0,,0.16200081531945468,0.17921258252620698,0.1827882327932477
1676104296.9602568,673,0,0,,0.161695328831172,0.17901203585863115,0.18268329297254085
1676104296.9727466,674,0,0,,0.16077265519765616,0.17819837037324907,0.1825742848244071
1676104296.9822376,675,0,0,,0.16139615338538887,0.17892723239898684,0.18246892098640205
1676104296.990721,676,0,0,,0.16110607004784344,0.17874343190193176,0.1823626381459117
1676104296.9995868,677,0,0,,0.16040933509349822,0.17815591736078262,0.1822534177327156
1676104297.0194788,678,0,0,,0.15991927154307367,0.1777769689655304,0.18214230257754327
1676104297.0253232,679,0,0,,0.16200633287280797,0.17996420924901962,0.18204212362378835
1676104297.0324147,680,0,0,,0.16152414994719028,0.1795841057944298,0.1819400441527605
1676104297.0464761,681,0,0,,0.16104362370682956,0.17920754184484483,0.18183608186198474
1676104297.0551898,682,0,0,,0.1609845651580453,0.1792522221851349,0.1817323429729104
1676104297.0598502,683,0,0,,0.1607062976029992,0.1790785618209839,0.18162773578201533
1676104297.0677779,684,0,0,,0.15984319950170517,0.17832384449720384,0.18151935500450134
1676104297.0855978,685,0,0,,0.1598195640757084,0.17840816823005679,0.18141139584565164
1676104297.091505,686,0,0,,0.1595800180151701,0.17827723598957063,0.1813027820255995
1676104297.1010094,687,0,0,,0.15907342297166585,0.17788123477220535,0.1811921881994605
1676104297.1148536,688,0,0,,0.15829055195918085,0.17721230224847795,0.1810782497107029
1676104297.1182344,689,0,0,,0.1616721934548497,0.18069049128770828,0.18098170216714143
1676104297.1379502,690,0,0,,0.16122548191349506,0.18034206939935685,0.18088341251413823
1676104297.141641,691,0,0,,0.16045327427537442,0.17967150424003603,0.1807817700353384
1676104297.150243,692,0,0,,0.16187555565849543,0.18118784639120103,0.1806877092672944
1676104297.1647835,693,0,0,,0.16161170025805235,0.18101889650821687,0.1805928037498355
1676104297.170845,694,0,0,,0.16053757691119908,0.18004455040931702,0.1804930265018821
1676104297.1816945,695,0,0,,0.16027634167077542,0.17988389569044114,0.18039244598033427
1676104297.192413,696,0,0,,0.16008698623868228,0.1797955624461174,0.18029142379256488
1676104297.1996267,697,0,0,,0.15967684521507025,0.17948798151493073,0.18018886370013953
1676104297.218439,698,0,0,,0.15925133139662745,0.17916663452386858,0.18008469687275885
1676104297.2212787,699,0,0,,0.1601975610921502,0.18021180519342422,0.17998575589872598
1676104297.2332203,700,0,0,,0.15977529281989336,0.17989008648872376,0.1798852063311696
1676104297.239619,701,0,0,,0.15936186149142978,0.17957876135349274,0.17978310013793708
1676104297.256949,702,0,0,,0.1598926434899926,0.18020850084781648,0.17968414264217614
1676104297.2612011,703,0,0,,0.15968356940680742,0.18009893210411074,0.1795846373026967
1676104297.2717984,704,0,0,,0.15941852091177702,0.1799342125463486,0.17948430836542845
1676104297.2799864,705,0,0,,0.15868824429446457,0.17930739893436431,0.17938084536010027
1676104297.2923186,706,0,0,,0.1594389966989398,0.18015736451625824,0.17928163218268156
1676104297.3021123,707,0,0,,0.15901503462516067,0.1798342312860489,0.1791808033391118
1676104297.3192263,708,0,0,,0.15830599367680548,0.17922904511213303,0.17907694856467246
1676104297.3233206,709,0,0,,0.15702474633917807,0.17805751022338867,0.1789672361157894
1676104297.3317554,710,0,0,,0.15675669959912297,0.17789996366500854,0.17885673593411444
1676104297.341499,711,0,0,,0.15603435141240357,0.17729115967988968,0.1787431917325139
1676104297.3520107,712,0,0,,0.1567218978077054,0.17808826475143433,0.17863363305627106
1676104297.3589513,713,0,0,,0.1561485298382163,0.1776267629671097,0.17852176687110663
1676104297.3669395,714,0,0,,0.15603725141803026,0.17762734780788422,0.17840990361014603
1676104297.3808568,715,0,0,,0.1557678996148944,0.1774706427907944,0.17829725682410003
1676104297.3978813,716,0,0,,0.15758979523984193,0.17939556061267853,0.1781942346271634
1676104297.4022472,717,0,0,,0.1564641588311076,0.17837803403377533,0.17808612479733227
1676104297.416728,718,0,0,,0.1560652744110465,0.17808870608329774,0.17797656832774877
1676104297.4196517,719,0,0,,0.15948225332205293,0.18159769651174545,0.1778845568103075
1676104297.4271088,720,0,0,,0.15939032658845184,0.18159778087377548,0.17779254571467637
1676104297.4377298,721,0,0,,0.1592984002766609,0.1815978652358055,0.1777005350408554
1676104297.4623656,722,0,0,,0.15979876885021924,0.1821872973227501,0.17761147152746914
1676104297.4696712,723,0,0,,0.15932813639731405,0.1818076267361641,0.17752050966114996
1676104297.4777663,724,0,0,,0.15898524546476603,0.1815569510483742,0.17742829441639185
1676104297.4858723,725,0,0,,0.15875987698335647,0.18142446026563647,0.17733541671772002
1676104297.4912183,726,0,0,,0.15985874085389376,0.18261027277231218,0.1772484680815816
1676104297.496812,727,0,0,,0.1595515701416731,0.18239114632844927,0.17716042381322383
1676104297.5191028,728,0,0,,0.15895094773343799,0.18188111832857132,0.17706982940486668
1676104297.5264485,729,0,0,,0.16179376685450075,0.18479993776082992,0.17699382909367084
1676104297.5321722,730,0,0,,0.16148947800749539,0.18457278498888016,0.17691669301861523
1676104297.5419688,731,0,0,,0.16119074393520352,0.1843522894692421,0.17683845446596144
1676104297.5514355,732,0,0,,0.16088697642847297,0.18412788254976273,0.17675909387871025
1676104297.5627673,733,0,0,,0.16226859687889814,0.18558159502506258,0.17668700185383557
1676104297.568991,734,0,0,,0.1619796267844796,0.1853657959508896,0.17661383083359003
1676104297.5847034,735,0,0,,0.16170019725404977,0.1851605636024475,0.17653963365160225
1676104297.595382,736,0,0,,0.16271515513070822,0.1862442999792099,0.1764708551514983
1676104297.6018581,737,0,0,,0.16212729743148088,0.18572780326366425,0.17639949416781664
1676104297.607737,738,0,0,,0.16205429355243442,0.18572616854190827,0.17632812501052617
1676104297.6174133,739,0,0,,0.16261057624912856,0.18635069774985313,0.17625987849927544
1676104297.628404,740,0,0,,0.16254068684251308,0.18634906302809717,0.17619162381441592
1676104297.6377575,741,0,0,,0.1624707892622888,0.18634742830634118,0.17612336095594763
1676104297.663385,742,0,0,,0.16248609289119836,0.1864305790400505,0.17605551385114787
1676104297.6676922,743,0,0,,0.1615956575045049,0.18561208323717118,0.17598357426733374
1676104297.6708415,744,0,0,,0.16152163399792313,0.1856100096821785,0.17591162431574464
1676104297.6832757,745,0,0,,0.16124017559596898,0.18540154356241229,0.1758386320335567
1676104297.694131,746,0,0,,0.1616312568125367,0.18586330823779107,0.17576794857474565
1676104297.7018216,747,0,0,,0.1613625912932694,0.1856663111627102,0.1756962801305592
1676104297.7124507,748,0,0,,0.16079127695722578,0.18516915107131005,0.17562212588591575
1676104297.7184424,749,0,0,,0.162974030837816,0.18741483079791071,0.1755592000399053
1676104297.7331672,750,0,0,,0.16290859309562444,0.1874123313987255,0.17549626169689894
1676104297.7398775,751,0,0,,0.16237564323776366,0.18694465824961665,0.17543098498814702
1676104297.7576365,752,0,0,,0.16308818348615767,0.18771860547065736,0.1753695780155003
1676104297.7605596,753,0,0,,0.16275753821194766,0.1874507066631317,0.17530683154881596
1676104297.7675614,754,0,0,,0.16269202659977078,0.1874479552745819,0.17524407132518888
1676104297.7794523,755,0,0,,0.16262650123065114,0.1874452038860321,0.17518129734461904
1676104297.7890613,756,0,0,,0.16320144367718697,0.18807974759459498,0.175121696082592
1676104297.7977989,757,0,0,,0.16313907726966737,0.18807699620604515,0.17506208106362223
1676104297.8108602,758,0,0,,0.16307669710520506,0.18807424481749535,0.17500245228770972
1676104297.8208597,759,0,0,,0.16392104200707971,0.188973721113801,0.17494732089327872
1676104297.8386757,760,0,0,,0.16376787598602177,0.18887617422163488,0.1748917017643869
1676104297.8462791,761,0,0,,0.1621679847513646,0.18733958506166937,0.17482839968969524
1676104297.8508773,762,0,0,,0.1625272626432061,0.18776006264030934,0.17476720000289678
1676104297.8595865,763,0,0,,0.16231808249635993,0.18761281840145588,0.17470526409490406
1676104297.8675508,764,0,0,,0.16214753168415427,0.1875047438699007,0.17464278781425358
1676104297.8789544,765,0,0,,0.1620815846525043,0.18750129038631916,0.17458029426618515
1676104297.9020305,766,0,0,,0.1618427016165942,0.18732577845811846,0.17451692315847575
1676104297.9072459,767,0,0,,0.16126612401398122,0.18681512522935867,0.17445099878462256
1676104297.9167604,768,0,0,,0.16095270611247717,0.1865688630127907,0.1743838430996865
1676104297.921833,769,0,0,,0.16167634440575837,0.18735572269260883,0.17432062171314955
1676104297.929881,770,0,0,,0.16140451147952375,0.1871481490212679,0.17425636245825588
1676104297.9398465,771,0,0,,0.1612251648323476,0.18703363420307637,0.17419153062927126
1676104297.958337,772,0,0,,0.1617525889177382,0.18762294357061388,0.17412964534712433
1676104297.963562,773,0,0,,0.16153149555138943,0.18746452756643295,0.1740669679849565
1676104297.9710903,774,0,0,,0.16137738500433566,0.18737354927301408,0.17400383573132158
1676104297.9824252,775,0,0,,0.16110425102822185,0.18716459233522417,0.17393965869299768
1676104297.9898164,776,0,0,,0.1622673355879169,0.18838574815414846,0.17388158743376844
1676104298.0023105,777,0,0,,0.16207982173644825,0.1882569495549053,0.17382287218154296
1676104298.0167391,778,0,0,,0.16187383632605112,0.18811041208408774,0.1737634242419634
1676104298.0278273,779,0,0,,0.16230125936870946,0.1885948608226329,0.17370639854607656
1676104298.031065,780,0,0,,0.16197899370182864,0.18833094045348467,0.17364805324834398
1676104298.0403147,781,0,0,,0.1619162444174513,0.18832655837722123,0.1735896860402301
1676104298.0560353,782,0,0,,0.16276346352318077,0.1892276392865181,0.1735358242366627
1676104298.061013,783,0,0,,0.16253416670231371,0.1890530770802498,0.17348108962206393
1676104298.0767224,784,0,0,,0.1624195887856558,0.18899353150606157,0.17342605727959423
1676104298.0888817,785,0,0,,0.16213440737363846,0.18876452745676042,0.17336987991687805
1676104298.0942743,786,0,0,,0.16252064536700397,0.18920474174141885,0.17331590362558513
1676104298.10124,787,0,0,,0.16246200595491678,0.1892001018202305,0.17326190413468628
1676104298.1119535,788,0,0,,0.16212853232520968,0.1889220181000233,0.1732065142251864
