Time,header.seq,header.stamp.secs,header.stamp.nsecs,header.frame_id,vector.x,vector.y,vector.z
1676104290.2450087,1,1676104290,239255666,,0.951442746406709,-1.3912091693098387,-2.2145412732412844
1676104290.2583492,2,1676104290,253733873,,0.9714789322649195,-1.375973274618863,-2.202386690464235
1676104290.2610712,3,1676104290,260050773,,0.9635083640048612,-1.3816062275306817,-2.2014083711247987
1676104290.2708967,4,1676104290,267235040,,0.9635083640048612,-1.3816062275306817,-2.2014083711247987
1676104290.2921472,5,1676104290,289716243,,0.9625857681783452,-1.379444929701842,-2.200279927576381
1676104290.3000438,6,1676104290,297184228,,0.9922521067965132,-1.3925766940267144,-2.1941116589751597
1676104290.3072355,7,1676104290,302330255,,0.9882627200448961,-1.384532239305818,-2.1921472604323684
1676104290.3197613,8,1676104290,312898397,,0.9735629600667295,-1.389930101468339,-2.1972886439395425
1676104290.325217,9,1676104290,322059869,,0.9698385188460281,-1.3792563040027412,-2.209312709091421
1676104290.3310857,10,1676104290,329479694,,0.9658625992405228,-1.3779482201035702,-2.2106173084088856
1676104290.3395948,11,1676104290,337587356,,0.9629231938989088,-1.3793419639557603,-2.201028540542972
1676104290.350499,12,1676104290,348792791,,0.9452447496224337,-1.404805122682702,-2.2136494186690743
1676104290.3591504,13,1676104290,357830047,,0.9837949827302412,-1.381575837511246,-2.2010769266428496
1676104290.370802,14,1676104290,368213653,,0.9548325187519786,-1.379138847116441,-2.195689406278143
1676104290.3807936,15,1676104290,379219532,,0.992200682092836,-1.3831401734426392,-2.201882810507965
1676104290.390612,16,1676104290,389085769,,0.9631002827739972,-1.3889524511246356,-2.1905680923697872
1676104290.4024804,17,1676104290,400259017,,0.9647670473004569,-1.3772215434192578,-2.2023552713437096
1676104290.4136226,18,1676104290,410387992,,0.9713262779876538,-1.3910662950530017,-2.1856405753970263
1676104290.4209392,19,1676104290,419179201,,0.9816879838581696,-1.3760061029391488,-2.200204747377822
1676104290.4284153,20,1676104290,426876306,,0.9823089936219115,-1.3922082255156618,-2.202819308351998
1676104290.445703,21,1676104290,440214633,,0.9710283550720779,-1.392421660582754,-2.221255022791797
1676104290.455162,22,1676104290,450755834,,0.9765242091960868,-1.3857662221708589,-2.2243493536375234
1676104290.4606302,23,1676104290,459059238,,0.9656304670420842,-1.3811136434185802,-2.187228848940924
1676104290.4696572,24,1676104290,467906475,,0.9695602361713024,-1.3886049587374685,-2.1954363292849055
1676104290.487545,25,1676104290,480895280,,0.9588653150455476,-1.3881374765586776,-2.199694191588896
1676104290.4943473,26,1676104290,491987705,,0.9889473123924629,-1.3914374338037687,-2.1926924675554544
1676104290.5002317,27,1676104290,498528480,,0.9653690178201962,-1.387660816058919,-2.1940416598925454
1676104290.5102024,28,1676104290,507051944,,0.9922573488833053,-1.3841980034650805,-2.201686291950239
1676104290.5252478,29,1676104290,521162986,,0.974981367924514,-1.3878277665238443,-2.194525420919569
1676104290.5304675,30,1676104290,527497291,,0.9483265429417759,-1.378660021438749,-2.1999844054488364
1676104290.5386567,31,1676104290,537096500,,0.9726864800225437,-1.382967196405972,-2.202258301810358
1676104290.5511382,32,1676104290,549401044,,0.9695577304208867,-1.3879111461491467,-2.200433437625755
1676104290.561414,33,1676104290,559697628,,0.9739784805403391,-1.3875202732923775,-2.195215466782784
1676104290.5712483,34,1676104290,569547176,,0.9564932334294742,-1.389245587510326,-2.200446005680941
1676104290.5816064,35,1676104290,578916788,,0.9869182193304914,-1.4004782681360979,-2.19420762440164
1676104290.5884602,36,1676104290,587208271,,0.9562419287454907,-1.382599009286453,-2.1941983726687835
1676104290.6012778,37,1676104290,598633766,,0.9590153178394787,-1.3875895786500427,-2.1979792818632986
1676104290.6122217,38,1676104290,607588052,,0.9585102448756568,-1.394203293741892,-2.2091282945715247
1676104290.6171827,39,1676104290,615512371,,0.9585102448756568,-1.394203293741892,-2.2091282945715247
1676104290.6315904,40,1676104290,628801107,,0.9612749598822661,-1.39719193602211,-2.214839641513947
1676104290.6406991,41,1676104290,638452291,,0.9670649620080279,-1.3767958028948013,-2.203614258473101
1676104290.6515794,42,1676104290,649668693,,0.9785319415950952,-1.3931060479431934,-2.1966674272943
1676104290.6600633,43,1676104290,657945871,,0.9838816009848621,-1.374836997880899,-2.217070726740186
1676104290.6693106,44,1676104290,666358947,,0.9838816009848621,-1.374836997880899,-2.217070726740186
1676104290.6824596,45,1676104290,679975509,,0.9646170875644582,-1.3784704544200441,-2.198940171342778
1676104290.691627,46,1676104290,689751386,,0.9671382014419305,-1.385214045724688,-2.191891639597599
1676104290.699033,47,1676104290,697366237,,0.9544771232796547,-1.3933457142386108,-2.1982983596114334
1676104290.7067504,48,1676104290,705424785,,0.9544771232796547,-1.3933457142386108,-2.1982983596114334
1676104290.7173185,49,1676104290,715441465,,0.9544771232796547,-1.3933457142386108,-2.1982983596114334
1676104290.72746,50,1676104290,725720643,,0.9544771232796547,-1.3933457142386108,-2.1982983596114334
1676104290.7452767,51,1676104290,740486860,,0.9473778514721597,-1.3821976624263634,-2.1977914524007365
1676104290.7513258,52,1676104290,748540163,,0.9884851465523958,-1.3916797244588917,-2.1974258132703435
1676104290.7672884,53,1676104290,760083913,,0.9664879609747195,-1.4030119368208138,-2.219476659418141
1676104290.7713234,54,1676104290,769334793,,0.9755127338741806,-1.3966452305742394,-2.2196153558203457
1676104290.7817254,55,1676104290,779716968,,0.9855473732681169,-1.3790458841355524,-2.203171391974943
1676104290.7912178,56,1676104290,789482355,,0.9761738955374988,-1.384724398650864,-2.200774213452768
1676104290.8072898,57,1676104290,799921989,,0.9736580803373353,-1.3831159853356736,-2.2070077640608234
1676104290.8156397,58,1676104290,810637712,,0.9736580803373353,-1.3831159853356736,-2.2070077640608234
1676104290.821222,59,1676104290,819256305,,0.9801531099050318,-1.3812909106490736,-2.201668466673469
1676104290.8305202,60,1676104290,828924179,,0.9649095322648427,-1.3982699513766474,-2.2128961600114225
1676104290.8405106,61,1676104290,838475227,,0.9669060853659126,-1.388332512944856,-2.21388378916081
1676104290.8508875,62,1676104290,849019289,,0.9688664807854623,-1.3928185516884506,-2.1975289299090144
1676104290.8606694,63,1676104290,859321117,,0.9800583018904935,-1.3818098289393523,-2.2049028814076124
1676104290.8712647,64,1676104290,866379976,,0.9491426671345551,-1.3762490029812875,-2.1946370223374343
1676104290.8820763,65,1676104290,879329681,,0.9571606724550077,-1.386880018785651,-2.224127656995776
1676104290.8900037,66,1676104290,888501167,,0.9795395159987091,-1.395608650545289,-2.1942179243356668
1676104290.907336,67,1676104290,897275686,,0.9531505615125533,-1.3922441886238535,-2.2096288068640146
1676104290.9155169,68,1676104290,912003993,,0.9615576616383311,-1.391897280607663,-2.1998786589178847
1676104290.9214616,69,1676104290,918663978,,0.9632898715963005,-1.3943345287429205,-2.2171182007387684
1676104290.9305186,70,1676104290,928853034,,0.9708398886116315,-1.3829292145673424,-2.208141074409055
1676104290.9393938,71,1676104290,936150789,,0.984973815010395,-1.3764260416734537,-2.2079270847827375
1676104290.9510388,72,1676104290,949748039,,0.9640232314872434,-1.3847191956833313,-2.1989696718728413
1676104290.956573,73,1676104290,955237865,,0.9640232314872434,-1.3847191956833313,-2.1989696718728413
1676104290.9709175,74,1676104290,969502687,,0.9874729179795159,-1.3839749026444295,-2.202945908853839
1676104290.9808671,75,1676104290,978604078,,0.9609927147939009,-1.3846334323849747,-2.220926333640062
1676104290.9899917,76,1676104290,988116502,,0.9534283757313095,-1.4002582739467457,-2.2046173282455013
1676104291.001259,77,1676104290,999393463,,0.9622306216864859,-1.3955641401911165,-2.199987969976608
1676104291.0163012,78,1676104291,10041952,,0.9648126410431437,-1.3869164651520953,-2.1983008973916234
1676104291.0229318,79,1676104291,20025968,,0.9643444241838814,-1.3842914832679738,-2.197602375033167
1676104291.029848,80,1676104291,26876449,,0.9736764473563637,-1.3857091622606037,-2.1957572100942913
1676104291.0391364,81,1676104291,37634134,,0.9822551598827293,-1.3935767259247727,-2.20912069958244
1676104291.0500557,82,1676104291,48711776,,0.9675633360775224,-1.381319183221041,-2.200682804318131
1676104291.0629144,83,1676104291,60164213,,0.9674519131974774,-1.3884224394320914,-2.1935416425800893
1676104291.0701036,84,1676104291,68556070,,0.9846498151272628,-1.3882588897594663,-2.1997245121546083
1676104291.081263,85,1676104291,79464197,,0.969109693604458,-1.3774980509762522,-2.1930872722192665
1676104291.090888,86,1676104291,87837219,,0.965969006346418,-1.3921784043329346,-2.1995458827396797
1676104291.099196,87,1676104291,97587823,,0.9667934206582711,-1.3899633107562854,-2.1974722960396025
1676104291.1123295,88,1676104291,105870246,,0.9667934206582711,-1.3899633107562854,-2.1974722960396025
1676104291.1212761,89,1676104291,119564294,,0.9363375355499209,-1.3859784209708734,-2.2127469687952273
1676104291.1322467,90,1676104291,130344390,,0.9562472180417988,-1.3818660392985973,-2.1931091279935075
1676104291.140855,91,1676104291,138170003,,0.9622555367547613,-1.3911019408473855,-2.19939786460367
1676104291.1491199,92,1676104291,147061347,,0.9771143048183492,-1.3797813580649934,-2.19688527082493
1676104291.1602445,93,1676104291,158295392,,0.9914216084317216,-1.3901491618513977,-2.206510471960941
1676104291.1717825,94,1676104291,168296098,,0.968351085794608,-1.393268633153092,-2.1924098959036042
1676104291.185514,95,1676104291,180384397,,0.9620744530615724,-1.39923075213293,-2.193956958683609
1676104291.192185,96,1676104291,190078258,,0.9750726180925708,-1.3916865648443255,-2.2012298966105206
1676104291.201885,97,1676104291,199369668,,0.9610464850178245,-1.3773342129245403,-2.193789155429812
1676104291.214269,98,1676104291,209959268,,0.9743108574973279,-1.3907901418477593,-2.202783421888164
1676104291.2225127,99,1676104291,219691514,,0.9920782162825099,-1.3736754460537048,-2.20565586827197
1676104291.2301977,100,1676104291,227710723,,0.978179074653931,-1.3791881933538626,-2.203768502992771
1676104291.2379725,101,1676104291,236037492,,0.9614958082162047,-1.3822161322184534,-2.1967855783384698
1676104291.2553608,102,1676104291,250899553,,0.9735884448853639,-1.392328249855753,-2.2014569162608004
1676104291.2614136,103,1676104291,259982585,,0.9883384515817919,-1.3832670102806761,-2.199875950243175
1676104291.2695098,104,1676104291,267910718,,0.9521885093124907,-1.3879356108460574,-2.225040545018078
1676104291.2878368,105,1676104291,280107498,,0.9680796116743353,-1.3877919354497743,-2.1976999588128048
1676104291.297253,106,1676104291,293350219,,0.9670344984699746,-1.394331662157776,-2.212744407431446
1676104291.3013284,107,1676104291,299770832,,0.9614465738288723,-1.3880604874727922,-2.193903482007128
1676104291.3171866,108,1676104291,311599016,,0.9984195583750488,-1.3722033052965559,-2.2077204505210557
1676104291.3271153,109,1676104291,324251174,,0.9774994679708241,-1.3860575621016007,-2.2002399583400534
1676104291.3304079,110,1676104291,328890800,,0.9868053540706287,-1.395351688615507,-2.202528593184081
1676104291.3388684,111,1676104291,337382316,,0.952229189522273,-1.4005716022304568,-2.1963076884287642
1676104291.351095,112,1676104291,349226236,,0.9993123545455926,-1.3739554288117701,-2.209379300625413
1676104291.362252,113,1676104291,359052181,,0.965825038486095,-1.385568128852369,-2.1975245503718415
1676104291.3697872,114,1676104291,366328001,,0.9465981563791691,-1.3970677813848227,-2.21057676000775
1676104291.380896,115,1676104291,378275632,,0.9869140281254039,-1.3826701788160198,-2.2014194016693054
1676104291.3935378,116,1676104291,391672611,,0.9626433756295782,-1.3952294811143855,-2.200855052954138
1676104291.4004457,117,1676104291,399049043,,0.9839072372050677,-1.3869692219047434,-2.202879662473083
1676104291.4105067,118,1676104291,407715559,,0.9839072372050677,-1.3869692219047434,-2.202879662473083
1676104291.4227142,119,1676104291,418479204,,0.9756600621892525,-1.3924990865561788,-2.218236207407755
1676104291.4312882,120,1676104291,427123546,,0.9721959954259117,-1.3806499011387716,-2.2020629580418287
1676104291.4380617,121,1676104291,437126159,,0.960390958321263,-1.3904866901512203,-2.2006515959011743
1676104291.4526882,122,1676104291,450145006,,0.9889556232939761,-1.3811490143500953,-2.199553053721379
1676104291.4596734,123,1676104291,458211660,,0.9662497810276632,-1.383613264272346,-2.2044865167672474
1676104291.470013,124,1676104291,468084812,,0.9614319903694469,-1.380609770883843,-2.2040757530198727
1676104291.4825037,125,1676104291,480366706,,0.9753885693593413,-1.3710654923517356,-2.2044276714683977
1676104291.488772,126,1676104291,486989021,,0.9680602638754559,-1.3882152663390264,-2.1931341984560553
1676104291.5021424,127,1676104291,499486684,,0.9761400295878592,-1.379070121688963,-2.201082070394944
1676104291.5174909,128,1676104291,512392282,,1.016698010077803,-1.3915797798492604,-2.2075947108119816
1676104291.5206149,129,1676104291,519357681,,0.9817104211670312,-1.3844994773358785,-2.1950907486903826
1676104291.5282445,130,1676104291,526809930,,0.9875794387855226,-1.3796997915433546,-2.2073601228293267
1676104291.5423758,131,1676104291,537912368,,0.9712536883305086,-1.3804736516703853,-2.2067954637145766
1676104291.55201,132,1676104291,550068378,,0.9827988689913818,-1.3858706933456828,-2.2056622360000175
1676104291.5591488,133,1676104291,556762933,,0.9657746308702965,-1.396246496499698,-2.1954007201948995
1676104291.5709581,134,1676104291,568642854,,0.9550672769228779,-1.3985217386275681,-2.2178198806870886
1676104291.5819254,135,1676104291,579688787,,0.9707474191105282,-1.3864949634784263,-2.198850118154065
1676104291.5897923,136,1676104291,588309764,,0.9810926771443319,-1.3789524401204194,-2.2042815803270526
1676104291.60172,137,1676104291,598941326,,0.9661920831635112,-1.3866109033487752,-2.199937088905223
1676104291.6207874,138,1676104291,613669633,,1.0040193696141197,-1.3866669211886438,-2.201165556502891
1676104291.6273158,139,1676104291,623650074,,0.9690547084311201,-1.393122372051267,-2.2214796316370906
1676104291.6316316,140,1676104291,630215883,,0.9963987419863964,-1.3775156402702502,-2.2017117264822073
1676104291.6396272,141,1676104291,638157844,,0.9485428880779064,-1.3873526487665568,-2.2177701668055056
1676104291.6525807,142,1676104291,650505065,,0.948429340493293,-1.4030417137831177,-2.2061502922948932
1676104291.6607459,143,1676104291,659223794,,0.9912879433040108,-1.3795123872369328,-2.205304373790194
1676104291.6711626,144,1676104291,668457984,,0.9757227336910004,-1.3951000975396177,-2.1952177654617606
1676104291.6797724,145,1676104291,677334308,,0.9846634872430947,-1.3847194459149814,-2.209613635086873
1676104291.6876376,146,1676104291,686015129,,0.9752081174999249,-1.386590178356127,-2.1944200045818136
1676104291.7027457,147,1676104291,700116395,,0.9702255691424547,-1.4004776638697696,-2.2151861675459803
1676104291.7180626,148,1676104291,712331533,,0.9695100168705864,-1.3857431972320344,-2.1963867732135816
1676104291.721696,149,1676104291,719240427,,0.9715368903187367,-1.3831678724320686,-2.2048175931173106
1676104291.727291,150,1676104291,725708961,,0.984953191331401,-1.390664995549201,-2.199250134032795
1676104291.7498436,151,1676104291,739774465,,0.9540905284455916,-1.3953863117389667,-2.202696839055164
1676104291.7592785,152,1676104291,752165317,,0.981338048909136,-1.389598626644189,-2.2027576174934587
1676104291.7655609,153,1676104291,762894630,,0.98562056209692,-1.3906681363903777,-2.196535265601361
1676104291.7720335,154,1676104291,768652439,,0.9621160586128791,-1.3893859681454732,-2.201408913931674
1676104291.7852614,155,1676104291,778747558,,0.9787997911461275,-1.400984159899043,-2.223431024448034
1676104291.7925303,156,1676104291,790383815,,0.9889083892042004,-1.377110916329763,-2.2100805189800887
1676104291.797185,157,1676104291,795304536,,0.9889083892042004,-1.377110916329763,-2.2100805189800887
1676104291.8183322,158,1676104291,813507080,,0.9663428049880187,-1.378509837920068,-2.2016807390336326
1676104291.8297951,159,1676104291,822299242,,0.9797350381522951,-1.401882030935158,-2.214125195826862
1676104291.8325381,160,1676104291,831014871,,0.9734664150483472,-1.3902536381441442,-2.199715967335853
1676104291.8383753,161,1676104291,836275339,,0.9755651441010408,-1.4003495306027862,-2.1918491460047496
1676104291.8562312,162,1676104291,849563598,,0.9599196532509706,-1.3904327410529547,-2.216714621681442
1676104291.865822,163,1676104291,862561702,,0.9561466800840417,-1.3895834440602257,-2.214566188463161
1676104291.8771665,164,1676104291,870794296,,0.9629485664040135,-1.3899221761373377,-2.214126892809168
1676104291.8882658,165,1676104291,881741285,,0.9498330080294469,-1.3929317021392666,-2.2210536819658158
1676104291.8941696,166,1676104291,892315387,,0.9415867284160558,-1.392491870444709,-2.1982753093174994
1676104291.9015594,167,1676104291,899674654,,0.9652994084284549,-1.388817761066533,-2.1954051599397038
1676104291.9144604,168,1676104291,910201072,,0.9337720174015537,-1.3931709761613944,-2.1967481938785753
1676104291.9203331,169,1676104291,918058633,,0.9856830241318374,-1.3940709097603416,-2.212018175829027
1676104291.928584,170,1676104291,927172422,,0.9597902726747103,-1.405400679156081,-2.204415445722775
1676104291.9415026,171,1676104291,938138008,,0.967937977255509,-1.4025887385737974,-2.2229135485682754
1676104291.9513667,172,1676104291,949789762,,0.9829260916195897,-1.375558339088091,-2.2072039938421026
1676104291.9601614,173,1676104291,957780838,,0.9849087142422719,-1.3798529988682582,-2.204267887213503
1676104291.9707854,174,1676104291,969190835,,0.982952493189898,-1.3838170545669017,-2.2022246255012017
1676104291.9802656,175,1676104291,976800441,,0.9543580295832907,-1.397058205646047,-2.2051995976045586
1676104291.9934006,176,1676104291,989216089,,0.9708446619544804,-1.3866047073812426,-2.2049787854737026
1676104291.9982662,177,1676104291,996357440,,0.9615465344448392,-1.384298522298078,-2.1874289126488455
1676104292.0121248,178,1676104292,7769107,,0.9615465344448392,-1.384298522298078,-2.1874289126488455
1676104292.0214047,179,1676104292,16950607,,0.9613458827927365,-1.3831305871121307,-2.202742598405375
1676104292.0308282,180,1676104292,29287099,,0.9829355642741245,-1.3885858766769446,-2.1959832671989137
1676104292.039809,181,1676104292,38011074,,0.981590335224195,-1.375989937247878,-2.206502319919655
1676104292.050902,182,1676104292,49641609,,0.9850752156699694,-1.379153026301473,-2.2071418435668724
1676104292.0599792,183,1676104292,57707786,,0.9793133841088315,-1.388138118536593,-2.2227029207335383
1676104292.0699215,184,1676104292,67592144,,0.9565023330481403,-1.398916522295901,-2.214210381350317
1676104292.0816364,185,1676104292,79952239,,0.9799944528283013,-1.395362114313651,-2.1905096423309187
1676104292.0914874,186,1676104292,89244842,,0.9539837789521595,-1.3964683193047664,-2.2150123309776197
1676104292.0999908,187,1676104292,98777532,,0.9726866002179093,-1.374411143233854,-2.2060161407784284
1676104292.1151466,188,1676104292,112157344,,0.970663995239005,-1.383369043531637,-2.201198013959723
1676104292.1208591,189,1676104292,119286060,,0.9895356173858653,-1.3709170310486998,-2.2117669856839264
1676104292.1305847,190,1676104292,127467155,,0.9791281871152654,-1.4023886274411335,-2.21731479263977
1676104292.1394265,191,1676104292,137339830,,0.9942428917217252,-1.3759754245875415,-2.2049663515947775
1676104292.1487079,192,1676104292,146120786,,0.9942428917217252,-1.3759754245875415,-2.2049663515947775
1676104292.1596038,193,1676104292,156094551,,0.9942428917217252,-1.3759754245875415,-2.2049663515947775
1676104292.1726446,194,1676104292,168259382,,0.9794664604738019,-1.3735398398233123,-2.207431012866233
1676104292.1804497,195,1676104292,178900003,,0.9359409948158846,-1.3869610063967799,-2.195021048364509
1676104292.1893597,196,1676104292,187242984,,0.9650830911132049,-1.3935451502510143,-2.2180522586326394
1676104292.2002182,197,1676104292,198337316,,0.971397018729673,-1.3958870767655118,-2.203611218891689
1676104292.2154653,198,1676104292,212381362,,0.974373676078192,-1.3780544508483095,-2.2010713111051703
1676104292.2224643,199,1676104292,219943761,,0.9908393147870627,-1.379683807687678,-2.1988740855327507
1676104292.2313783,200,1676104292,228214740,,0.9537639311937229,-1.3837823556251618,-2.198023065964047
1676104292.2386956,201,1676104292,236557483,,0.9754329152638198,-1.3823129289485383,-2.2081282116194783
1676104292.2520292,202,1676104292,248577356,,0.9692790118713782,-1.3824203456399116,-2.1925900971890306
1676104292.2596703,203,1676104292,258194208,,0.9681076893497043,-1.391342374785743,-2.195192916657044
1676104292.2713184,204,1676104292,267545938,,0.9562410981990039,-1.3827110097086097,-2.2026271354400557
1676104292.279559,205,1676104292,275948524,,0.9658980925866091,-1.3967072187990615,-2.2104280073157123
1676104292.291075,206,1676104292,289725780,,0.9870582940174032,-1.3951295456028974,-2.196649866969048
1676104292.2996252,207,1676104292,298084020,,0.9616911137470849,-1.3911121517478178,-2.199145700863148
1676104292.3129172,208,1676104292,309166193,,0.9652943314211675,-1.3999031182695094,-2.218328014239535
1676104292.3202827,209,1676104292,319095373,,0.976346947207445,-1.3803909914059727,-2.198599906705337
1676104292.3307853,210,1676104292,329326868,,0.9705353767125341,-1.389724500829118,-2.215958292103944
1676104292.338452,211,1676104292,336908102,,0.9443329831006834,-1.3943127193438114,-2.2208542063604044
1676104292.3500967,212,1676104292,347327709,,0.9701349683351479,-1.3826976374806228,-2.2037353645671085
1676104292.3596601,213,1676104292,358254432,,0.9800557958219631,-1.3853048364260767,-2.2097478073873584
1676104292.3700848,214,1676104292,368358850,,0.9601041973330309,-1.387250177295587,-2.190558310166944
1676104292.3809965,215,1676104292,379199266,,0.9609356974678206,-1.3857919324114942,-2.1982787202304297
1676104292.3916926,216,1676104292,389571428,,0.9805733343872426,-1.3904695987463134,-2.1913413134787447
1676104292.3997536,217,1676104292,398097753,,0.9540337465011314,-1.3850764420985793,-2.1962694799122677
1676104292.4117153,218,1676104292,408537387,,0.9681752313897283,-1.3847934034931035,-2.197680560699081
1676104292.4197252,219,1676104292,417553424,,0.9726524671055755,-1.37905468372315,-2.20682226220564
1676104292.4301777,220,1676104292,428481101,,0.9757156508821178,-1.3851361907336261,-2.200542715085039
1676104292.4407067,221,1676104292,438223600,,0.9783144091620493,-1.3895954392212253,-2.212191279945707
1676104292.4498909,222,1676104292,448367357,,0.9783241142191978,-1.3874278383707703,-2.2070672461706344
1676104292.4603946,223,1676104292,457814693,,0.9682817966268005,-1.3815150363398265,-2.200350094225668
1676104292.4703753,224,1676104292,467467069,,0.9771954046114211,-1.3779842544504481,-2.2072911602587384
1676104292.481234,225,1676104292,478775024,,0.9407162535499937,-1.3883152898600668,-2.1993690214131885
1676104292.4896867,226,1676104292,488118171,,0.9900412714692006,-1.3876962619409414,-2.2035609900418702
1676104292.499601,227,1676104292,496002197,,0.9900412714692006,-1.3876962619409414,-2.2035609900418702
1676104292.5178273,228,1676104292,513094186,,0.9724731309930941,-1.3747601576480089,-2.2028473511158806
1676104292.5243516,229,1676104292,521355867,,0.9682343048720645,-1.3850765595215402,-2.2215578240247886
1676104292.531315,230,1676104292,529906272,,0.9860379909968514,-1.3929147820648728,-2.1919808166983867
1676104292.5402722,231,1676104292,537936210,,0.9590592446502374,-1.3961184178283652,-2.1866374539588165
1676104292.552779,232,1676104292,550492763,,0.9583456148882885,-1.392138242505311,-2.197030318643357
1676104292.5595646,233,1676104292,557102441,,0.9807955256846033,-1.3796643884666766,-2.2057259046803113
1676104292.5707736,234,1676104292,566864490,,0.9632763887050896,-1.3782372129216935,-2.202375448646726
1676104292.5808108,235,1676104292,579723596,,0.9671818630331946,-1.3922226511197826,-2.2012361046272475
1676104292.5872376,236,1676104292,586015939,,0.9703602980672563,-1.3871057422167117,-2.191412458802944
1676104292.6011684,237,1676104292,597811698,,0.9666844858599521,-1.402218044032459,-2.2227661420106544
1676104292.6132271,238,1676104292,608177900,,0.9891366193099798,-1.3793457859256093,-2.197902944138121
1676104292.6220372,239,1676104292,618427991,,0.9605594185363585,-1.3815427637060484,-2.199629312778413
1676104292.629448,240,1676104292,627129554,,0.9803344227011771,-1.3788337416236078,-2.2024025175891535
1676104292.639751,241,1676104292,638076066,,0.9548152142695189,-1.3928750993139356,-2.2134467968621356
1676104292.6499643,242,1676104292,647466182,,0.9766351108882821,-1.3679633480489408,-2.2063056438548196
1676104292.6600392,243,1676104292,658350706,,1.0030053919898374,-1.3821004230244323,-2.202508356220724
1676104292.6696706,244,1676104292,667520999,,0.9632437666847278,-1.3895672698746426,-2.216827283559656
1676104292.6826904,245,1676104292,679311275,,0.9739887068475905,-1.3948279716253296,-2.205610067686578
1676104292.6896737,246,1676104292,687762260,,0.9669789741740294,-1.3824650713032902,-2.19553658158981
1676104292.6988025,247,1676104292,695557594,,0.9669789741740294,-1.3824650713032902,-2.19553658158981
1676104292.71035,248,1676104292,706299304,,0.9764305068916235,-1.3873871805835831,-2.1958626365958
1676104292.721387,249,1676104292,719017744,,0.9612019913072218,-1.3898703482776202,-2.2006448647522707
1676104292.7268786,250,1676104292,725332975,,0.9771033923942409,-1.396306324213661,-2.2160829806116182
1676104292.7376218,251,1676104292,735383033,,0.9771033923942409,-1.396306324213661,-2.2160829806116182
1676104292.7486012,252,1676104292,746106863,,0.9771033923942409,-1.396306324213661,-2.2160829806116182
1676104292.7693896,253,1676104292,766614437,,0.956666905514086,-1.39600288204305,-2.191991227216781
1676104292.7725325,254,1676104292,770785808,,0.9625603174262796,-1.388219039867601,-2.2029432037426453
1676104292.778783,255,1676104292,777392864,,0.9695286255269737,-1.379154869429429,-2.20299536313798
1676104292.7906654,256,1676104292,788808107,,0.9824995250539449,-1.393867757792621,-2.2021417703707913
1676104292.8018045,257,1676104292,798315286,,0.9723886187422265,-1.3870523311576628,-2.1938449135792903
1676104292.8127432,258,1676104292,811685085,,0.9815651644634548,-1.3792040536842693,-2.2144274084789792
1676104292.8183808,259,1676104292,816572427,,0.9815651644634548,-1.3792040536842693,-2.2144274084789792
1676104292.8287365,260,1676104292,826522588,,0.9705556425097978,-1.3815972634336757,-2.1981716321180467
1676104292.839461,261,1676104292,837535142,,0.9644185675546557,-1.383065251362316,-2.1997640676483505
1676104292.855677,262,1676104292,851153373,,0.983140675683439,-1.395126759758467,-2.1997287307549342
1676104292.8691788,263,1676104292,859659194,,0.9785474684947968,-1.375663988016603,-2.200301766345023
1676104292.8720114,264,1676104292,870341539,,0.9677884523833747,-1.3838063607801567,-2.2188124023845197
1676104292.8831792,265,1676104292,879778623,,0.9585788603152242,-1.393278133490214,-2.2168983365657087
1676104292.8894603,266,1676104292,888231277,,0.971020078599202,-1.3872733875012602,-2.1935126522308943
1676104292.8990073,267,1676104292,897295475,,0.9660773869300391,-1.3897951550322436,-2.1937779063739677
1676104292.9149132,268,1676104292,911532878,,0.9442294748152771,-1.4084195022748984,-2.2034199989875276
1676104292.9283407,269,1676104292,920861959,,0.9718185935748482,-1.390666411579628,-2.198416759535012
1676104292.9325147,270,1676104292,931231737,,0.9763436999323919,-1.3825557386564549,-2.198690231112923
1676104292.9395015,271,1676104292,937873840,,0.9776777764273812,-1.3786986480034247,-2.212935145495304
1676104292.950843,272,1676104292,947577238,,0.9799293330999407,-1.3964711442734863,-2.218085590479754
1676104292.9569528,273,1676104292,955442190,,0.968100927550881,-1.392793973238914,-2.1971365034134553
1676104292.9682107,274,1676104292,965568304,,0.968100927550881,-1.392793973238914,-2.1971365034134553
1676104292.978325,275,1676104292,976210832,,0.968100927550881,-1.392793973238914,-2.1971365034134553
1676104292.9926026,276,1676104292,990417480,,0.9835755249723808,-1.3935641708703932,-2.1953318141910674
1676104292.9991627,277,1676104292,995947837,,0.9777145230862184,-1.3886498238763305,-2.1963566841909232
1676104293.0077264,278,1676104293,6280899,,0.9593476766223612,-1.3928925981754448,-2.194822936862622
1676104293.0177264,279,1676104293,16343593,,0.9593476766223612,-1.3928925981754448,-2.194822936862622
1676104293.0303183,280,1676104293,28630733,,0.9730639328390364,-1.3920323914274144,-2.1942528384456885
1676104293.0407257,281,1676104293,39100885,,0.9813877048676214,-1.3891152196521483,-2.2252421976475336
1676104293.0532064,282,1676104293,50441980,,0.9664934816970827,-1.38623628630602,-2.1901333472886795
1676104293.0596466,283,1676104293,57475805,,0.9458811003615797,-1.3851399787216083,-2.1981902572436964
1676104293.0778072,284,1676104293,70599794,,0.944550663860664,-1.397349608298235,-2.2092010228517904
1676104293.085314,285,1676104293,81172704,,0.9656965736748108,-1.3927552164034815,-2.1940698543852153
1676104293.0919657,286,1676104293,89849233,,0.9661017231135326,-1.3810496993457764,-2.192914252135776
1676104293.0994196,287,1676104293,96803665,,0.970983428109483,-1.386446223071814,-2.2263666856589137
1676104293.111932,288,1676104293,108670711,,0.9444527968380692,-1.3800030284873166,-2.1892521334469364
1676104293.1209054,289,1676104293,118249893,,0.9817334418704435,-1.390778320187259,-2.1992871155846028
1676104293.129541,290,1676104293,128195047,,0.9699832952268012,-1.3941894818627847,-2.217943314088826
1676104293.1452634,291,1676104293,138314008,,0.9587713693235733,-1.3947936375884702,-2.1989973992542886
1676104293.152599,292,1676104293,148864746,,0.9585305305057613,-1.3888503907287342,-2.1951112825734023
1676104293.157795,293,1676104293,155837774,,0.9595317521843763,-1.382903846508847,-2.2027479712407256
1676104293.1712735,294,1676104293,169295072,,0.9901681182799709,-1.3808529277802388,-2.2097557628107087
1676104293.1819794,295,1676104293,179341316,,0.9557046131663924,-1.388764947933073,-2.216371453997093
1676104293.191161,296,1676104293,189612388,,0.9736748516888892,-1.3807701225258968,-2.2025487577964333
1676104293.1997967,297,1676104293,198053836,,0.9920888971538258,-1.3860008589974149,-2.2067884319543123
1676104293.2112026,298,1676104293,207897663,,0.9669546420766095,-1.385588965482338,-2.2022966354160367
1676104293.2187226,299,1676104293,215745687,,0.9669546420766095,-1.385588965482338,-2.2022966354160367
1676104293.2301254,300,1676104293,226034164,,0.9804135517262426,-1.3766770521744631,-2.204819593645675
1676104293.2395387,301,1676104293,237316131,,0.9644411324447518,-1.3884176788279121,-2.2002856281784564
1676104293.2524009,302,1676104293,250661373,,0.9697851709078316,-1.3994332743921698,-2.196752819831491
1676104293.2590134,303,1676104293,257965087,,0.9672066901054907,-1.3941135806953215,-2.1970275727483273
1676104293.269297,304,1676104293,267915010,,0.9661425896458741,-1.3784010822073183,-2.1981655822002204
1676104293.288518,305,1676104293,282443284,,0.9701681248664915,-1.3820714160669314,-2.1992280720856368
1676104293.292433,306,1676104293,291229009,,0.9774353202862428,-1.3700939866577928,-2.2109961286426683
1676104293.299921,307,1676104293,298573255,,0.9656988031024885,-1.3909008486503724,-2.1953345393428925
1676104293.3102632,308,1676104293,307523250,,0.9544872711589201,-1.3859495386636906,-2.2159657036370257
1676104293.318569,309,1676104293,316463470,,0.993745609671628,-1.383900050159686,-2.203410029223244
1676104293.3298523,310,1676104293,328032255,,0.9681773118436258,-1.3990328487665464,-2.215161606144411
1676104293.3425481,311,1676104293,339406967,,0.9591779755967262,-1.3878832936486813,-2.1977834948990127
1676104293.3529506,312,1676104293,349990844,,0.9655206494797399,-1.3894080244956937,-2.1921665779709034
1676104293.3591292,313,1676104293,357920885,,0.9584853262174653,-1.391497723229189,-2.196029352233888
1676104293.367222,314,1676104293,365457773,,0.9584853262174653,-1.391497723229189,-2.196029352233888
1676104293.3807461,315,1676104293,378362417,,0.9736706203867609,-1.386614253741053,-2.19781680122588
1676104293.3927891,316,1676104293,390332460,,0.9609788123089064,-1.3938457571953526,-2.185597707855616
1676104293.400381,317,1676104293,398894071,,0.9593742362197507,-1.3915992408691755,-2.1932505749007603
1676104293.407691,318,1676104293,406094074,,0.9593742362197507,-1.3915992408691755,-2.1932505749007603
1676104293.4182496,319,1676104293,416064262,,0.9593742362197507,-1.3915992408691755,-2.1932505749007603
1676104293.4301455,320,1676104293,428578376,,1.0062005449313072,-1.3874298173687136,-2.206388643824221
1676104293.4431741,321,1676104293,440348863,,0.9755014127330021,-1.3923884360807406,-2.2005594675530027
1676104293.4545588,322,1676104293,451871156,,0.9507555313364129,-1.4030723184863032,-2.189405653176538
1676104293.4588828,323,1676104293,456778764,,0.9575368680227144,-1.401041373266836,-2.2082046623626135
1676104293.4710834,324,1676104293,469747781,,0.9724759465871127,-1.3951069131342293,-2.1951712535517816
1676104293.476865,325,1676104293,475345373,,0.9581822648070806,-1.3992955862582734,-2.2003625338191033
1676104293.4909613,326,1676104293,487647533,,0.9792657878303442,-1.390615201035612,-2.2130066154817785
1676104293.498872,327,1676104293,496834993,,0.9603848623072717,-1.3906833239035135,-2.189981983889124
1676104293.5153205,328,1676104293,511320352,,0.9716275491616495,-1.3844344108394757,-2.204421699684771
1676104293.5220935,329,1676104293,520395755,,0.9716113476870533,-1.3856870037221654,-2.195971730460935
1676104293.5311978,330,1676104293,528970956,,0.9601503984591037,-1.3924123676046787,-2.1914075847533705
1676104293.5398653,331,1676104293,536870241,,0.9690645801296633,-1.379499772813833,-2.193928468297846
1676104293.5525155,332,1676104293,549718618,,0.973208432680831,-1.3823355426559913,-2.2079373228882195
1676104293.5580728,333,1676104293,556503534,,0.9748444623365239,-1.3803374097599015,-2.194129396424283
1676104293.5714533,334,1676104293,569622993,,0.9933955674134077,-1.397690354889227,-2.1947296113440573
1676104293.5820396,335,1676104293,579710960,,0.9650833299137366,-1.3887005642056627,-2.199811915262952
1676104293.5899196,336,1676104293,587849378,,0.9365353145824525,-1.3833694425413694,-2.193432034466444
1676104293.5986936,337,1676104293,597231626,,0.9569666444325349,-1.381527141379027,-2.20107367023757
1676104293.6160617,338,1676104293,609950304,,0.9702083533946879,-1.3954908794522116,-2.217912059492325
1676104293.622736,339,1676104293,619980812,,0.9591810571278058,-1.3890787274210108,-2.1945398293310845
1676104293.6297102,340,1676104293,627671957,,0.9788119720014055,-1.3968585357738934,-2.2211246935284743
1676104293.6405435,341,1676104293,639077663,,0.9501484895372089,-1.3837223354733517,-2.194789867482184
1676104293.6515033,342,1676104293,649637699,,0.9542710452018068,-1.3830647331700463,-2.2062595927150874
1676104293.6603463,343,1676104293,658917427,,0.9353372428442615,-1.3882207831334097,-2.1974802976262557
1676104293.670465,344,1676104293,668725252,,0.982298664744181,-1.3858246679114452,-2.1977087376907427
1676104293.6875396,345,1676104293,679951190,,0.9790818474886313,-1.399300701563001,-2.2028640775254056
1676104293.6921496,346,1676104293,690100431,,0.95694036494879,-1.3833043525588458,-2.2157614031926425
1676104293.7023826,347,1676104293,698566198,,0.9935953619502341,-1.3893087423545667,-2.196842195388363
1676104293.7124727,348,1676104293,711124181,,0.9546662287156047,-1.3919941225594534,-2.1959685874720156
1676104293.719235,349,1676104293,717552185,,0.9780285872021277,-1.3906235358143815,-2.2219218223285835
1676104293.7306957,350,1676104293,729197978,,0.9698717773664872,-1.378352678150313,-2.1961840675891118
1676104293.7390647,351,1676104293,737527132,,0.9748292275616284,-1.390684989774034,-2.201816835630114
1676104293.7526655,352,1676104293,750529527,,0.9574536876817881,-1.3923631898550641,-2.196746841876247
1676104293.7602096,353,1676104293,758560180,,0.9711180843505302,-1.3924183386962614,-2.1985810842042564
1676104293.7711394,354,1676104293,768811702,,0.9807298965580611,-1.379068187884387,-2.201118917808607
1676104293.7840846,355,1676104293,782143592,,0.9686770244973509,-1.390383551807115,-2.1946723572440177
1676104293.7881641,356,1676104293,786830425,,0.9686770244973509,-1.390383551807115,-2.1946723572440177
1676104293.7977269,357,1676104293,795448541,,0.9686770244973509,-1.390383551807115,-2.1946723572440177
1676104293.8190894,358,1676104293,816411018,,0.968924181482234,-1.39264961731286,-2.1907539364935107
1676104293.8229108,359,1676104293,821062326,,0.9615479912844396,-1.3887588675014328,-2.194620455637402
1676104293.82939,360,1676104293,826653957,,0.9697458586995651,-1.3747467685371018,-2.2018165361120583
1676104293.8395455,361,1676104293,837620735,,0.966182461332238,-1.3939323376718353,-2.114564361652192
1676104293.8505573,362,1676104293,845607995,,0.966182461332238,-1.3939323376718353,-2.114564361652192
1676104293.8579986,363,1676104293,855414390,,0.966182461332238,-1.3939323376718353,-2.114564361652192
1676104293.8696072,364,1676104293,865388393,,0.966182461332238,-1.3939323376718353,-2.114564361652192
1676104293.8782697,365,1676104293,876637697,,0.966182461332238,-1.3939323376718353,-2.114564361652192
1676104293.887346,366,1676104293,885507345,,0.966182461332238,-1.3939323376718353,-2.114564361652192
1676104293.8974411,367,1676104293,895580530,,0.966182461332238,-1.3939323376718353,-2.114564361652192
1676104293.908692,368,1676104293,906059741,,0.966182461332238,-1.3939323376718353,-2.114564361652192
1676104293.9179585,369,1676104293,915790557,,0.966182461332238,-1.3939323376718353,-2.114564361652192
1676104293.9275956,370,1676104293,925309181,,0.966182461332238,-1.3939323376718353,-2.114564361652192
1676104293.9373565,371,1676104293,935631275,,0.966182461332238,-1.3939323376718353,-2.114564361652192
1676104293.9479918,372,1676104293,946224451,,0.966182461332238,-1.3939323376718353,-2.114564361652192
1676104293.9589722,373,1676104293,955643177,,0.966182461332238,-1.3939323376718353,-2.114564361652192
1676104293.9680393,374,1676104293,965537786,,0.966182461332238,-1.3939323376718353,-2.114564361652192
1676104293.9907405,375,1676104293,976442813,,0.9526030172957538,-1.3882966607537683,-2.1112350514218003
1676104293.9908028,376,1676104293,989297389,,1.4897727932468865,-0.8187894727534882,-2.241436369789837
1676104293.9982855,377,1676104293,996644020,,1.5169588525895978,-0.6334894849363745,-2.2330418507787964
1676104294.0105402,378,1676104294,7348537,,1.8197728627021696,-0.12018908057117383,-2.2860200958764434
1676104294.0204966,379,1676104294,19031286,,2.2529239688160856,0.5800662748234362,-2.299583566171344
1676104294.026354,380,1676104294,25238752,,2.2529239688160856,0.5800662748234362,-2.299583566171344
1676104294.0457313,381,1676104294,39483070,,2.344512989788432,1.1574925980289312,-2.3132465493519576
1676104294.050441,382,1676104294,47452688,,2.344512989788432,1.1574925980289312,-2.3132465493519576
1676104294.0612438,383,1676104294,59623718,,2.702416060268548,2.345134223937235,-2.209729620295183
1676104294.0702477,384,1676104294,67118167,,2.8524574451229405,2.728801573457433,-2.22203869108788
1676104294.082383,385,1676104294,80289125,,2.884682717166049,2.9472678689731695,-2.237814418551561
1676104294.0922563,386,1676104294,90211391,,2.8774489435045005,3.523219619964657,-2.2320619255846714
1676104294.09987,387,1676104294,98442316,,2.961195776885671,4.027554372217418,-2.2871782980579014
1676104294.1083703,388,1676104294,106090784,,2.6102487192525685,4.250720431967443,-2.356794751523236
1676104294.1182683,389,1676104294,116498231,,2.7133484211991865,4.425993097747896,-2.3357070247245995
1676104294.132722,390,1676104294,129351615,,2.9682983179050058,4.647064833220626,-2.340961578074474
1676104294.1394439,391,1676104294,137544155,,3.2910017274477146,4.9414846715253455,-2.2462019199382333
1676104294.151347,392,1676104294,148623466,,3.7342299700291846,4.878022755055924,-2.1370863161382965
1676104294.1615572,393,1676104294,160085201,,3.78830214172722,4.982662532935346,-2.0932513265892667
1676104294.1710773,394,1676104294,165632009,,3.78830214172722,4.982662532935346,-2.0932513265892667
1676104294.1816638,395,1676104294,178864479,,3.774690711242687,5.024327641431778,-2.042749046077254
1676104294.1881459,396,1676104294,186801671,,3.867314856757876,5.053799352344497,-2.0287243134727166
1676104294.2011738,397,1676104294,197924613,,3.8381801172086374,5.07389128193429,-2.0642811994724237
1676104294.2106292,398,1676104294,206629276,,3.893352954758183,5.088426260765094,-2.0560790035499283
1676104294.219107,399,1676104294,217319965,,3.955941976599757,5.080868388624959,-2.054746364707443
1676104294.2336352,400,1676104294,230775594,,3.984733489441682,5.052049199591429,-2.0523854062117093
1676104294.2387154,401,1676104294,236842155,,4.038471491595726,5.042325135852462,-2.058332562757426
1676104294.2518473,402,1676104294,249635934,,4.093872720166689,5.0184807454503915,-2.0902552834646606
1676104294.2598717,403,1676104294,258275032,,4.100185452440339,5.023728789563403,-2.076464312367066
1676104294.2712407,404,1676104294,266908645,,4.08579960016043,5.014573705773823,-2.0992625552214412
1676104294.28298,405,1676104294,280253887,,4.066065464645113,5.078917222952145,-2.10010397967762
1676104294.2869453,406,1676104294,285351753,,4.066065464645113,5.078917222952145,-2.10010397967762
1676104294.2966454,407,1676104294,295311450,,4.066065464645113,5.078917222952145,-2.10010397967762
1676104294.3213997,408,1676104294,319984912,,4.113143844045702,5.2130945733582905,-2.1702262086031783
1676104294.3269863,409,1676104294,323066949,,4.141481508436483,5.263281830592342,-2.1880188303817945
1676104294.3305974,410,1676104294,328926563,,4.147122424298799,5.264526730583901,-2.1788401362326133
1676104294.3404114,411,1676104294,337431669,,4.1448729915415745,5.346122735154039,-2.1756130222867696
1676104294.3520613,412,1676104294,348618268,,4.243865925124867,5.443320367987051,-2.200549115224783
1676104294.3598213,413,1676104294,358663320,,4.2599289559159965,5.502731974124232,-2.2017439650565906
1676104294.371481,414,1676104294,368900060,,4.323382026749246,5.5754545995262035,-2.2081726238671284
1676104294.379477,415,1676104294,376198768,,4.421682404424427,5.619764654861054,-2.1999278085455494
1676104294.3927853,416,1676104294,390065431,,4.403319708144779,5.65241812707494,-2.2115444316819812
1676104294.3997247,417,1676104294,397915840,,4.540020303481997,5.747204885172477,-2.195108610825139
1676104294.414685,418,1676104294,409095764,,4.577226318213748,5.801813060145453,-2.183237612379607
1676104294.42002,419,1676104294,415479898,,4.577226318213748,5.801813060145453,-2.183237612379607
1676104294.426678,420,1676104294,425298213,,4.668618092874709,5.908886851397889,-2.1028365286028876
1676104294.4376426,421,1676104294,435536384,,4.668618092874709,5.908886851397889,-2.1028365286028876
1676104294.4477346,422,1676104294,445766448,,4.668618092874709,5.908886851397889,-2.1028365286028876
1676104294.4633615,423,1676104294,462104558,,4.827574084120947,6.051996840720754,-2.0940624598314113
1676104294.47241,424,1676104294,470120191,,4.888416082300484,6.091083825126343,-2.1033288634175045
1676104294.481136,425,1676104294,479811906,,4.848370165450375,6.128014683622109,-2.0918434379747395
1676104294.4902098,426,1676104294,487432241,,4.949376595313869,6.147527717036478,-2.115011843712253
1676104294.4998276,427,1676104294,497296810,,5.013989261172677,6.140222268119496,-2.1014393916023355
1676104294.518916,428,1676104294,509884595,,4.935381061496135,6.1938600118477165,-2.1104921968741115
1676104294.521422,429,1676104294,519809722,,4.98906518372289,6.2016482802009,-2.1046573947055873
1676104294.5294485,430,1676104294,525890588,,4.990888084730987,6.212184814771951,-2.1029684489490013
1676104294.5387743,431,1676104294,536294698,,5.0191592414745445,6.244322116355567,-2.109346064115634
1676104294.551398,432,1676104294,549307107,,5.037906306892838,6.279265703955151,-2.1109531363673573
1676104294.5596306,433,1676104294,557658433,,5.0246307015351945,6.251388713850203,-2.099969835354492
1676104294.5683782,434,1676104294,566795349,,5.057851461003108,6.268590468200529,-2.111798613497144
1676104294.5811958,435,1676104294,577387571,,5.050589581600549,6.287914829142497,-2.111919338643733
1676104294.591109,436,1676104294,589709043,,5.055879037961735,6.29597845171223,-2.1188707426269953
1676104294.5996149,437,1676104294,598062276,,5.058650568766562,6.295403301270757,-2.1419059736079418
1676104294.6072807,438,1676104294,605486869,,5.058650568766562,6.295403301270757,-2.1419059736079418
1676104294.6174846,439,1676104294,615572214,,5.058650568766562,6.295403301270757,-2.1419059736079418
1676104294.6375296,440,1676104294,633727312,,5.070241244047916,6.318610288923308,-2.1482762200557817
1676104294.641411,441,1676104294,640163421,,5.095523075140049,6.323019596820268,-2.158358456327548
1676104294.6507635,442,1676104294,647863149,,5.042855308381688,6.338774824435779,-2.1561229674302584
1676104294.6606977,443,1676104294,659237146,,5.071684326356075,6.350340132844699,-2.1265052155026347
1676104294.6713042,444,1676104294,667524814,,5.078061026744402,6.345483480387037,-2.123163451929993
1676104294.6824138,445,1676104294,678332090,,5.078061026744402,6.345483480387037,-2.123163451929993
1676104294.6888597,446,1676104294,687252759,,5.084261263595622,6.359635329176277,-2.131804856685867
1676104294.7012799,447,1676104294,698035955,,5.10136940935494,6.354121748889536,-2.1224492421382037
1676104294.7166078,448,1676104294,709295511,,5.136155065569628,6.413584769508569,-2.1475031713801487
1676104294.7222235,449,1676104294,718764066,,5.077428232562784,6.360198912046374,-2.1297750305020617
1676104294.730596,450,1676104294,727554082,,5.170879319591401,6.400714847289369,-2.135405200252332
1676104294.7396793,451,1676104294,738133430,,5.174606610947179,6.391949109759696,-2.1313233228354824
1676104294.750919,452,1676104294,749329090,,5.228020051980628,6.403896175954132,-2.1251964306184545
1676104294.7570024,453,1676104294,755458116,,5.228020051980628,6.403896175954132,-2.1251964306184545
1676104294.7718096,454,1676104294,768570899,,5.172623158111013,6.367252826461395,-2.1054181496148314
1676104294.787553,455,1676104294,781106948,,5.183895984994258,6.434834646151341,-2.1395929761039505
1676104294.793238,456,1676104294,788432121,,5.247816179327579,6.409268654843859,-2.1257718272799253
1676104294.8014958,457,1676104294,799108505,,5.251586086427314,6.428665063088482,-2.1252501486254434
1676104294.8160312,458,1676104294,810085773,,5.246237947654523,6.419909896667802,-2.105453533569974
1676104294.820768,459,1676104294,819237947,,5.219339568997612,6.435780029200109,-2.111943019159682
1676104294.8317866,460,1676104294,826441526,,5.235282527739677,6.440199938528802,-2.128734089307434
1676104294.8394148,461,1676104294,837367534,,5.21927879538265,6.446136343820921,-2.1659783220014
1676104294.8510003,462,1676104294,847287178,,5.175730937595368,6.4591802054874305,-2.1510912882049213
1676104294.8618686,463,1676104294,860562086,,5.238340889393392,6.447100289824543,-2.160600651583552
1676104294.871466,464,1676104294,865916728,,5.238340889393392,6.447100289824543,-2.160600651583552
1676104294.8851552,465,1676104294,880921363,,5.195417387533319,6.454741640345231,-2.188774285999204
1676104294.8901308,466,1676104294,888040542,,5.1314959965277085,6.401101099191786,-2.1397134841458167
1676104294.8999627,467,1676104294,897346973,,5.178676809604275,6.433842916774161,-2.170638528523002
1676104294.9176335,468,1676104294,912155628,,5.094230682910454,6.383202261458342,-2.1668551866395034
1676104294.9236546,469,1676104294,921166896,,5.1090034266905295,6.432721000055458,-2.1971431916343667
1676104294.9302752,470,1676104294,926880836,,5.136611152520507,6.374528701850394,-2.174073475915281
1676104294.9367633,471,1676104294,935295820,,5.104156225871767,6.361588449173761,-2.1565372948492163
1676104294.9493923,472,1676104294,947221517,,5.1410391308644945,6.400481263895184,-2.186445433799709
1676104294.9583213,473,1676104294,956655263,,5.1410391308644945,6.400481263895184,-2.186445433799709
1676104294.9746952,474,1676104294,971201181,,5.019883877836805,6.364940819988529,-2.1492532152612553
1676104294.982258,475,1676104294,977992534,,5.019883877836805,6.364940819988529,-2.1492532152612553
1676104294.9902582,476,1676104294,987670421,,5.0639414496474995,6.338925539816883,-2.1340400254248193
1676104295.0004823,477,1676104294,998879432,,4.992466916960986,6.371341994695878,-2.138199735096926
1676104295.011929,478,1676104295,9235382,,5.060055373576743,6.3591088224724635,-2.1301943170873163
1676104295.0225444,479,1676104295,19328117,,5.018325357904982,6.380056112919594,-2.1378636314829396
1676104295.0310543,480,1676104295,28172016,,5.038312858056832,6.382929037141102,-2.1247983265297745
1676104295.0385807,481,1676104295,36058902,,5.094615850983988,6.377655851545705,-2.13002306459701
1676104295.0496845,482,1676104295,47752618,,5.066242762489251,6.389581475945042,-2.1395954633841643
1676104295.056752,483,1676104295,55463790,,5.066242762489251,6.389581475945042,-2.1395954633841643
1676104295.0669525,484,1676104295,65378665,,5.066242762489251,6.389581475945042,-2.1395954633841643
1676104295.0818667,485,1676104295,77477455,,5.079887446789352,6.3803684682640505,-2.1452945237707466
1676104295.0924876,486,1676104295,90979814,,5.0739485424392505,6.382679768995004,-2.129352088028916
1676104295.0994792,487,1676104295,97447633,,5.111842681137448,6.380027304966027,-2.1392435574226543
1676104295.1190457,488,1676104295,110122442,,5.13450136387183,6.423980165650638,-2.154136861245106
1676104295.1245227,489,1676104295,122550010,,5.0993411335779735,6.3762654784073485,-2.1315512342359524
1676104295.1299644,490,1676104295,127655029,,5.088529829873573,6.380772345545344,-2.1353494696348805
1676104295.1387281,491,1676104295,135469913,,5.088529829873573,6.380772345545344,-2.1353494696348805
1676104295.150964,492,1676104295,148133516,,5.158179755648488,6.432511215190452,-2.170704330859875
1676104295.1589508,493,1676104295,156543254,,5.025649256711627,6.403374767829406,-2.14694296501802
1676104295.1741414,494,1676104295,167374610,,5.139489721857041,6.4282555076177275,-2.175117435178095
1676104295.1825905,495,1676104295,180591106,,5.058065125525797,6.386542387601778,-2.1255441323524433
1676104295.192443,496,1676104295,187711715,,5.083947079802429,6.383189843471251,-2.155742890963238
1676104295.1987104,497,1676104295,196236133,,5.106390909114668,6.396094354328959,-2.1675074065740376
1676104295.2122424,498,1676104295,207895994,,5.154343397706322,6.4335142712297,-2.19558056003239
1676104295.2197602,499,1676104295,218600034,,5.125902417491236,6.434107033668413,-2.200952586459834
1676104295.2309215,500,1676104295,228446483,,5.071119647164605,6.398932076764507,-2.164746403864296
1676104295.2406135,501,1676104295,238819122,,5.045298994305475,6.392913005213594,-2.155258059592759
1676104295.2504127,502,1676104295,248355627,,5.059493859621085,6.396194281655415,-2.166582230601194
1676104295.2602782,503,1676104295,258457899,,5.032235137009389,6.3938245548667645,-2.1525866650712615
1676104295.267113,504,1676104295,265844583,,5.049650897881311,6.394822216961373,-2.1513440758122324
1676104295.2848961,505,1676104295,280566692,,5.056963518871572,6.4102731259783345,-2.171384808129907
1676104295.2911413,506,1676104295,289243698,,5.047994899149767,6.410129994257725,-2.152906018877515
1676104295.3008623,507,1676104295,298046350,,5.060272090989991,6.400530086659202,-2.143657260852367
1676104295.3125637,508,1676104295,308644294,,5.079615431258225,6.4049635577682205,-2.1588505830230664
1676104295.3192723,509,1676104295,316638708,,5.084086226043702,6.404774098485235,-2.1546176543457345
1676104295.3320415,510,1676104295,328752040,,5.174324324070112,6.448383311856691,-2.1601753115570004
1676104295.3403804,511,1676104295,338761568,,5.148067529503334,6.455932625554085,-2.164870834519262
1676104295.3497503,512,1676104295,347563266,,5.109055607503887,6.415055861572376,-2.130408742731621
1676104295.3605983,513,1676104295,358522653,,5.190397666857757,6.457956299760263,-2.1555161428738736
1676104295.3678658,514,1676104295,366659164,,5.190397666857757,6.457956299760263,-2.1555161428738736
1676104295.3831196,515,1676104295,379923105,,5.117772889332084,6.440760174120523,-2.131532352427194
1676104295.3897967,516,1676104295,386820077,,5.153584539019629,6.438900015495473,-2.1395719050083777
1676104295.4015708,517,1676104295,399907112,,5.1699275150233355,6.464267637139435,-2.1502722208076954
1676104295.412712,518,1676104295,410090684,,5.107036533864084,6.43963445844097,-2.122527893900217
1676104295.418423,519,1676104295,417077064,,5.150903155955765,6.459479490004483,-2.1567970706532593
1676104295.4264338,520,1676104295,425287485,,5.150903155955765,6.459479490004483,-2.1567970706532593
1676104295.4421606,521,1676104295,440248727,,5.108002225190729,6.4318039817791925,-2.1489273689518225
1676104295.4527986,522,1676104295,449378013,,5.083242225208012,6.415693501663544,-2.15558611009297
1676104295.4603436,523,1676104295,458958625,,5.148207242570033,6.45030624791171,-2.187220733617192
1676104295.4672108,524,1676104295,465278863,,5.104025754645248,6.4512064410371215,-2.1827262815223167
1676104295.4850955,525,1676104295,475956201,,5.104025754645248,6.4512064410371215,-2.1827262815223167
1676104295.4928622,526,1676104295,490950107,,5.119008172538734,6.409784878068973,-2.181624279709534
1676104295.4989514,527,1676104295,497457742,,5.086229161850762,6.404307900152855,-2.160075935329086
1676104295.5157259,528,1676104295,507233381,,5.135300314212686,6.447387502856072,-2.164357073440112
1676104295.5218146,529,1676104295,517717838,,5.138392651094954,6.397765180219365,-2.1235896162974734
1676104295.5287797,530,1676104295,527357578,,5.823057259675616,5.951154463681401,-1.4552371412178604
1676104295.5397868,531,1676104295,537929534,,8.196771353933883,4.562188862825934,-1.0643573114418199
1676104295.554245,532,1676104295,549538850,,9.068723105680979,3.8494110614179675,-0.8905928711412854
1676104295.562167,533,1676104295,560119628,,13.470992455477276,-0.34888621740335585,-0.4171437927575265
1676104295.5692475,534,1676104295,567533254,,15.132945119533854,-2.640462152031663,-0.3737855305966906
1676104295.5820668,535,1676104295,579022645,,15.366081908392218,-3.8786964303922407,-0.3779946676302916
1676104295.5908463,536,1676104295,588946580,,16.95889423567521,-7.7209728709557375,-0.6521365813428572
1676104295.6006942,537,1676104295,598121404,,17.09045678425565,-8.609373897154388,-0.6579143951719241
1676104295.611832,538,1676104295,607417345,,17.260313205317583,-10.11003146347287,-0.7747294811044796
1676104295.62066,539,1676104295,617416143,,17.357703110474205,-10.737253701946095,-0.8565886234179271
1676104295.6293433,540,1676104295,628111362,,17.424197183687124,-13.916236254095331,-1.042516723899773
1676104295.6400027,541,1676104295,638030767,,17.42390982110573,-14.79384440873639,-0.9645092133672029
1676104295.6481054,542,1676104295,646916866,,17.399471846164577,-15.095275670088915,-1.0349816270870602
1676104295.659554,543,1676104295,658170700,,16.59565193617155,-16.335170005431355,-0.9920025404714665
1676104295.671759,544,1676104295,667763471,,15.992468656194974,-16.603922578873902,-1.063499778925328
1676104295.6865768,545,1676104295,680930137,,15.779406684052276,-16.909015377185632,-1.058800566393717
1676104295.6899862,546,1676104295,688144445,,14.766101736679907,-16.775805492556962,-1.026694572610432
1676104295.6994023,547,1676104295,697820186,,14.323142688208158,-16.639589951044897,-0.9092815694693765
1676104295.716453,548,1676104295,711729049,,13.112617837684729,-15.940776365813374,-0.9366638188325566
1676104295.7216198,549,1676104295,720182418,,12.294435507009812,-15.664056156287613,-0.868952154943959
1676104295.732723,550,1676104295,728794336,,11.6690447409598,-15.00603705160553,-0.8794938514231756
1676104295.7396529,551,1676104295,738270998,,9.976409747355412,-13.486511134503013,-0.7130117493671835
1676104295.7539601,552,1676104295,747465372,,9.575167946185218,-13.065345594015215,-0.6857132750035142
1676104295.7602165,553,1676104295,758557081,,8.539956622590168,-11.797484260189028,-0.6577397075073365
1676104295.7719758,554,1676104295,767042398,,8.194093487798193,-11.339430750331962,-0.6917635079023117
1676104295.7826831,555,1676104295,777477264,,6.5943798176622,-10.059549225903577,-0.5695889555024743
1676104295.7917995,556,1676104295,787656545,,5.402996139037665,-8.42467328161903,-0.612003473904465
1676104295.8000371,557,1676104295,798882246,,3.991594971675061,-6.47119967188441,-0.6619515041517131
1676104295.8092453,558,1676104295,806681871,,3.686334261598956,-6.024267661366392,-0.6607866947104903
1676104295.8224514,559,1676104295,820152997,,2.684351145579322,-4.531272049546762,-0.749918465447669
1676104295.8307679,560,1676104295,827462673,,2.1118412976623997,-3.622378497273787,-0.7533382008946923
1676104295.8383124,561,1676104295,836656808,,1.3639574333093087,-2.260878150446202,-0.8851334473377127
1676104295.85288,562,1676104295,848701238,,0.8027204053120568,-1.392049974067632,-0.9108863799820064
1676104295.8620636,563,1676104295,860701084,,-0.10272647050662873,-0.07437792076551543,-1.0024961062989663
1676104295.8689184,564,1676104295,867290019,,-0.5986079561774867,0.8317103928121781,-1.056255419971062
1676104295.880786,565,1676104295,878659248,,-0.8757013966712587,1.5709847180406138,-1.115193057477864
1676104295.8914108,566,1676104295,888850927,,-1.341117196655373,2.4008563253928097,-1.2150099251482518
1676104295.899503,567,1676104295,898077487,,-2.0589400089876544,3.778135481307649,-1.3212251415978973
1676104295.9117954,568,1676104295,907702207,,-2.0589400089876544,3.778135481307649,-1.3212251415978973
1676104295.9202662,569,1676104295,916769266,,-2.347215497413302,4.076440494571912,-1.3233491847243681
1676104295.929736,570,1676104295,928266286,,-4.415575620458851,6.634287985134735,-1.5656626824450406
1676104295.9414563,571,1676104295,939092159,,-4.971574163393386,7.894031441337153,-1.7538390916198006
1676104295.9516923,572,1676104295,947962284,,-5.2057294245094115,8.323923883143179,-1.8356069853973633
1676104295.9632246,573,1676104295,960337638,,-5.963086560010551,9.846127092275838,-2.0435013350653852
1676104295.9679677,574,1676104295,966649532,,-6.097569625225238,10.265494664460995,-2.0695685093538936
1676104295.9827456,575,1676104295,979206085,,-6.296507485880355,11.112380795743393,-2.2206335313918464
1676104295.9900985,576,1676104295,987564086,,-6.774386472386387,12.152036494690613,-2.311460560103574
1676104296.0015433,577,1676104295,998861312,,-7.317246839816123,13.019997290150867,-2.4143581844618716
1676104296.019427,578,1676104296,10642290,,-7.535678868822218,14.001806083212825,-2.529346965362122
1676104296.0225081,579,1676104296,21380901,,-7.956182579810959,15.01261572625396,-2.693439807099741
1676104296.0300539,580,1676104296,27684450,,-8.154129535239244,15.70494776793447,-2.836405614962526
1676104296.0415149,581,1676104296,36575317,,-7.957419412706442,15.935673268366477,-2.779264039434662
1676104296.0582247,582,1676104296,51659822,,-8.208710938042847,16.72302311720272,-2.7949620222169163
