Time,header.seq,header.stamp.secs,header.stamp.nsecs,header.frame_id,twist.linear.x,twist.linear.y,twist.linear.z,twist.angular.x,twist.angular.y,twist.angular.z
1676104290.2188563,1,1676104290,216780185,odom,-1.2796318531036377,-0.7522059679031372,1.1191555451989175,0.0,0.0,0.0
1676104290.2315936,2,1676104290,226092338,odom,-1.2796318531036377,-0.7522059679031372,1.1191555451989175,0.0,0.0,0.0
1676104290.2425032,3,1676104290,237917661,odom,-1.2796147465705872,-0.7521904706954956,1.1191464585632087,0.0,0.0,0.0
1676104290.2572584,4,1676104290,250060319,odom,-1.2796222567558289,-0.7521824836730957,1.1191586644917726,0.0,0.0,0.0
1676104290.261248,5,1676104290,259653568,odom,-1.2796225547790527,-0.7522152662277222,1.11915531270504,0.0,0.0,0.0
1676104290.2698774,6,1676104290,265165567,odom,-1.2796225547790527,-0.7522152662277222,1.11915531270504,0.0,0.0,0.0
1676104290.2915165,7,1676104290,288974046,odom,-1.2796459794044495,-0.7522075176239014,1.1191641668468715,0.0,0.0,0.0
1676104290.2990086,8,1676104290,292762994,odom,-1.2796260714530945,-0.7522169351577759,1.119170153564215,0.0,0.0,0.0
1676104290.3036602,9,1676104290,301811218,odom,-1.2796382904052734,-0.752213716506958,1.1191524065315723,0.0,0.0,0.0
1676104290.3163903,10,1676104290,312118530,odom,-1.2796359062194824,-0.7522088289260864,1.1191586838662624,0.0,0.0,0.0
1676104290.323045,11,1676104290,321504592,odom,-1.2796395421028137,-0.7522062063217163,1.1191596525907517,0.0,0.0,0.0
1676104290.3303201,12,1676104290,329007387,odom,-1.2796289324760437,-0.7522066831588745,1.1191539371162653,0.0,0.0,0.0
1676104290.339625,13,1676104290,335679054,odom,-1.2796297669410706,-0.7522115707397461,1.1191607569366695,0.0,0.0,0.0
1676104290.3506608,14,1676104290,348291158,odom,-1.2796245217323303,-0.7521755695343018,1.119153239634633,0.0,0.0,0.0
1676104290.3596265,15,1676104290,357325077,odom,-1.2796375751495361,-0.7522155046463013,1.1191574245244265,0.0,0.0,0.0
1676104290.3703234,16,1676104290,367539167,odom,-1.279624342918396,-0.7522143125534058,1.1191537821203472,0.0,0.0,0.0
1676104290.3809288,17,1676104290,378631353,odom,-1.2796380519866943,-0.7522131204605103,1.1191575213968754,0.0,0.0,0.0
1676104290.3903947,18,1676104290,388500928,odom,-1.2796353101730347,-0.7522151470184326,1.119161066928506,0.0,0.0,0.0
1676104290.4014137,19,1676104290,399302721,odom,-1.2796373963356018,-0.7522094249725342,1.1191567657917738,0.0,0.0,0.0
1676104290.4121199,20,1676104290,407190799,odom,-1.2796373963356018,-0.7522094249725342,1.1191567657917738,0.0,0.0,0.0
1676104290.420088,21,1676104290,416960954,odom,-1.2796344757080078,-0.7522084712982178,1.119159613841772,0.0,0.0,0.0
1676104290.4293346,22,1676104290,426107168,odom,-1.2796509861946106,-0.7522116899490356,1.119157560145855,0.0,0.0,0.0
1676104290.4476132,23,1676104290,437656164,odom,-1.2796451449394226,-0.7521954774856567,1.1191549252152442,0.0,0.0,0.0
1676104290.4525795,24,1676104290,450206518,odom,-1.2796369791030884,-0.7521878480911255,1.1191505465805531,0.0,0.0,0.0
1676104290.4601123,25,1676104290,457848072,odom,-1.2796329259872437,-0.7522040605545044,1.1191613769203426,0.0,0.0,0.0
1676104290.4693792,26,1676104290,466770887,odom,-1.2796286940574646,-0.752200722694397,1.1191650774478912,0.0,0.0,0.0
1676104290.483141,27,1676104290,479457139,odom,-1.2796213030815125,-0.752210259437561,1.1191556808203458,0.0,0.0,0.0
1676104290.4929564,28,1676104290,491217136,odom,-1.2796419858932495,-0.7522097826004028,1.1191647674560548,0.0,0.0,0.0
1676104290.4992094,29,1676104290,497366666,odom,-1.279628574848175,-0.7522073984146118,1.1191692235887052,0.0,0.0,0.0
1676104290.5112429,30,1676104290,506393194,odom,-1.2796325087547302,-0.7522155046463013,1.1191573664009573,0.0,0.0,0.0
1676104290.5246866,31,1676104290,520714998,odom,-1.2796199917793274,-0.7522048950195312,1.1191493453621866,0.0,0.0,0.0
1676104290.529855,32,1676104290,526986598,odom,-1.2796199917793274,-0.7522048950195312,1.1191493453621866,0.0,0.0,0.0
1676104290.5383904,33,1676104290,536634206,odom,-1.2796274423599243,-0.7521919012069702,1.1191616675376892,0.0,0.0,0.0
1676104290.550107,34,1676104290,548913478,odom,-1.2796287536621094,-0.7522006034851074,1.1191642637193204,0.0,0.0,0.0
1676104290.5609238,35,1676104290,559075117,odom,-1.27963787317276,-0.7522119283676147,1.1191569789111615,0.0,0.0,0.0
1676104290.5705118,36,1676104290,567410707,odom,-1.2796207666397095,-0.7521927356719971,1.1191557583183052,0.0,0.0,0.0
1676104290.5809963,37,1676104290,577291965,odom,-1.2796379923820496,-0.752204179763794,1.1191660074234009,0.0,0.0,0.0
1676104290.5884957,38,1676104290,586479663,odom,-1.2796217203140259,-0.7521928548812866,1.1191706960499286,0.0,0.0,0.0
1676104290.6007614,39,1676104290,596200227,odom,-1.2796217203140259,-0.7521928548812866,1.1191706960499286,0.0,0.0,0.0
1676104290.611037,40,1676104290,606964588,odom,-1.2796373963356018,-0.7521796226501465,1.1191575795203448,0.0,0.0,0.0
1676104290.6165156,41,1676104290,614995479,odom,-1.2796373963356018,-0.7521796226501465,1.1191575795203448,0.0,0.0,0.0
1676104290.6312733,42,1676104290,628348588,odom,-1.2796239852905273,-0.7521817684173584,1.1191513990581037,0.0,0.0,0.0
1676104290.6401892,43,1676104290,636992692,odom,-1.2796469926834106,-0.7522072792053223,1.119165464937687,0.0,0.0,0.0
1676104290.6506484,44,1676104290,648324489,odom,-1.279628574848175,-0.7522062063217163,1.1191644380897285,0.0,0.0,0.0
1676104290.658903,45,1676104290,657216787,odom,-1.27964186668396,-0.7522004842758179,1.1191675380080939,0.0,0.0,0.0
1676104290.66721,46,1676104290,665740489,odom,-1.27964186668396,-0.7522004842758179,1.1191675380080939,0.0,0.0,0.0
1676104290.681269,47,1676104290,678690195,odom,-1.2796445488929749,-0.7522109746932983,1.1191595944672825,0.0,0.0,0.0
1676104290.6909304,48,1676104290,688706636,odom,-1.2796332240104675,-0.7522108554840088,1.1191611250519753,0.0,0.0,0.0
1676104290.6986642,49,1676104290,696382045,odom,-1.2796290516853333,-0.7521928548812866,1.1191611250519753,0.0,0.0,0.0
1676104290.7062879,50,1676104290,704947948,odom,-1.279629111289978,-0.7522100210189819,1.1191575988948346,0.0,0.0,0.0
1676104290.7169747,51,1676104290,714988708,odom,-1.279629111289978,-0.7522100210189819,1.1191575988948346,0.0,0.0,0.0
1676104290.726821,52,1676104290,725207328,odom,-1.279629111289978,-0.7522100210189819,1.1191575988948346,0.0,0.0,0.0
1676104290.7511125,54,1676104290,747968196,odom,-1.2796409726142883,-0.7522298097610474,1.1191622487723827,0.0,0.0,0.0
1676104290.7659872,55,1676104290,758367776,odom,-1.279651701450348,-0.7522220611572266,1.1191654455631972,0.0,0.0,0.0
1676104290.7708433,56,1676104290,768880605,odom,-1.2796469330787659,-0.7521826028823853,1.1191643605917694,0.0,0.0,0.0
1676104290.7815878,57,1676104290,777588844,odom,-1.2796390652656555,-0.7522194385528564,1.1191562039315701,0.0,0.0,0.0
1676104290.7908072,58,1676104290,788619995,odom,-1.2796365022659302,-0.7521796226501465,1.119146613559127,0.0,0.0,0.0
1676104290.801004,59,1676104290,797826051,odom,-1.2796393632888794,-0.7522071599960327,1.1191665692836048,0.0,0.0,0.0
1676104290.8149934,60,1676104290,806622266,odom,-1.2796287536621094,-0.7522232532501221,1.119148589757085,0.0,0.0,0.0
1676104290.8205395,61,1676104290,817850589,odom,-1.2796443104743958,-0.7522050142288208,1.1191579863846302,0.0,0.0,0.0
1676104290.830041,62,1676104290,827261686,odom,-1.2796270847320557,-0.7522052526473999,1.11915800575912,0.0,0.0,0.0
1676104290.8392832,63,1676104290,836641788,odom,-1.2796462774276733,-0.7522127628326416,1.1191538789927962,0.0,0.0,0.0
1676104290.8498337,64,1676104290,848608255,odom,-1.2796379923820496,-0.7522063255310059,1.1191518446713686,0.0,0.0,0.0
1676104290.8601851,65,1676104290,858820676,odom,-1.2796258926391602,-0.752202033996582,1.1191666661560538,0.0,0.0,0.0
1676104290.8674192,66,1676104290,865899801,odom,-1.2796242237091064,-0.7521945238113403,1.119147969773412,0.0,0.0,0.0
1676104290.8810682,67,1676104290,876952171,odom,-1.2796372175216675,-0.7521967887878418,1.1191602919489145,0.0,0.0,0.0
1676104290.8891766,68,1676104290,888089179,odom,-1.2796257138252258,-0.7522003650665283,1.119163023751974,0.0,0.0,0.0
1676104290.8998551,69,1676104290,896426200,odom,-1.2796255946159363,-0.7521799802780151,1.1191539177417755,0.0,0.0,0.0
1676104290.9128575,70,1676104290,910796403,odom,-1.279634952545166,-0.7522028684616089,1.1191668792754412,0.0,0.0,0.0
1676104290.9201782,71,1676104290,916140079,odom,-1.2796277403831482,-0.7522125244140625,1.1191579863846302,0.0,0.0,0.0
1676104290.9300797,72,1676104290,927680969,odom,-1.2796268463134766,-0.7522193193435669,1.1191523096591234,0.0,0.0,0.0
1676104290.9384215,73,1676104290,935449361,odom,-1.2796348929405212,-0.7522270679473877,1.1191603694468737,0.0,0.0,0.0
1676104290.9505615,74,1676104290,948261737,odom,-1.279619812965393,-0.7522023916244507,1.1191583351254464,0.0,0.0,0.0
1676104290.9562047,75,1676104290,954856634,odom,-1.2796290516853333,-0.7522077560424805,1.1191694560825824,0.0,0.0,0.0
1676104290.970616,76,1676104290,968578815,odom,-1.279640555381775,-0.7522175312042236,1.1191582576274872,0.0,0.0,0.0
1676104290.9798322,77,1676104290,977519035,odom,-1.279624342918396,-0.7522107362747192,1.119149558481574,0.0,0.0,0.0
1676104290.989606,78,1676104290,986813068,odom,-1.2796416282653809,-0.7522068023681641,1.119161861282587,0.0,0.0,0.0
1676104291.0005412,79,1676104290,996375083,odom,-1.2796335816383362,-0.7522062063217163,1.1191633724927903,0.0,0.0,0.0
1676104291.0157292,80,1676104291,7047891,odom,-1.2796217799186707,-0.752190113067627,1.1191517865478993,0.0,0.0,0.0
1676104291.0227525,81,1676104291,19607543,odom,-1.2796269059181213,-0.7522068023681641,1.1191561845570803,0.0,0.0,0.0
1676104291.0295198,82,1676104291,25304794,odom,-1.2796269059181213,-0.7522068023681641,1.1191561845570803,0.0,0.0,0.0
1676104291.0386744,83,1676104291,37135362,odom,-1.2796295881271362,-0.7521717548370361,1.1191548864662648,0.0,0.0,0.0
1676104291.0501454,84,1676104291,47613143,odom,-1.2796295881271362,-0.7521717548370361,1.1191548864662648,0.0,0.0,0.0
1676104291.0625072,85,1676104291,58017730,odom,-1.2796393036842346,-0.7522071599960327,1.1191646318346262,0.0,0.0,0.0
1676104291.0700808,86,1676104291,67264556,odom,-1.279640555381775,-0.7522097826004028,1.1191557001948356,0.0,0.0,0.0
1676104291.080197,87,1676104291,76991319,odom,-1.2796294689178467,-0.752200722694397,1.1191645930856466,0.0,0.0,0.0
1676104291.0893908,88,1676104291,87021350,odom,-1.2796428203582764,-0.7522239685058594,1.119166336789727,0.0,0.0,0.0
1676104291.0982342,89,1676104291,96708059,odom,-1.2796457409858704,-0.7522039413452148,1.119164903077483,0.0,0.0,0.0
1676104291.110508,90,1676104291,105224132,odom,-1.279633343219757,-0.7522132396697998,1.1191584126234053,0.0,0.0,0.0
1676104291.1203437,91,1676104291,118641376,odom,-1.2796453833580017,-0.752219557762146,1.1191605050683022,0.0,0.0,0.0
1676104291.1315022,92,1676104291,128417015,odom,-1.2796365022659302,-0.7522073984146118,1.1191602919489145,0.0,0.0,0.0
1676104291.1393826,93,1676104291,136824369,odom,-1.279638648033142,-0.7522066831588745,1.1191512634366751,0.0,0.0,0.0
1676104291.1481729,94,1676104291,146545410,odom,-1.2796446681022644,-0.7522162199020386,1.119156494548917,0.0,0.0,0.0
1676104291.15925,95,1676104291,156599998,odom,-1.279644250869751,-0.7522130012512207,1.119167266765237,0.0,0.0,0.0
1676104291.1711771,96,1676104291,167238712,odom,-1.2796361446380615,-0.7522048950195312,1.1191659880489113,0.0,0.0,0.0
1676104291.182325,97,1676104291,179342985,odom,-1.2796395421028137,-0.7522053718566895,1.1191722847580912,0.0,0.0,0.0
1676104291.190787,98,1676104291,189598321,odom,-1.2796407341957092,-0.752210259437561,1.1191592263519765,0.0,0.0,0.0
1676104291.2027926,99,1676104291,196783065,odom,-1.279639184474945,-0.7522150278091431,1.1191553514540196,0.0,0.0,0.0
1676104291.2118027,100,1676104291,207313299,odom,-1.2796266674995422,-0.75218665599823,1.1191492678642274,0.0,0.0,0.0
1676104291.2224674,101,1676104291,217299222,odom,-1.2796385884284973,-0.7522033452987671,1.1191596332162619,0.0,0.0,0.0
1676104291.2293398,102,1676104291,226539850,odom,-1.2796428799629211,-0.7522082328796387,1.119153239634633,0.0,0.0,0.0
1676104291.2374063,103,1676104291,235454320,odom,-1.279628872871399,-0.7521930932998657,1.1191642830938102,0.0,0.0,0.0
1676104291.2554348,104,1676104291,249467611,odom,-1.2796273827552795,-0.7522008419036865,1.1191456835836173,0.0,0.0,0.0
1676104291.2608674,105,1676104291,257585763,odom,-1.2796308994293213,-0.7522121667861938,1.1191618225336075,0.0,0.0,0.0
1676104291.2688894,106,1676104291,267472743,odom,-1.2796100974082947,-0.7522002458572388,1.1191397356152535,0.0,0.0,0.0
1676104291.2822728,107,1676104291,277335882,odom,-1.2796418070793152,-0.7522084712982178,1.119160621315241,0.0,0.0,0.0
1676104291.2968686,108,1676104291,292800426,odom,-1.279625654220581,-0.7521849870681763,1.1191482022672892,0.0,0.0,0.0
1676104291.3006754,109,1676104291,299337625,odom,-1.2796516418457031,-0.7522131204605103,1.119162055027485,0.0,0.0,0.0
1676104291.3131425,110,1676104291,308365345,odom,-1.2796505689620972,-0.7522088289260864,1.119155215832591,0.0,0.0,0.0
1676104291.326825,111,1676104291,320466279,odom,-1.2796393632888794,-0.752189040184021,1.119162326270342,0.0,0.0,0.0
1676104291.3300471,112,1676104291,328454732,odom,-1.2796469330787659,-0.7522059679031372,1.1191611638009549,0.0,0.0,0.0
1676104291.338051,113,1676104291,336875915,odom,-1.2796393036842346,-0.7521922588348389,1.1191727303713561,0.0,0.0,0.0
1676104291.3498986,114,1676104291,348316669,odom,-1.2796301245689392,-0.7522017955780029,1.1191494034856557,0.0,0.0,0.0
1676104291.3604176,115,1676104291,358282089,odom,-1.2796425223350525,-0.7522075176239014,1.1191605631917716,0.0,0.0,0.0
1676104291.3687387,116,1676104291,365808725,odom,-1.2796245217323303,-0.7521852254867554,1.119150217214227,0.0,0.0,0.0
1676104291.3809805,117,1676104291,377859592,odom,-1.279639184474945,-0.7522093057632446,1.1191514184325932,0.0,0.0,0.0
1676104291.3926594,118,1676104291,390031337,odom,-1.27962064743042,-0.752202033996582,1.1191598657101391,0.0,0.0,0.0
1676104291.3997858,119,1676104291,398567199,odom,-1.279628574848175,-0.7522152662277222,1.1191725366264582,0.0,0.0,0.0
1676104291.4100022,120,1676104291,406584501,odom,-1.279628574848175,-0.7522152662277222,1.1191725366264582,0.0,0.0,0.0
1676104291.4204721,121,1676104291,416744470,odom,-1.2796528935432434,-0.7522035837173462,1.1191627331346274,0.0,0.0,0.0
1676104291.4291513,122,1676104291,426663637,odom,-1.2796310782432556,-0.7522068023681641,1.1191591682285071,0.0,0.0,0.0
1676104291.4381485,123,1676104291,436319351,odom,-1.2796268463134766,-0.7522152662277222,1.1191606600642205,0.0,0.0,0.0
1676104291.4525518,124,1676104291,449571132,odom,-1.2796369791030884,-0.7522091865539551,1.1191570564091204,0.0,0.0,0.0
1676104291.458816,125,1676104291,457829952,odom,-1.2796278595924377,-0.7522130012512207,1.119150275337696,0.0,0.0,0.0
1676104291.469322,126,1676104291,467512369,odom,-1.279636800289154,-0.7522002458572388,1.1191712772846223,0.0,0.0,0.0
1676104291.4814117,127,1676104291,479937553,odom,-1.279629409313202,-0.7522192001342773,1.1191559133142235,0.0,0.0,0.0
1676104291.4880867,128,1676104291,486400842,odom,-1.2796436548233032,-0.7522158622741699,1.1191555258244277,0.0,0.0,0.0
1676104291.5006442,129,1676104291,497626066,odom,-1.2796311378479004,-0.7522193193435669,1.1191512634366751,0.0,0.0,0.0
1676104291.5147996,130,1676104291,511958122,odom,-1.2796365022659302,-0.7522182464599609,1.1191491322427989,0.0,0.0,0.0
1676104291.5209754,131,1676104291,518164634,odom,-1.2796199321746826,-0.7521847486495972,1.1191524646550417,0.0,0.0,0.0
1676104291.527904,132,1676104291,526336669,odom,-1.2796319127082825,-0.7522139549255371,1.1191621325254442,0.0,0.0,0.0
1676104291.5391593,133,1676104291,537417411,odom,-1.279630959033966,-0.7522099018096924,1.1191591682285071,0.0,0.0,0.0
1676104291.551477,134,1676104291,548718929,odom,-1.2796375155448914,-0.7521845102310181,1.1191553708285094,0.0,0.0,0.0
1676104291.55761,135,1676104291,555882215,odom,-1.2796372175216675,-0.7522082328796387,1.119161415669322,0.0,0.0,0.0
1676104291.5698833,136,1676104291,568199157,odom,-1.2796318531036377,-0.7521780729293823,1.1191561845570803,0.0,0.0,0.0
1676104291.5807908,137,1676104291,577987670,odom,-1.2796373963356018,-0.7522133588790894,1.1191614544183017,0.0,0.0,0.0
1676104291.5890715,138,1676104291,587443828,odom,-1.2796404957771301,-0.752181887626648,1.119155215832591,0.0,0.0,0.0
1676104291.6014016,139,1676104291,596202135,odom,-1.2796258330345154,-0.7521959543228149,1.1191437073856594,0.0,0.0,0.0
1676104291.6174786,140,1676104291,611253023,odom,-1.2796215415000916,-0.7522045373916626,1.1191525615274907,0.0,0.0,0.0
1676104291.6258786,141,1676104291,622922658,odom,-1.2796283960342407,-0.7521947622299194,1.119155118960142,0.0,0.0,0.0
1676104291.6311536,142,1676104291,629816532,odom,-1.2796403765678406,-0.7522183656692505,1.119159904459119,0.0,0.0,0.0
1676104291.639001,143,1676104291,636880397,odom,-1.279640257358551,-0.7522175312042236,1.1191594782203436,0.0,0.0,0.0
1676104291.653321,144,1676104291,649021625,odom,-1.2796274423599243,-0.7521854639053345,1.1191581413805487,0.0,0.0,0.0
1676104291.6604552,145,1676104291,658282995,odom,-1.2796236276626587,-0.7521940469741821,1.1191555451989175,0.0,0.0,0.0
1676104291.670595,146,1676104291,665298700,odom,-1.2796487212181091,-0.7522075176239014,1.1191511084407568,0.0,0.0,0.0
1676104291.6790736,147,1676104291,675810098,odom,-1.2796369791030884,-0.7522196769714355,1.1191616094142198,0.0,0.0,0.0
1676104291.68684,148,1676104291,685612440,odom,-1.279640257358551,-0.7522082328796387,1.1191632756203413,0.0,0.0,0.0
1676104291.7017639,149,1676104291,698314905,odom,-1.2796403169631958,-0.7522269487380981,1.119149849098921,0.0,0.0,0.0
1676104291.7139082,150,1676104291,709245920,odom,-1.2796282172203064,-0.7521680593490601,1.1191596913397313,0.0,0.0,0.0
1676104291.7200208,151,1676104291,718762636,odom,-1.279643952846527,-0.7522001266479492,1.119164554336667,0.0,0.0,0.0
1676104291.726428,152,1676104291,725280523,odom,-1.2796488404273987,-0.7522181272506714,1.1191556033223866,0.0,0.0,0.0
1676104291.7486975,153,1676104291,737684726,odom,-1.2796307802200317,-0.7521988153457642,1.119146807304025,0.0,0.0,0.0
1676104291.7592607,154,1676104291,750812768,odom,-1.279634714126587,-0.7522180080413818,1.1191676930040122,0.0,0.0,0.0
1676104291.7644,155,1676104291,761641025,odom,-1.2796339988708496,-0.7522164583206177,1.1191574632734063,0.0,0.0,0.0
1676104291.7712774,156,1676104291,767994880,odom,-1.2796339988708496,-0.7522164583206177,1.1191574632734063,0.0,0.0,0.0
1676104291.783575,157,1676104291,777725934,odom,-1.279629409313202,-0.7521905899047852,1.1191496166050436,0.0,0.0,0.0
1676104291.7913623,158,1676104291,789502382,odom,-1.2796350717544556,-0.7522045373916626,1.1191606406897305,0.0,0.0,0.0
1676104291.7962122,159,1676104291,794887781,odom,-1.2796224355697632,-0.7522122859954834,1.119156940162182,0.0,0.0,0.0
1676104291.8157184,160,1676104291,812052488,odom,-1.279621958732605,-0.7521806955337524,1.1191496941030026,0.0,0.0,0.0
1676104291.8254406,161,1676104291,820709705,odom,-1.2796486020088196,-0.7522275447845459,1.1191569982856513,0.0,0.0,0.0
1676104291.8326175,162,1676104291,830213785,odom,-1.2796411514282227,-0.7522095441818237,1.1191584901213647,0.0,0.0,0.0
1676104291.8384142,163,1676104291,835781574,odom,-1.2796432375907898,-0.7522093057632446,1.1191528521448375,0.0,0.0,0.0
1676104291.8517697,164,1676104291,845852136,odom,-1.2796432375907898,-0.7522093057632446,1.1191528521448375,0.0,0.0,0.0
1676104291.865741,165,1676104291,859694242,odom,-1.2796440720558167,-0.7522172927856445,1.1191592069774867,0.0,0.0,0.0
1676104291.8740237,166,1676104291,869572401,odom,-1.2796351313591003,-0.7522050142288208,1.1191610281795263,0.0,0.0,0.0
1676104291.886744,167,1676104291,878853797,odom,-1.279634714126587,-0.7522145509719849,1.1191566689193249,0.0,0.0,0.0
1676104291.8936758,168,1676104291,891130924,odom,-1.279632329940796,-0.7522050142288208,1.1191708510458471,0.0,0.0,0.0
1676104291.9008873,169,1676104291,898613214,odom,-1.2796330451965332,-0.7521988153457642,1.1191554483264685,0.0,0.0,0.0
1676104291.9145288,170,1676104291,907788991,odom,-1.2796357870101929,-0.7522166967391968,1.119156649544835,0.0,0.0,0.0
1676104291.919418,171,1676104291,917565107,odom,-1.2796340584754944,-0.7521928548812866,1.1191572695285084,0.0,0.0,0.0
1676104291.9282978,172,1676104291,926672458,odom,-1.2796392440795898,-0.7521927356719971,1.1191557195693256,0.0,0.0,0.0
1676104291.9399266,173,1676104291,936312913,odom,-1.2796329855918884,-0.7522192001342773,1.1191510503172875,0.0,0.0,0.0
1676104291.95091,174,1676104291,949270248,odom,-1.2796328663825989,-0.7522069215774536,1.1191671892672777,0.0,0.0,0.0
1676104291.9594898,175,1676104291,956946611,odom,-1.2796471118927002,-0.7522039413452148,1.1191620162785054,0.0,0.0,0.0
1676104291.97063,176,1676104291,968418598,odom,-1.2796357870101929,-0.7522094249725342,1.119160078829527,0.0,0.0,0.0
1676104291.979652,177,1676104291,975965738,odom,-1.2796357870101929,-0.7522094249725342,1.119160078829527,0.0,0.0,0.0
1676104291.9916053,178,1676104291,987888574,odom,-1.2796369791030884,-0.752212643623352,1.1191592651009559,0.0,0.0,0.0
1676104291.9975846,179,1676104291,995876312,odom,-1.279637098312378,-0.7522139549255371,1.1191579863846302,0.0,0.0,0.0
1676104292.0105696,180,1676104292,5436420,odom,-1.279637098312378,-0.7522139549255371,1.1191579863846302,0.0,0.0,0.0
1676104292.0189304,181,1676104292,16508340,odom,-1.2796329259872437,-0.7522016763687134,1.11916159003973,0.0,0.0,0.0
1676104292.030699,182,1676104292,28151750,odom,-1.2796368598937988,-0.7521698474884033,1.1191611056774855,0.0,0.0,0.0
1676104292.0392544,183,1676104292,37513971,odom,-1.2796329259872437,-0.7522083520889282,1.1191546152234078,0.0,0.0,0.0
1676104292.0509965,184,1676104292,49178600,odom,-1.2796422839164734,-0.7522215843200684,1.1191644574642183,0.0,0.0,0.0
1676104292.0594218,185,1676104292,56885957,odom,-1.2796323895454407,-0.7522172927856445,1.1191510503172875,0.0,0.0,0.0
1676104292.068852,186,1676104292,67095041,odom,-1.279627799987793,-0.7521955966949463,1.119153336507082,0.0,0.0,0.0
1676104292.0809984,187,1676104292,78546762,odom,-1.2796319127082825,-0.7522203922271729,1.1191559133142235,0.0,0.0,0.0
1676104292.090878,188,1676104292,87786197,odom,-1.279632329940796,-0.7521861791610718,1.1191507984489204,0.0,0.0,0.0
1676104292.099524,189,1676104292,98215341,odom,-1.2796380519866943,-0.752219557762146,1.1191523484081032,0.0,0.0,0.0
1676104292.1164691,190,1676104292,109647274,odom,-1.279628038406372,-0.7521913051605225,1.1191557001948356,0.0,0.0,0.0
1676104292.1204631,191,1676104292,117534399,odom,-1.2796374559402466,-0.7522019147872925,1.1191533946305514,0.0,0.0,0.0
1676104292.1296382,192,1676104292,125887155,odom,-1.2796363830566406,-0.7522196769714355,1.1191532008856537,0.0,0.0,0.0
1676104292.1383827,193,1676104292,135338544,odom,-1.2796199321746826,-0.7521774768829346,1.119151457181573,0.0,0.0,0.0
1676104292.147643,194,1676104292,145674943,odom,-1.2796186208724976,-0.7522214651107788,1.1191539952397347,0.0,0.0,0.0
1676104292.1597197,195,1676104292,155587434,odom,-1.2796186208724976,-0.7522214651107788,1.1191539952397347,0.0,0.0,0.0
1676104292.1711235,196,1676104292,165288209,odom,-1.2796192169189453,-0.7521933317184448,1.1191510503172875,0.0,0.0,0.0
1676104292.1796522,197,1676104292,178509712,odom,-1.2796247005462646,-0.7522099018096924,1.1191637018591165,0.0,0.0,0.0
1676104292.190241,198,1676104292,185945272,odom,-1.2796319723129272,-0.7521871328353882,1.1191484347611664,0.0,0.0,0.0
1676104292.199629,199,1676104292,197366476,odom,-1.2796362042427063,-0.7522158622741699,1.1191558939397335,0.0,0.0,0.0
1676104292.2158759,200,1676104292,210191011,odom,-1.2796374559402466,-0.752221941947937,1.1191625200152397,0.0,0.0,0.0
1676104292.2224307,201,1676104292,219365119,odom,-1.2796266078948975,-0.752204179763794,1.1191636631101372,0.0,0.0,0.0
1676104292.2304385,202,1676104292,226983070,odom,-1.2796304821968079,-0.7522053718566895,1.1191601950764658,0.0,0.0,0.0
1676104292.2378466,203,1676104292,236052036,odom,-1.2796441912651062,-0.7522118091583252,1.119156940162182,0.0,0.0,0.0
1676104292.250746,204,1676104292,247856855,odom,-1.2796340584754944,-0.7522213459014893,1.119153627124429,0.0,0.0,0.0
1676104292.2600172,205,1676104292,257748842,odom,-1.279625415802002,-0.7522256374359131,1.1191522127866744,0.0,0.0,0.0
1676104292.269689,206,1676104292,266381978,odom,-1.2796403765678406,-0.7522232532501221,1.1191627912580968,0.0,0.0,0.0
1676104292.2785742,207,1676104292,275413036,odom,-1.2796135544776917,-0.7521898746490479,1.1191519415438176,0.0,0.0,0.0
1676104292.29092,208,1676104292,288703918,odom,-1.2796311974525452,-0.7521975040435791,1.1191579282611608,0.0,0.0,0.0
1676104292.2992108,209,1676104292,296302795,odom,-1.2796305418014526,-0.7522051334381104,1.1191656974315645,0.0,0.0,0.0
1676104292.3112125,210,1676104292,308571100,odom,-1.2796325087547302,-0.7522038221359253,1.1191556808203458,0.0,0.0,0.0
1676104292.3200464,211,1676104292,318655490,odom,-1.2796372771263123,-0.7522231340408325,1.11915889698565,0.0,0.0,0.0
1676104292.3300114,212,1676104292,328739166,odom,-1.2796306610107422,-0.7521952390670776,1.1191506628274916,0.0,0.0,0.0
1676104292.3378844,213,1676104292,336477041,odom,-1.2796148657798767,-0.7521915435791016,1.1191521352887155,0.0,0.0,0.0
1676104292.3509593,214,1676104292,346623420,odom,-1.2796148657798767,-0.7521915435791016,1.1191521352887155,0.0,0.0,0.0
1676104292.3593311,215,1676104292,357707977,odom,-1.2796278595924377,-0.7522138357162476,1.119163682484627,0.0,0.0,0.0
1676104292.369858,216,1676104292,367487907,odom,-1.2796506881713867,-0.7522180080413818,1.1191615512907507,0.0,0.0,0.0
1676104292.3806577,217,1676104292,378758907,odom,-1.2796343564987183,-0.7522293329238892,1.119157753890753,0.0,0.0,0.0
1676104292.390608,218,1676104292,388839006,odom,-1.2796302437782288,-0.752214789390564,1.1191590132325888,0.0,0.0,0.0
1676104292.39943,219,1676104292,397276163,odom,-1.2796356678009033,-0.7521986961364746,1.1191613575458528,0.0,0.0,0.0
1676104292.411672,220,1676104292,407783746,odom,-1.279632806777954,-0.7522197961807251,1.1191557195693256,0.0,0.0,0.0
1676104292.4191782,221,1676104292,416711330,odom,-1.2796328663825989,-0.7521883249282837,1.1191559133142235,0.0,0.0,0.0
1676104292.4297745,222,1676104292,427501201,odom,-1.279628038406372,-0.752212643623352,1.119156029561162,0.0,0.0,0.0
1676104292.4397142,223,1676104292,436203718,odom,-1.2796283960342407,-0.7521976232528687,1.1191415180683137,0.0,0.0,0.0
1676104292.4493995,224,1676104292,447987318,odom,-1.2796420454978943,-0.7522314786911011,1.119147950398922,0.0,0.0,0.0
1676104292.4593437,225,1676104292,456933021,odom,-1.2796308398246765,-0.7521930932998657,1.1191596719652415,0.0,0.0,0.0
1676104292.4689817,226,1676104292,467042446,odom,-1.2796371579170227,-0.7522152662277222,1.1191545377254486,0.0,0.0,0.0
1676104292.4803982,227,1676104292,478098869,odom,-1.2796297669410706,-0.752219557762146,1.1191573082774877,0.0,0.0,0.0
1676104292.4893153,228,1676104292,487646579,odom,-1.2796385288238525,-0.7522069215774536,1.119162946254015,0.0,0.0,0.0
1676104292.4987843,229,1676104292,495366334,odom,-1.2796385288238525,-0.7522069215774536,1.119162946254015,0.0,0.0,0.0
1676104292.517485,230,1676104292,512226104,odom,-1.279633343219757,-0.7522182464599609,1.1191582382529974,0.0,0.0,0.0
1676104292.5242462,231,1676104292,520746946,odom,-1.2796317338943481,-0.7521985769271851,1.119141653689742,0.0,0.0,0.0
1676104292.5307486,232,1676104292,529283523,odom,-1.2796233296394348,-0.7521753311157227,1.1191534721285104,0.0,0.0,0.0
1676104292.539485,233,1676104292,536350011,odom,-1.2796458005905151,-0.7522076368331909,1.1191642830938102,0.0,0.0,0.0
1676104292.5520785,234,1676104292,549934864,odom,-1.2796438932418823,-0.752205491065979,1.1191643412172796,0.0,0.0,0.0
1676104292.5594912,235,1676104292,556592702,odom,-1.2796369791030884,-0.7522059679031372,1.1191485316336154,0.0,0.0,0.0
1676104292.5676792,236,1676104292,566342830,odom,-1.2796325087547302,-0.7522133588790894,1.1191575795203448,0.0,0.0,0.0
1676104292.5809147,237,1676104292,578103303,odom,-1.2796412706375122,-0.7522132396697998,1.1191679836213588,0.0,0.0,0.0
1676104292.5866923,238,1676104292,585416078,odom,-1.2796280980110168,-0.7522165775299072,1.1191507984489204,0.0,0.0,0.0
1676104292.6001627,239,1676104292,596674442,odom,-1.279629647731781,-0.7522149085998535,1.1191616481631994,0.0,0.0,0.0
1676104292.6096692,240,1676104292,605397701,odom,-1.2796397805213928,-0.7522119283676147,1.1191565139234068,0.0,0.0,0.0
1676104292.620291,241,1676104292,617594003,odom,-1.279641032218933,-0.7522152662277222,1.119156397676468,0.0,0.0,0.0
1676104292.6287842,242,1676104292,626556873,odom,-1.2796295285224915,-0.7522153854370117,1.1191507403254508,0.0,0.0,0.0
1676104292.6402884,243,1676104292,637288808,odom,-1.2796432375907898,-0.7522083520889282,1.1191620162785054,0.0,0.0,0.0
1676104292.6497562,244,1676104292,646432876,odom,-1.279608964920044,-0.7521946430206299,1.1191551964581012,0.0,0.0,0.0
1676104292.659057,245,1676104292,656994104,odom,-1.279635488986969,-0.7521992921829224,1.1191570370346309,0.0,0.0,0.0
1676104292.6684978,246,1676104292,666604995,odom,-1.2796242237091064,-0.7522108554840088,1.1191660655468703,0.0,0.0,0.0
1676104292.680433,247,1676104292,677712202,odom,-1.2796221375465393,-0.7522138357162476,1.119157560145855,0.0,0.0,0.0
1676104292.689314,248,1676104292,687263727,odom,-1.2796362042427063,-0.7522112131118774,1.1191571920305492,0.0,0.0,0.0
1676104292.6968422,249,1676104292,695109605,odom,-1.2796362042427063,-0.7522112131118774,1.1191571920305492,0.0,0.0,0.0
1676104292.710289,250,1676104292,705840826,odom,-1.2796220779418945,-0.7521952390670776,1.119156475174427,0.0,0.0,0.0
1676104292.720387,251,1676104292,718341112,odom,-1.279632568359375,-0.7522042989730835,1.119156940162182,0.0,0.0,0.0
1676104292.7261138,252,1676104292,724882125,odom,-1.2796345353126526,-0.7521923780441284,1.1191529877662658,0.0,0.0,0.0
1676104292.7365887,253,1676104292,734945535,odom,-1.2796345353126526,-0.7521923780441284,1.1191529877662658,0.0,0.0,0.0
1676104292.748515,254,1676104292,745588302,odom,-1.2796345353126526,-0.7521923780441284,1.1191529877662658,0.0,0.0,0.0
1676104292.76799,255,1676104292,762832403,odom,-1.2796262502670288,-0.752197265625,1.1191536464989185,0.0,0.0,0.0
1676104292.7716408,256,1676104292,770365715,odom,-1.2796537280082703,-0.7522176504135132,1.1191619194060565,0.0,0.0,0.0
1676104292.7783778,257,1676104292,776240348,odom,-1.2796396017074585,-0.7522095441818237,1.1191669180244208,0.0,0.0,0.0
1676104292.7902825,258,1676104292,787675619,odom,-1.2796382904052734,-0.7522177696228027,1.1191608925580978,0.0,0.0,0.0
1676104292.8008366,259,1676104292,797482013,odom,-1.279634416103363,-0.752200722694397,1.119156940162182,0.0,0.0,0.0
1676104292.8137436,260,1676104292,811044692,odom,-1.2796276211738586,-0.7522000074386597,1.1191577345162629,0.0,0.0,0.0
1676104292.8187003,261,1676104292,815948963,odom,-1.2796401977539062,-0.7522232532501221,1.119170405432582,0.0,0.0,0.0
1676104292.8276072,262,1676104292,826138257,odom,-1.2796374559402466,-0.7521923780441284,1.1191734859764577,0.0,0.0,0.0
1676104292.838431,263,1676104292,836888074,odom,-1.2796316742897034,-0.7521826028823853,1.1191622100234033,0.0,0.0,0.0
1676104292.8537328,264,1676104292,848273515,odom,-1.2796467542648315,-0.7522040605545044,1.1191644574642183,0.0,0.0,0.0
1676104292.8620515,265,1676104292,856938123,odom,-1.2796300053596497,-0.752185583114624,1.119152716523409,0.0,0.0,0.0
1676104292.8712487,266,1676104292,867663145,odom,-1.279642403125763,-0.7522114515304565,1.11916519369483,0.0,0.0,0.0
1676104292.8827145,267,1676104292,878971815,odom,-1.2796505689620972,-0.7522023916244507,1.119161338171363,0.0,0.0,0.0
1676104292.889601,268,1676104292,887804985,odom,-1.2796420454978943,-0.7522238492965698,1.1191600207060577,0.0,0.0,0.0
1676104292.8982053,269,1676104292,896647691,odom,-1.2796366810798645,-0.7522196769714355,1.1191557389438154,0.0,0.0,0.0
1676104292.9150517,270,1676104292,910785675,odom,-1.2796366810798645,-0.7522162199020386,1.1191668405264616,0.0,0.0,0.0
1676104292.9234068,271,1676104292,918772459,odom,-1.2796599864959717,-0.752192497253418,1.1191670536458493,0.0,0.0,0.0
1676104292.9323926,272,1676104292,930803298,odom,-1.2796345353126526,-0.7522215843200684,1.1191505272060633,0.0,0.0,0.0
1676104292.9395828,273,1676104292,937392473,odom,-1.2796427607536316,-0.752217173576355,1.119157812014222,0.0,0.0,0.0
1676104292.9501083,274,1676104292,947101116,odom,-1.279634714126587,-0.7521829605102539,1.1191463229417802,0.0,0.0,0.0
1676104292.9564335,275,1676104292,955007553,odom,-1.2796397805213928,-0.7521941661834717,1.1191662399172784,0.0,0.0,0.0
1676104292.9669507,276,1676104292,965119838,odom,-1.2796397805213928,-0.7521941661834717,1.1191662399172784,0.0,0.0,0.0
1676104292.9773817,277,1676104292,975693225,odom,-1.2796397805213928,-0.7521941661834717,1.1191662399172784,0.0,0.0,0.0
1676104292.9914265,278,1676104292,987262248,odom,-1.2796397805213928,-0.7521941661834717,1.1191662399172784,0.0,0.0,0.0
1676104292.997878,279,1676104292,995064020,odom,-1.2796291708946228,-0.7522016763687134,1.1191660461723805,0.0,0.0,0.0
1676104293.0073657,280,1676104293,5770921,odom,-1.2796416878700256,-0.752216100692749,1.1191645930856466,0.0,0.0,0.0
1676104293.0187328,281,1676104293,15128374,odom,-1.2796416878700256,-0.752216100692749,1.1191645930856466,0.0,0.0,0.0
1676104293.030399,282,1676104293,27092456,odom,-1.2796401381492615,-0.7522011995315552,1.119155855190754,0.0,0.0,0.0
1676104293.0402083,283,1676104293,38635730,odom,-1.2796287536621094,-0.7521979808807373,1.1191451992213726,0.0,0.0,0.0
1676104293.0541706,284,1676104293,49998044,odom,-1.2796359658241272,-0.7522035837173462,1.119161686912179,0.0,0.0,0.0
1676104293.058253,285,1676104293,56178331,odom,-1.279620110988617,-0.7521953582763672,1.1191432423979044,0.0,0.0,0.0
1676104293.0763817,286,1676104293,69732427,odom,-1.2796247601509094,-0.7521686553955078,1.1191519609183074,0.0,0.0,0.0
1676104293.0872512,287,1676104293,79762458,odom,-1.2796398401260376,-0.7522101402282715,1.1191649805754422,0.0,0.0,0.0
1676104293.0911334,288,1676104293,88243246,odom,-1.279636800289154,-0.752205491065979,1.1191588582366705,0.0,0.0,0.0
1676104293.098334,289,1676104293,96346139,odom,-1.2796188592910767,-0.7521973848342896,1.1191556808203458,0.0,0.0,0.0
1676104293.1106825,290,1676104293,107598781,odom,-1.2796530723571777,-0.7522073984146118,1.1191605438172816,0.0,0.0,0.0
1676104293.1197374,291,1676104293,116846561,odom,-1.279647409915924,-0.7522075176239014,1.1191705216795205,0.0,0.0,0.0
1676104293.1295018,292,1676104293,126595258,odom,-1.2796279191970825,-0.7522088289260864,1.1191665111601352,0.0,0.0,0.0
1676104293.139695,293,1676104293,136306285,odom,-1.2796362042427063,-0.7522070407867432,1.1191584319978953,0.0,0.0,0.0
1676104293.1509533,294,1676104293,147062301,odom,-1.2796394228935242,-0.7522107362747192,1.119174629071355,0.0,0.0,0.0
1676104293.157204,295,1676104293,155405521,odom,-1.279642403125763,-0.752213716506958,1.119162597513199,0.0,0.0,0.0
1676104293.1712012,296,1676104293,168417453,odom,-1.2796400785446167,-0.7522335052490234,1.1191538014948368,0.0,0.0,0.0
1676104293.1805549,297,1676104293,178462505,odom,-1.279629111289978,-0.7521853446960449,1.1191609506815674,0.0,0.0,0.0
1676104293.1908877,298,1676104293,188751935,odom,-1.279630184173584,-0.7522270679473877,1.1191459160774946,0.0,0.0,0.0
1676104293.1992242,299,1676104293,197536706,odom,-1.2796273231506348,-0.752216100692749,1.119160427570343,0.0,0.0,0.0
1676104293.2096334,300,1676104293,207465887,odom,-1.2796345353126526,-0.7522152662277222,1.1191632756203413,0.0,0.0,0.0
1676104293.2172515,301,1676104293,215049982,odom,-1.2796345353126526,-0.7522152662277222,1.1191632756203413,0.0,0.0,0.0
1676104293.2278576,302,1676104293,225558996,odom,-1.279637634754181,-0.7522186040878296,1.1191534140050412,0.0,0.0,0.0
1676104293.2384403,303,1676104293,236812591,odom,-1.2796466946601868,-0.7522109746932983,1.1191573857754469,0.0,0.0,0.0
1676104293.2515225,304,1676104293,249127626,odom,-1.2796346545219421,-0.7522104978561401,1.11915980758667,0.0,0.0,0.0
1676104293.2599194,305,1676104293,256567001,odom,-1.2796315550804138,-0.7522188425064087,1.1191528327703477,0.0,0.0,0.0
1676104293.268793,306,1676104293,266010522,odom,-1.2796335220336914,-0.7522165775299072,1.1191693979591133,0.0,0.0,0.0
1676104293.2838368,307,1676104293,281976938,odom,-1.279646396636963,-0.7522101402282715,1.1191610281795263,0.0,0.0,0.0
1676104293.2928574,308,1676104293,290406703,odom,-1.2796323895454407,-0.7522227764129639,1.1191507015764715,0.0,0.0,0.0
1676104293.2996168,309,1676104293,296009302,odom,-1.2796388864517212,-0.7522120475769043,1.1191637987315655,0.0,0.0,0.0
1676104293.3102977,310,1676104293,306915044,odom,-1.2796334028244019,-0.7521835565567017,1.119163759982586,0.0,0.0,0.0
1676104293.3177543,311,1676104293,315845012,odom,-1.279628574848175,-0.7522175312042236,1.119164651209116,0.0,0.0,0.0
1676104293.3290744,312,1676104293,327534198,odom,-1.27963525056839,-0.7521806955337524,1.119156300804019,0.0,0.0,0.0
1676104293.341522,313,1676104293,337317466,odom,-1.2796323895454407,-0.7522143125534058,1.1191649612009527,0.0,0.0,0.0
1676104293.351198,314,1676104293,348746776,odom,-1.2796372771263123,-0.7522143125534058,1.119165019324422,0.0,0.0,0.0
1676104293.3590524,315,1676104293,356130599,odom,-1.2796254754066467,-0.7522211074829102,1.1191594782203436,0.0,0.0,0.0
1676104293.366762,316,1676104293,364984989,odom,-1.2796266674995422,-0.7522058486938477,1.1191518446713686,0.0,0.0,0.0
1676104293.3814082,317,1676104293,377927780,odom,-1.279631495475769,-0.7522140741348267,1.1191472722917795,0.0,0.0,0.0
1676104293.3918793,318,1676104293,389789581,odom,-1.2796378135681152,-0.7522063255310059,1.1191578895121814,0.0,0.0,0.0
1676104293.3996363,319,1676104293,397856473,odom,-1.2796358466148376,-0.7522134780883789,1.1191584319978953,0.0,0.0,0.0
1676104293.4072807,320,1676104293,405626296,odom,-1.2796358466148376,-0.7522134780883789,1.1191584319978953,0.0,0.0,0.0
1676104293.4173732,321,1676104293,415541172,odom,-1.2796358466148376,-0.7522134780883789,1.1191584319978953,0.0,0.0,0.0
1676104293.4299183,322,1676104293,426185131,odom,-1.2796351909637451,-0.7522115707397461,1.1191577732652427,0.0,0.0,0.0
1676104293.4415023,323,1676104293,437675237,odom,-1.2796491384506226,-0.7522212266921997,1.1191595750927925,0.0,0.0,0.0
1676104293.454166,324,1676104293,450777053,odom,-1.2796356678009033,-0.7522110939025879,1.1191616094142198,0.0,0.0,0.0
1676104293.4586713,325,1676104293,456317186,odom,-1.2796254754066467,-0.752189040184021,1.119156281429529,0.0,0.0,0.0
1676104293.4707694,326,1676104293,467953443,odom,-1.279649555683136,-0.7522058486938477,1.1191598463356496,0.0,0.0,0.0
1676104293.4767609,327,1676104293,474868297,odom,-1.2796282172203064,-0.7522083520889282,1.1191639149785042,0.0,0.0,0.0
1676104293.4895844,328,1676104293,487151145,odom,-1.2796066403388977,-0.7522033452987671,1.1191477372795344,0.0,0.0,0.0
1676104293.4983604,329,1676104293,495584249,odom,-1.2796223759651184,-0.752194881439209,1.119149461609125,0.0,0.0,0.0
1676104293.5132248,330,1676104293,508462905,odom,-1.2796393036842346,-0.7522052526473999,1.1191549058407546,0.0,0.0,0.0
1676104293.5211446,331,1676104293,519546270,odom,-1.2796481251716614,-0.7522128820419312,1.1191628687560558,0.0,0.0,0.0
1676104293.5306273,332,1676104293,526394844,odom,-1.2796332836151123,-0.7521796226501465,1.1191427967846395,0.0,0.0,0.0
1676104293.5392404,333,1676104293,536381959,odom,-1.2796451449394226,-0.7522057294845581,1.1191649418264629,0.0,0.0,0.0
1676104293.5514884,334,1676104293,548768281,odom,-1.2796321511268616,-0.7522094249725342,1.1191440173774958,0.0,0.0,0.0
1676104293.5575004,335,1676104293,556021451,odom,-1.2796383500099182,-0.7522090673446655,1.1191582576274872,0.0,0.0,0.0
1676104293.5710576,336,1676104293,567956209,odom,-1.2796240448951721,-0.7522146701812744,1.119150023469329,0.0,0.0,0.0
1676104293.5812278,337,1676104293,578810453,odom,-1.279629647731781,-0.7521915435791016,1.119160175701976,0.0,0.0,0.0
1676104293.5886748,338,1676104293,587355852,odom,-1.2796387672424316,-0.7522050142288208,1.1191632949948311,0.0,0.0,0.0
1676104293.5987291,339,1676104293,596699953,odom,-1.279625654220581,-0.7522017955780029,1.119160350072384,0.0,0.0,0.0
1676104293.6158497,340,1676104293,609143972,odom,-1.2796313762664795,-0.7522114515304565,1.1191672473907472,0.0,0.0,0.0
1676104293.6215591,341,1676104293,618131875,odom,-1.279631793498993,-0.752204418182373,1.1191617062866688,0.0,0.0,0.0
1676104293.6286824,342,1676104293,626871824,odom,-1.2796268463134766,-0.7521911859512329,1.1191434167683125,0.0,0.0,0.0
1676104293.6398892,343,1676104293,637099027,odom,-1.2796397805213928,-0.7522133588790894,1.1191574245244265,0.0,0.0,0.0
1676104293.6511602,344,1676104293,646439313,odom,-1.2796382308006287,-0.7522135972976685,1.119165561810136,0.0,0.0,0.0
1676104293.6600592,345,1676104293,657439947,odom,-1.2796326875686646,-0.7521944046020508,1.1191571726560594,0.0,0.0,0.0
1676104293.670086,346,1676104293,667936801,odom,-1.2796277403831482,-0.7522082328796387,1.119168681102991,0.0,0.0,0.0
1676104293.684684,347,1676104293,678986310,odom,-1.2796322107315063,-0.7522108554840088,1.1191556614458562,0.0,0.0,0.0
1676104293.6914341,348,1676104293,689568042,odom,-1.2796208262443542,-0.752183198928833,1.1191452960938215,0.0,0.0,0.0
1676104293.7007947,349,1676104293,697718858,odom,-1.2796483635902405,-0.7522004842758179,1.1191691848397256,0.0,0.0,0.0
1676104293.7120016,350,1676104293,710727453,odom,-1.2796423435211182,-0.7522085905075073,1.1191628881305458,0.0,0.0,0.0
1676104293.718323,351,1676104293,717004537,odom,-1.279619038105011,-0.7521989345550537,1.1191425255417824,0.0,0.0,0.0
1676104293.7302692,352,1676104293,728494405,odom,-1.2796350717544556,-0.7521919012069702,1.119155487075448,0.0,0.0,0.0
1676104293.7386491,353,1676104293,736914396,odom,-1.2796366214752197,-0.7522019147872925,1.119166801777482,0.0,0.0,0.0
1676104293.7512627,354,1676104293,749242305,odom,-1.2796360850334167,-0.7522170543670654,1.1191713160336019,0.0,0.0,0.0
1676104293.7603445,355,1676104293,758134603,odom,-1.2796364426612854,-0.7522081136703491,1.1191597882121802,0.0,0.0,0.0
1676104293.770689,356,1676104293,767433166,odom,-1.279630184173584,-0.7522237300872803,1.1191656005591155,0.0,0.0,0.0
1676104293.7846563,357,1676104293,779462814,odom,-1.2796201705932617,-0.7522211074829102,1.1191432230234148,0.0,0.0,0.0
1676104293.7875488,358,1676104293,786378145,odom,-1.2796351909637451,-0.7522011995315552,1.1191642830938102,0.0,0.0,0.0
1676104293.7971833,359,1676104293,794981002,odom,-1.2796351909637451,-0.7522011995315552,1.1191642830938102,0.0,0.0,0.0
1676104293.8190145,360,1676104293,815274477,odom,-1.2796406745910645,-0.7522034645080566,1.1191657555550336,0.0,0.0,0.0
1676104293.8224022,361,1676104293,820577621,odom,-1.2796326279640198,-0.7522201538085938,1.1191656780570745,0.0,0.0,0.0
1676104293.8285544,362,1676104293,825872659,odom,-1.2796326279640198,-0.7522201538085938,1.1191656780570745,0.0,0.0,0.0
1676104293.8395026,363,1676104293,837001562,odom,-1.279577374458313,-0.7522101402282715,1.1191623650193214,0.0,0.0,0.0
1676104293.8463304,364,1676104293,844957351,odom,-1.279577374458313,-0.7522101402282715,1.1191623650193214,0.0,0.0,0.0
1676104293.856306,365,1676104293,854998350,odom,-1.279577374458313,-0.7522101402282715,1.1191623650193214,0.0,0.0,0.0
1676104293.8662348,366,1676104293,864924669,odom,-1.279577374458313,-0.7522101402282715,1.1191623650193214,0.0,0.0,0.0
1676104293.8775232,367,1676104293,876016855,odom,-1.279577374458313,-0.7522101402282715,1.1191623650193214,0.0,0.0,0.0
1676104293.8868005,368,1676104293,885085344,odom,-1.279577374458313,-0.7522101402282715,1.1191623650193214,0.0,0.0,0.0
1676104293.8966913,369,1676104293,895105838,odom,-1.279577374458313,-0.7522101402282715,1.1191623650193214,0.0,0.0,0.0
1676104293.9073522,370,1676104293,905575752,odom,-1.279577374458313,-0.7522101402282715,1.1191623650193214,0.0,0.0,0.0
1676104293.9171383,371,1676104293,915244102,odom,-1.279577374458313,-0.7522101402282715,1.1191623650193214,0.0,0.0,0.0
1676104293.9261322,372,1676104293,924832820,odom,-1.279577374458313,-0.7522101402282715,1.1191623650193214,0.0,0.0,0.0
1676104293.9364412,373,1676104293,935144186,odom,-1.279577374458313,-0.7522101402282715,1.1191623650193214,0.0,0.0,0.0
1676104293.947988,374,1676104293,945605278,odom,-1.279577374458313,-0.7522101402282715,1.1191623650193214,0.0,0.0,0.0
1676104293.9565368,375,1676104293,955126047,odom,-1.279577374458313,-0.7522101402282715,1.1191623650193214,0.0,0.0,0.0
1676104293.966382,376,1676104293,964996337,odom,-1.279577374458313,-0.7522101402282715,1.1191623650193214,0.0,0.0,0.0
1676104293.9904647,377,1676104293,975552320,odom,-1.2795804738998413,-0.7522363662719727,1.119160524442792,0.0,0.0,0.0
1676104293.9905608,378,1676104293,988811016,odom,-1.2822501063346863,-0.7494643926620483,1.1185819440543654,0.0,0.0,0.0
1676104293.9983234,379,1676104293,996171951,odom,-1.2829512357711792,-0.7491867542266846,1.1185298460513353,0.0,0.0,0.0
1676104294.008927,380,1676104294,6669044,odom,-1.2841941118240356,-0.7485406398773193,1.1183246702045204,0.0,0.0,0.0
1676104294.020118,381,1676104294,18644809,odom,-1.2874241471290588,-0.7474377155303955,1.1180673769801857,0.0,0.0,0.0
1676104294.0261297,382,1676104294,24817943,odom,-1.2874241471290588,-0.7474377155303955,1.1180673769801857,0.0,0.0,0.0
1676104294.0409544,383,1676104294,38948774,odom,-1.2901310324668884,-0.7466307878494263,1.1179308836996555,0.0,0.0,0.0
1676104294.049523,384,1676104294,45564413,odom,-1.2901310324668884,-0.7466307878494263,1.1179308836996555,0.0,0.0,0.0
1676104294.0608976,385,1676104294,59214830,odom,-1.2955396175384521,-0.7449922561645508,1.1174642684876919,0.0,0.0,0.0
1676104294.0678642,386,1676104294,66606044,odom,-1.2971981167793274,-0.7444723844528198,1.1173734408795832,0.0,0.0,0.0
1676104294.081952,387,1676104294,78903913,odom,-1.2979500889778137,-0.7441222667694092,1.1173005346745253,0.0,0.0,0.0
1676104294.0916917,388,1676104294,88471651,odom,-1.300464928150177,-0.7435635328292847,1.117237335088849,0.0,0.0,0.0
1676104294.0998325,389,1676104294,97633838,odom,-1.3024360537528992,-0.7427325248718262,1.117193509992957,0.0,0.0,0.0
1676104294.1070886,390,1676104294,105668306,odom,-1.3032942414283752,-0.7418152093887329,1.1172335183143616,0.0,0.0,0.0
1676104294.1179938,391,1676104294,116006612,odom,-1.303805947303772,-0.741553783416748,1.1171808390766382,0.0,0.0,0.0
1676104294.1321795,392,1676104294,126855373,odom,-1.304423451423645,-0.7413389682769775,1.1171759567052126,0.0,0.0,0.0
1676104294.138909,393,1676104294,136939764,odom,-1.3066337704658508,-0.7399356365203857,1.116901342687011,0.0,0.0,0.0
1676104294.1502097,394,1676104294,146788120,odom,-1.3071186542510986,-0.740070104598999,1.1167328040003777,0.0,0.0,0.0
1676104294.1608331,395,1676104294,159612894,odom,-1.3079043626785278,-0.7393020391464233,1.1166049904912712,0.0,0.0,0.0
1676104294.1706185,396,1676104294,165165901,odom,-1.3079043626785278,-0.7393020391464233,1.1166049904912712,0.0,0.0,0.0
1676104294.1798358,397,1676104294,178262472,odom,-1.3083460927009583,-0.7386264801025391,1.1165785443127156,0.0,0.0,0.0
1676104294.187612,398,1676104294,186316967,odom,-1.3084800243377686,-0.7382478713989258,1.1165399115800858,0.0,0.0,0.0
1676104294.1994963,399,1676104294,197265148,odom,-1.3085359930992126,-0.7380721569061279,1.116549870067835,0.0,0.0,0.0
1676104294.2104082,400,1676104294,205876827,odom,-1.3084960579872131,-0.7377735376358032,1.1165208858311177,0.0,0.0,0.0
1676104294.2186327,401,1676104294,215751409,odom,-1.3084734082221985,-0.7376707792282104,1.1165072268158198,0.0,0.0,0.0
1676104294.232483,402,1676104294,227910757,odom,-1.308408498764038,-0.7374527454376221,1.1164807418882847,0.0,0.0,0.0
1676104294.239161,403,1676104294,236261129,odom,-1.3083206415176392,-0.7373456954956055,1.116468787828088,0.0,0.0,0.0
1676104294.2514014,404,1676104294,246929407,odom,-1.3082707524299622,-0.7371952533721924,1.1164667147576808,0.0,0.0,0.0
1676104294.2600183,405,1676104294,257526874,odom,-1.3082606196403503,-0.7371618747711182,1.1164649710536003,0.0,0.0,0.0
1676104294.2683167,406,1676104294,265484571,odom,-1.3082790970802307,-0.7371436357498169,1.1164533851087095,0.0,0.0,0.0
1676104294.2817333,407,1676104294,278878927,odom,-1.308405876159668,-0.7370424270629883,1.116460592418909,0.0,0.0,0.0
1676104294.286151,408,1676104294,284912347,odom,-1.3084487318992615,-0.7370128631591797,1.1164546057015656,0.0,0.0,0.0
1676104294.2959845,409,1676104294,294901132,odom,-1.3084487318992615,-0.7370128631591797,1.1164546057015656,0.0,0.0,0.0
1676104294.321222,410,1676104294,318546295,odom,-1.3089561462402344,-0.7366882562637329,1.1164020039618014,0.0,0.0,0.0
1676104294.3257794,411,1676104294,322692632,odom,-1.3092705607414246,-0.7365530729293823,1.1163662967771293,0.0,0.0,0.0
1676104294.3305194,412,1676104294,328005313,odom,-1.3093934059143066,-0.7365138530731201,1.1163555245608092,0.0,0.0,0.0
1676104294.33947,413,1676104294,336668491,odom,-1.309531807899475,-0.7364253997802734,1.1163553114414215,0.0,0.0,0.0
1676104294.3514411,414,1676104294,345494985,odom,-1.3098514676094055,-0.7362575531005859,1.1163335926383733,0.0,0.0,0.0
1676104294.3599982,415,1676104294,358216762,odom,-1.3102951645851135,-0.7360450029373169,1.1163099557608367,0.0,0.0,0.0
1676104294.3705611,416,1676104294,368115425,odom,-1.3105373978614807,-0.7359175682067871,1.1162830252200364,0.0,0.0,0.0
1676104294.3784807,417,1676104294,375479698,odom,-1.3107038736343384,-0.7357542514801025,1.1162300747394562,0.0,0.0,0.0
1676104294.3917723,418,1676104294,387353181,odom,-1.310913860797882,-0.7356613874435425,1.1162580708771945,0.0,0.0,0.0
1676104294.399494,419,1676104294,397371053,odom,-1.3111523389816284,-0.7354739904403687,1.1161848740547895,0.0,0.0,0.0
1676104294.4107368,420,1676104294,407955884,odom,-1.311253845691681,-0.735405683517456,1.116181696638465,0.0,0.0,0.0
1676104294.4188347,421,1676104294,415033578,odom,-1.3113892674446106,-0.7352545261383057,1.1161628065109253,0.0,0.0,0.0
1676104294.4261816,422,1676104294,424885749,odom,-1.3116727471351624,-0.7352263927459717,1.1162025823384525,0.0,0.0,0.0
1676104294.4363792,423,1676104294,435097455,odom,-1.3116727471351624,-0.7352263927459717,1.1162025823384525,0.0,0.0,0.0
1676104294.4470806,424,1676104294,445247173,odom,-1.3116727471351624,-0.7352263927459717,1.1162025823384525,0.0,0.0,0.0
1676104294.4628534,425,1676104294,460464239,odom,-1.3119927644729614,-0.7348979711532593,1.1161338028997183,0.0,0.0,0.0
1676104294.4719403,426,1676104294,468915224,odom,-1.3123403191566467,-0.734599232673645,1.116119117036462,0.0,0.0,0.0
1676104294.4806135,427,1676104294,479278802,odom,-1.3125170469284058,-0.7344847917556763,1.116123708790541,0.0,0.0,0.0
1676104294.4894228,428,1676104294,487021207,odom,-1.3126044273376465,-0.7343572378158569,1.116092709606886,0.0,0.0,0.0
1676104294.4989254,429,1676104294,496392965,odom,-1.3126530647277832,-0.7343789339065552,1.1161081704497338,0.0,0.0,0.0
1676104294.5130246,430,1676104294,507511854,odom,-1.3126675486564636,-0.7342914342880249,1.116047063308954,0.0,0.0,0.0
1676104294.5206382,431,1676104294,519418716,odom,-1.3128162026405334,-0.7341560125350952,1.116057041171193,0.0,0.0,0.0
1676104294.5280259,432,1676104294,524960517,odom,-1.3128162026405334,-0.7341560125350952,1.116057041171193,0.0,0.0,0.0
1676104294.53805,433,1676104294,535258769,odom,-1.3129730820655823,-0.7340066432952881,1.1160605479538441,0.0,0.0,0.0
1676104294.550993,434,1676104294,548754930,odom,-1.313041865825653,-0.7339340448379517,1.1160497176140547,0.0,0.0,0.0
1676104294.5588834,435,1676104294,556020259,odom,-1.313041865825653,-0.7339340448379517,1.1160497176140547,0.0,0.0,0.0
1676104294.5693443,436,1676104294,565213441,odom,-1.3131211996078491,-0.7338730096817017,1.1160546581089497,0.0,0.0,0.0
1676104294.5801852,437,1676104294,575756311,odom,-1.3131539225578308,-0.7338840961456299,1.116045203357935,0.0,0.0,0.0
1676104294.5905352,438,1676104294,587766170,odom,-1.3132051229476929,-0.7338520288467407,1.1160415222048758,0.0,0.0,0.0
1676104294.5990515,439,1676104294,597511053,odom,-1.3132479190826416,-0.7338309288024902,1.1160499501079322,0.0,0.0,0.0
1676104294.6068819,440,1676104294,605005979,odom,-1.3132479190826416,-0.7338309288024902,1.1160499501079322,0.0,0.0,0.0
1676104294.616946,441,1676104294,615014076,odom,-1.3132479190826416,-0.7338309288024902,1.1160499501079322,0.0,0.0,0.0
1676104294.6376224,442,1676104294,631303071,odom,-1.3133875727653503,-0.7337967157363892,1.1160358067303895,0.0,0.0,0.0
1676104294.6412268,443,1676104294,639611482,odom,-1.3133957982063293,-0.7337819337844849,1.1160371823191642,0.0,0.0,0.0
1676104294.650839,444,1676104294,647136449,odom,-1.3134382367134094,-0.733781099319458,1.116033811157942,0.0,0.0,0.0
1676104294.6599314,445,1676104294,658035755,odom,-1.3135135173797607,-0.7337580919265747,1.116081123661995,0.0,0.0,0.0
1676104294.6682198,446,1676104294,666532754,odom,-1.3134719729423523,-0.7337721586227417,1.1160377635538579,0.0,0.0,0.0
1676104294.6797972,447,1676104294,677627801,odom,-1.3134719729423523,-0.7337721586227417,1.1160377635538579,0.0,0.0,0.0
1676104294.688014,448,1676104294,686380147,odom,-1.3135436177253723,-0.7336926460266113,1.1160641903579236,0.0,0.0,0.0
1676104294.7000954,449,1676104294,696276187,odom,-1.313559651374817,-0.7336951494216919,1.1160761056691408,0.0,0.0,0.0
1676104294.714736,450,1676104294,707829475,odom,-1.313559889793396,-0.73369300365448,1.116088582840562,0.0,0.0,0.0
1676104294.721475,451,1676104294,717598199,odom,-1.3135549426078796,-0.7336118221282959,1.1160614198058845,0.0,0.0,0.0
1676104294.72874,452,1676104294,726276874,odom,-1.3135337829589844,-0.7336264848709106,1.1160685883671047,0.0,0.0,0.0
1676104294.739124,453,1676104294,737707853,odom,-1.3135278224945068,-0.7335860729217529,1.116057583656907,0.0,0.0,0.0
1676104294.7502031,454,1676104294,748845338,odom,-1.3135785460472107,-0.7335530519485474,1.1160486713916065,0.0,0.0,0.0
1676104294.7568314,455,1676104294,755039930,odom,-1.3135785460472107,-0.7335530519485474,1.1160486713916065,0.0,0.0,0.0
1676104294.7705698,456,1676104294,767655849,odom,-1.3135998845100403,-0.733535885810852,1.116009631794691,0.0,0.0,0.0
1676104294.784877,457,1676104294,778940677,odom,-1.313650131225586,-0.7335302829742432,1.1160496207416057,0.0,0.0,0.0
1676104294.7901952,458,1676104294,786859989,odom,-1.313608705997467,-0.7334980964660645,1.1160083724528551,0.0,0.0,0.0
1676104294.8010967,459,1676104294,797481060,odom,-1.3136674165725708,-0.7334363460540771,1.1160275725722313,0.0,0.0,0.0
1676104294.813499,460,1676104294,809291601,odom,-1.3137365579605103,-0.7334177494049072,1.1160477026671172,0.0,0.0,0.0
1676104294.819829,461,1676104294,818212509,odom,-1.3137904405593872,-0.7334095239639282,1.1160632216334343,0.0,0.0,0.0
1676104294.8301926,462,1676104294,825795173,odom,-1.3137807846069336,-0.7334169149398804,1.1160489038854837,0.0,0.0,0.0
1676104294.83868,463,1676104294,836596965,odom,-1.313858151435852,-0.7334461212158203,1.1160500082314015,0.0,0.0,0.0
1676104294.8482218,464,1676104294,846381664,odom,-1.313858151435852,-0.7334461212158203,1.1160500082314015,0.0,0.0,0.0
1676104294.8620155,465,1676104294,858696460,odom,-1.3138828873634338,-0.7334859371185303,1.116053825005889,0.0,0.0,0.0
1676104294.8672585,466,1676104294,865177392,odom,-1.3139190673828125,-0.7335273027420044,1.1160464820742606,0.0,0.0,0.0
1676104294.8820508,467,1676104294,880099773,odom,-1.3138800263404846,-0.7336097955703735,1.1160617104232313,0.0,0.0,0.0
1676104294.889357,468,1676104294,887616157,odom,-1.3138048648834229,-0.7336863279342651,1.116032629314065,0.0,0.0,0.0
1676104294.8990219,469,1676104294,896570682,odom,-1.3138324618339539,-0.7336455583572388,1.116080503678322,0.0,0.0,0.0
1676104294.9135063,470,1676104294,908564805,odom,-1.3137270212173462,-0.7337697744369507,1.1160488457620146,0.0,0.0,0.0
1676104294.9224486,471,1676104294,920585632,odom,-1.313759982585907,-0.7337338924407959,1.116089028453827,0.0,0.0,0.0
1676104294.9287188,472,1676104294,926467657,odom,-1.3137120008468628,-0.7337747812271118,1.1160409797191622,0.0,0.0,0.0
1676104294.9359627,473,1676104294,934889316,odom,-1.313651442527771,-0.733849287033081,1.1160340824007988,0.0,0.0,0.0
1676104294.9500515,474,1676104294,946714878,odom,-1.313643217086792,-0.7338159084320068,1.116095325163007,0.0,0.0,0.0
1676104294.9581602,475,1676104294,956072092,odom,-1.313643217086792,-0.7338159084320068,1.116095325163007,0.0,0.0,0.0
1676104294.972096,476,1676104294,967608690,odom,-1.3135640621185303,-0.7339421510696411,1.1160718045324087,0.0,0.0,0.0
1676104294.9818137,477,1676104294,976031541,odom,-1.3135652542114258,-0.7340260744094849,1.1160776362538338,0.0,0.0,0.0
1676104294.988343,478,1676104294,987220048,odom,-1.3135972619056702,-0.7340028285980225,1.1160787212252616,0.0,0.0,0.0
1676104295.0001895,479,1676104294,998188018,odom,-1.31361323595047,-0.7340183258056641,1.1160891640752555,0.0,0.0,0.0
1676104295.010579,480,1676104295,6953239,odom,-1.31361323595047,-0.7340183258056641,1.1160891640752555,0.0,0.0,0.0
1676104295.0216272,481,1676104295,18298625,odom,-1.3136157393455505,-0.7339800596237183,1.1160676002681256,0.0,0.0,0.0
1676104295.0303535,482,1676104295,27386903,odom,-1.313622772693634,-0.7339571714401245,1.1160500276058913,0.0,0.0,0.0
1676104295.0386121,483,1676104295,35470008,odom,-1.3136670589447021,-0.7339974641799927,1.1160810849130156,0.0,0.0,0.0
1676104295.0484674,484,1676104295,47296762,odom,-1.313686192035675,-0.7339584827423096,1.1160591529905797,0.0,0.0,0.0
1676104295.0564036,485,1676104295,55003881,odom,-1.313686192035675,-0.7339584827423096,1.1160591529905797,0.0,0.0,0.0
1676104295.0663643,486,1676104295,64963340,odom,-1.313686192035675,-0.7339584827423096,1.1160591529905797,0.0,0.0,0.0
1676104295.0808551,487,1676104295,76616525,odom,-1.3136837482452393,-0.7339556217193604,1.1160527981579305,0.0,0.0,0.0
1676104295.0927062,488,1676104295,90343475,odom,-1.3137230277061462,-0.7339046001434326,1.1160674840211868,0.0,0.0,0.0
1676104295.098724,489,1676104295,96089839,odom,-1.3137018084526062,-0.7338628768920898,1.1160436340242625,0.0,0.0,0.0
1676104295.1136708,490,1676104295,108870029,odom,-1.313718318939209,-0.7338132858276367,1.1160973013609647,0.0,0.0,0.0
1676104295.1236742,491,1676104295,121728181,odom,-1.3137122988700867,-0.733852744102478,1.1160479157865046,0.0,0.0,0.0
1676104295.1285195,492,1676104295,127142906,odom,-1.3137251734733582,-0.7338578701019287,1.1160612454354764,0.0,0.0,0.0
1676104295.1367207,493,1676104295,134954929,odom,-1.3137251734733582,-0.7338578701019287,1.1160612454354764,0.0,0.0,0.0
1676104295.1501827,494,1676104295,147402524,odom,-1.3137422800064087,-0.7338906526565552,1.1160702351987364,0.0,0.0,0.0
1676104295.1586225,495,1676104295,155369758,odom,-1.3137701749801636,-0.7338259220123291,1.1160841267079116,0.0,0.0,0.0
1676104295.1698372,496,1676104295,166209936,odom,-1.313798725605011,-0.7338336706161499,1.116096487632394,0.0,0.0,0.0
1676104295.1824589,497,1676104295,179587125,odom,-1.3137649893760681,-0.7339180707931519,1.1160659728109839,0.0,0.0,0.0
1676104295.1914601,498,1676104295,187125682,odom,-1.3137649893760681,-0.7339180707931519,1.1160659728109839,0.0,0.0,0.0
1676104295.1979353,499,1676104295,195542812,odom,-1.3137792348861694,-0.7339421510696411,1.116077345636487,0.0,0.0,0.0
1676104295.2118216,500,1676104295,207325935,odom,-1.313852608203888,-0.7338987588882446,1.116095305788517,0.0,0.0,0.0
