Time,header.seq,header.stamp.secs,header.stamp.nsecs,header.frame_id,airspeed,groundspeed,heading,throttle,altitude,climb
1676104290.204201,2929,1676104290,202052477,,0.0,0.0055533722043037415,91,0.0,2.4784955978393555,-0.002258391585201025
1676104290.2519364,2930,1676104290,251102233,,0.0,0.005574681330472231,91,0.0,2.4969921112060547,-0.0021656565368175507
1676104290.3058505,2931,1676104290,303941396,,0.0,0.005430140532553196,91,0.0,2.602684736251831,-0.002015968319028616
1676104290.3548005,2932,1676104290,354058764,,0.0,0.005356322042644024,91,0.0,2.5815460681915283,-0.0022444131318479776
1676104290.4057143,2933,1676104290,404016946,,0.0,0.005511526018381119,91,0.0,2.4784955978393555,-0.002337990328669548
1676104290.4550307,2934,1676104290,453784795,,0.0,0.005915266461670399,91,0.0,2.602684736251831,-0.0023719663731753826
1676104290.5088131,2935,1676104290,506794292,,0.0,0.005991040263324976,91,0.0,2.5604076385498047,-0.0019798879511654377
1676104290.5591657,2936,1676104290,555442029,,0.0,0.006080807186663151,91,0.0,2.5604076385498047,-0.0017772511346265674
1676104290.6100564,2937,1676104290,605321749,,0.0,0.006052267272025347,91,0.0,2.4150800704956055,-0.0016295696841552854
1676104290.6555972,2938,1676104290,654772301,,0.0,0.005912828259170055,91,0.0,2.4969921112060547,-0.001481459941715002
1676104290.7027063,2939,1676104290,701734095,,0.0,0.00602131150662899,91,0.0,2.30938720703125,-0.0014789780834689736
1676104290.7566755,2940,1676104290,753369555,,0.0,0.006479138042777777,91,0.0,2.539269208908081,-0.001483291038312018
1676104290.8039126,2941,1676104290,802063329,,0.0,0.006673562340438366,91,0.0,2.4969921112060547,-0.001407414092682302
1676104290.8545516,2942,1676104290,853861234,,0.0,0.006498490925878286,91,0.0,2.457357168197632,-0.0011977204121649265
1676104290.904504,2943,1676104290,902266490,,0.0,0.0065720705315470695,91,0.0,2.7480123043060303,-0.001050540478900075
1676104290.9524426,2944,1676104290,952055098,,0.0,0.00674442620947957,91,0.0,2.539269208908081,-0.001100264023989439
1676104291.0102406,2945,1676104291,6427373,,0.0,0.007153492886573076,91,0.0,2.4969921112060547,-0.0013786754570901394
1676104291.0516114,2946,1676104291,51098815,,0.0,0.007281049154698849,91,0.0,2.6449620723724365,-0.0015796234365552664
1676104291.1063406,2947,1676104291,104612663,,0.0,0.007165456656366587,91,0.0,2.436218500137329,-0.0018045977922156453
1676104291.15253,2948,1676104291,152074642,,0.0,0.006982817314565182,91,0.0,2.436218500137329,-0.0016112099401652813
1676104291.209377,2949,1676104291,205525361,,0.0,0.0070892032235860825,91,0.0,2.436218500137329,-0.001641000621020794
1676104291.2517495,2950,1676104291,251176137,,0.0,0.00727832643315196,91,0.0,2.5181305408477783,-0.0016478647012263536
1676104291.3055716,2951,1676104291,303768874,,0.0,0.007426379714161158,91,0.0,2.602684736251831,-0.001593827037140727
1676104291.3535335,2952,1676104291,352677242,,0.0,0.007381553295999765,91,0.0,2.539269208908081,-0.0015572828706353903
1676104291.4096045,2953,1676104291,404968443,,0.0,0.007219286169856787,91,0.0,2.3939414024353027,-0.0017984607256948948
1676104291.4525988,2954,1676104291,451595385,,0.0,0.007006027270108461,91,0.0,2.5181305408477783,-0.0017552197678014636
1676104291.5088592,2955,1676104291,503795271,,0.0,0.007008840795606375,91,0.0,2.7268736362457275,-0.0015133270062506199
1676104291.5530682,2956,1676104291,552617286,,0.0,0.0069026038981974125,91,0.0,2.539269208908081,-0.001451715244911611
1676104291.6069,2957,1676104291,603764969,,0.0,0.007305637933313847,91,0.0,2.705735206604004,-0.0014802985824644566
1676104291.652094,2958,1676104291,651449559,,0.0,0.0073697385378181934,91,0.0,2.4784955978393555,-0.0014355283929035068
1676104291.7049823,2959,1676104291,703512963,,0.0,0.007511605508625507,91,0.0,2.4784955978393555,-0.0009197756298817694
1676104291.7540674,2960,1676104291,753079405,,0.0,0.007294245529919863,91,0.0,2.4150800704956055,-0.0008689202950336039
1676104291.8055296,2961,1676104291,802197735,,0.0,0.006963507737964392,91,0.0,2.3516645431518555,-0.0008339161868207157
1676104291.852921,2962,1676104291,852333195,,0.0,0.006904159672558308,91,0.0,2.4784955978393555,-0.0005667135119438171
1676104291.9076927,2963,1676104291,905874081,,0.0,0.00659569725394249,91,0.0,2.5815460681915283,-0.0003613135777413845
1676104291.9520574,2964,1676104291,951621820,,0.0,0.0062996805645525455,91,0.0,2.3939414024353027,-0.00037924328353255987
1676104292.0067909,2965,1676104292,4292131,,0.0,0.006343599408864975,91,0.0,2.372802972793579,-0.0002501039416529238
1676104292.0536082,2966,1676104292,53138666,,0.0,0.006328132003545761,91,0.0,2.3305258750915527,0.0001586839644005522
1676104292.1087325,2967,1676104292,104635608,,0.0,0.006063672248274088,91,0.0,2.457357168197632,-5.1061491831205785e-05
1676104292.151794,2968,1676104292,151311512,,0.0,0.006047604605555534,91,0.0,2.2882487773895264,-1.9485167285893112e-05
1676104292.205369,2969,1676104292,203130750,,0.0,0.006124253384768963,91,0.0,2.4784955978393555,0.00033701167558319867
1676104292.2537184,2970,1676104292,253144600,,0.0,0.006590706296265125,91,0.0,2.4784955978393555,0.0005042313714511693
1676104292.3039093,2971,1676104292,302657708,,0.0,0.006591543089598417,91,0.0,2.4969921112060547,0.0006223114323802292
1676104292.353748,2972,1676104292,353260706,,0.0,0.006536603905260563,91,0.0,2.436218500137329,0.0005237780278548598
1676104292.4037921,2973,1676104292,402150592,,0.0,0.006368959788233042,91,0.0,2.4784955978393555,0.0006813185755163431
1676104292.452656,2974,1676104292,452097608,,0.0,0.006365231238305569,91,0.0,2.5604076385498047,0.0008156345575116575
1676104292.5069504,2975,1676104292,504031531,,0.0,0.00613493612036109,91,0.0,2.5181305408477783,0.0009051975212059915
1676104292.5520139,2976,1676104292,551151121,,0.0,0.006263247691094875,91,0.0,2.5604076385498047,0.0012054108083248138
1676104292.6072087,2977,1676104292,604269933,,0.0,0.006386325228959322,91,0.0,2.3305258750915527,0.0013027738314121962
1676104292.6538036,2978,1676104292,653152727,,0.0,0.006392245180904865,91,0.0,2.4150800704956055,0.0015274918405339122
1676104292.7045841,2979,1676104292,702607706,,0.0,0.006405750755220652,91,0.0,2.4784955978393555,0.0016167088178917766
1676104292.752636,2980,1676104292,752181462,,0.0,0.006815648637712002,91,0.0,2.5815460681915283,0.0015304608969017863
1676104292.806308,2981,1676104292,803064200,,0.0,0.007343558594584465,91,0.0,2.372802972793579,0.0015887180343270302
1676104292.854586,2982,1676104292,853568735,,0.0,0.007144029252231121,91,0.0,2.372802972793579,0.0015172800049185753
1676104292.903986,2983,1676104292,901976028,,0.0,0.007018300238996744,91,0.0,2.5604076385498047,0.0016850035171955824
1676104292.9525347,2984,1676104292,952098192,,0.0,0.00695524737238884,91,0.0,2.436218500137329,0.0020255364943295717
1676104293.0028343,2985,1676104293,1584727,,0.0,0.006741578225046396,91,0.0,2.539269208908081,0.0020196563564240932
1676104293.0517578,2986,1676104293,51130058,,0.0,0.006718861870467663,91,0.0,2.602684736251831,0.0021745653357356787
1676104293.10419,2987,1676104293,102848910,,0.0,0.006343312095850706,91,0.0,2.3939414024353027,0.0025660244282335043
1676104293.1521986,2988,1676104293,151103337,,0.0,0.0068450202234089375,91,0.0,2.539269208908081,0.0028332858346402645
1676104293.2057993,2989,1676104293,204160978,,0.0,0.0064901127479970455,91,0.0,2.5181305408477783,0.002820241264998913
1676104293.2545016,2990,1676104293,253290284,,0.0,0.0065989987924695015,91,0.0,2.436218500137329,0.0028499930631369352
1676104293.302785,2991,1676104293,301850926,,0.0,0.006360961124300957,91,0.0,2.3516645431518555,0.0026135186199098825
1676104293.35266,2992,1676104293,352203237,,0.0,0.006077323108911514,91,0.0,2.3516645431518555,0.002814220730215311
1676104293.4052408,2993,1676104293,403893452,,0.0,0.0058578732423484325,91,0.0,2.6238231658935547,0.0029697539284825325
1676104293.4520383,2994,1676104293,451615922,,0.0,0.006102423183619976,91,0.0,2.6238231658935547,0.0030699544586241245
1676104293.5065556,2995,1676104293,503957143,,0.0,0.006033676210790873,91,0.0,2.5815460681915283,0.0032275854609906673
1676104293.5540051,2996,1676104293,552358659,,0.0,0.0052475715056061745,91,0.0,2.436218500137329,0.003640564624220133
1676104293.6077929,2997,1676104293,604547032,,0.0,0.005218920763581991,91,0.0,2.457357168197632,0.0036932930815964937
1676104293.6521735,2998,1676104293,651194604,,0.0,0.004658454097807407,91,0.0,2.539269208908081,0.0037891636602580547
1676104293.7060444,2999,1676104293,704220557,,0.0,0.004614386707544327,91,0.0,2.3516645431518555,0.0038636967074126005
1676104293.7550719,3000,1676104293,754328734,,0.0,0.004480493720620871,91,0.0,2.5604076385498047,0.003854636801406741
1676104293.806479,3001,1676104293,802160973,,0.0,0.00413535675033927,91,0.0,2.372802972793579,0.0037754892837256193
1676104293.8527958,3002,1676104293,852268854,,0.0,0.0047435215674340725,91,0.0,2.602684736251831,0.004063377622514963
1676104293.9046588,3003,1676104293,903738789,,0.0,0.00763498991727829,91,0.0,2.6449620723724365,0.002459016628563404
1676104293.9518337,3004,1676104293,951290354,,0.0,0.020113443955779076,91,0.0,2.6449620723724365,0.004772794898599386
1676104294.0039818,3005,1676104294,2546316,,0.0,0.06941728293895721,91,0.0,2.7268736362457275,0.01617315225303173
1676104294.056104,3006,1676104294,53332585,,0.0,0.08005356788635254,91,0.0,2.9567556381225586,0.014286722987890244
1676104294.1025882,3007,1676104294,101710381,,0.0,0.054983705282211304,91,0.0,2.602684736251831,0.007916467264294624
1676104294.1529033,3008,1676104294,152429667,,0.0,0.02787306159734726,91,0.0,2.8722012042999268,0.00828639604151249
1676104294.2097669,3009,1676104294,204024882,,0.0,0.015463821589946747,91,0.0,2.457357168197632,0.003101750509813428
1676104294.2523165,3010,1676104294,251823260,,0.0,0.007104508113116026,91,0.0,2.6634581089019775,0.007613491732627153
1676104294.3135955,3011,1676104294,303521952,,0.0,0.018792955204844475,91,0.0,2.5604076385498047,0.003874966874718666
1676104294.3554113,3012,1676104294,353646696,,0.0,0.02078428491950035,91,0.0,2.7902896404266357,0.006079684477299452
1676104294.4042947,3013,1676104294,403135566,,0.0,0.0190813597291708,91,0.0,2.6449620723724365,0.0045446897856891155
1676104294.4521945,3014,1676104294,451674814,,0.0,0.02031753398478031,91,0.0,2.769150733947754,0.0011978746624663472
1676104294.5060868,3015,1676104294,503199432,,0.0,0.012080555781722069,91,0.0,2.769150733947754,0.011531470343470573
1676104294.5530932,3016,1676104294,552198071,,0.0,0.013600802049040794,91,0.0,2.5815460681915283,0.0035057440400123596
1676104294.60443,3017,1676104294,603371483,,0.0,0.01001359149813652,91,0.0,2.6634581089019775,0.007336114998906851
1676104294.6568477,3018,1676104294,653937954,,0.0,0.014238899573683739,91,0.0,2.6238231658935547,0.0009287163848057389
1676104294.7030454,3019,1676104294,702214238,,0.0,0.006490094121545553,91,0.0,2.6449620723724365,0.009302622638642788
1676104294.7536728,3020,1676104294,753217450,,0.0,0.011254479177296162,91,0.0,2.8933398723602295,0.002905132481828332
1676104294.803215,3021,1676104294,802517307,,0.0,0.009105595760047436,91,0.0,2.7902896404266357,0.006749248597770929
1676104294.8558576,3022,1676104294,854646347,,0.0,0.0032188319601118565,92,0.0,3.017528772354126,0.002577459905296564
1676104294.903283,3023,1676104294,902485741,,0.0,0.004655223805457354,92,0.0,2.7268736362457275,0.005380927585065365
1676104294.9538171,3024,1676104294,953149202,,0.0,0.008046056143939495,92,0.0,2.6845967769622803,0.007331813219934702
1676104295.008536,3025,1676104295,5805337,,0.0,0.006073714699596167,92,0.0,2.6238231658935547,0.004443176556378603
1676104295.0529902,3026,1676104295,52596608,,0.0,0.00794500857591629,92,0.0,2.6238231658935547,0.002541353227570653
1676104295.1060457,3027,1676104295,103724664,,0.0,0.010781482793390751,92,0.0,2.457357168197632,0.008429640904068947
1676104295.1561716,3028,1676104295,154297207,,0.0,0.00906734075397253,92,0.0,2.7480123043060303,0.000940957514103502
1676104295.20453,3029,1676104295,203266684,,0.0,0.011606123298406601,92,0.0,2.5181305408477783,0.007578440010547638
1676104295.2563071,3030,1676104295,254686111,,0.0,0.012590148486196995,92,0.0,2.7902896404266357,0.0027944305911660194
1676104295.3052099,3031,1676104295,303605010,,0.0,0.011837243102490902,92,0.0,2.5604076385498047,0.0066689481027424335
1676104295.3549044,3032,1676104295,353475454,,0.0,0.011056269519031048,92,0.0,2.6634581089019775,0.003003799356520176
1676104295.406366,3033,1676104295,405388085,,0.0,0.013791353441774845,92,0.0,2.539269208908081,0.0023954110220074654
1676104295.4544036,3034,1676104295,452611990,,0.0,0.015973486006259918,92,0.0,2.6845967769622803,0.0062092808075249195
1676104295.5069761,3035,1676104295,503899920,,0.0,0.017918158322572708,92,0.41999998688697815,2.851062774658203,0.006373726297169924
1676104295.5558946,3036,1676104295,554806275,,0.0,0.31844842433929443,91,0.4099999964237213,4.851298809051514,0.2213173508644104
1676104295.6080844,3037,1676104295,602972811,,0.0,0.562593400478363,92,0.28999999165534973,4.97548770904541,0.9430981278419495
1676104295.6549015,3038,1676104295,653612817,,0.0,0.9848011136054993,93,0.10999999940395355,4.97548770904541,1.4843720197677612
1676104295.706489,3039,1676104295,705220863,,0.0,1.171083927154541,92,0.07000000029802322,5.4326090812683105,1.5097652673721313
1676104295.753381,3040,1676104295,752820153,,0.0,1.2422064542770386,91,0.07000000029802322,4.349257946014404,1.2743620872497559
1676104295.806081,3041,1676104295,804242749,,0.0,1.281201720237732,90,0.12999999523162842,3.892136573791504,0.9713207483291626
1676104295.8568554,3042,1676104295,855465514,,0.0,1.3255622386932373,90,0.15000000596046448,4.018968105316162,0.7689251899719238
1676104295.9043257,3043,1676104295,903292529,,0.0,1.3288849592208862,90,0.18000000715255737,4.7878828048706055,0.7156506776809692
1676104295.9558918,3044,1676104295,955332524,,0.0,1.2922452688217163,90,0.17000000178813934,5.078538417816162,0.7549019455909729
1676104296.0074568,3045,1676104296,6330148,,0.0,1.1881682872772217,90,0.15000000596046448,4.954349040985107,0.7954860329627991
1676104296.0547845,3046,1676104296,53018433,,0.0,1.1079338788986206,91,0.14000000059604645,5.205369472503662,0.7728199362754822
1676104296.1074238,3047,1676104296,104652728,,0.0,0.9997557997703552,91,0.14000000059604645,5.141953945159912,0.7130878567695618
1676104296.1573038,3048,1676104296,155636464,,0.0,0.8529857993125916,91,0.15000000596046448,5.141953945159912,0.6114952564239502
1676104296.2057695,3049,1676104296,204599836,,0.0,0.7286452651023865,91,0.15000000596046448,4.766744613647461,0.5463316440582275
1676104296.2558107,3050,1676104296,254839233,,0.0,0.5920655131340027,90,0.1599999964237213,4.600278377532959,0.501513659954071
1676104296.3074448,3051,1676104296,306648798,,0.0,0.4559936225414276,90,0.1599999964237213,4.600278377532959,0.47860029339790344
1676104296.3579912,3052,1676104296,353844528,,0.0,0.3246162235736847,90,0.1599999964237213,4.4126739501953125,0.4653763175010681
1676104296.4069018,3053,1676104296,404867962,,0.0,0.199585422873497,90,0.15000000596046448,4.391534805297852,0.4456331133842468
1676104296.4532166,3054,1676104296,452681206,,0.0,0.12239021062850952,89,0.15000000596046448,4.370396614074707,0.43027836084365845
1676104296.505123,3055,1676104296,503879337,,0.0,0.07582821696996689,89,0.15000000596046448,4.621417045593262,0.40180426836013794
1676104296.5562475,3056,1676104296,554480413,,0.0,0.08628670126199722,89,0.15000000596046448,4.330761909484863,0.3705662488937378
1676104296.6054833,3057,1676104296,604386153,,0.0,0.11079363524913788,89,0.15000000596046448,4.579139709472656,0.3445236086845398
1676104296.6553693,3058,1676104296,654703928,,0.0,0.12438774853944778,89,0.1599999964237213,4.225069046020508,0.32628676295280457
1676104296.7096438,3059,1676104296,706318170,,0.0,0.1335407942533493,89,0.15000000596046448,4.45495080947876,0.30923494696617126
1676104296.7543955,3060,1676104296,753666374,,0.0,0.12113941460847855,89,0.15000000596046448,4.45495080947876,0.28206679224967957
1676104296.806566,3061,1676104296,805092725,,0.0,0.10967008024454117,89,0.15000000596046448,4.061244964599609,0.2592013478279114
1676104296.8551729,3062,1676104296,853666765,,0.0,0.0827585831284523,89,0.1599999964237213,3.955552339553833,0.22723403573036194
1676104296.9073384,3063,1676104296,905902284,,0.0,0.05889459326863289,89,0.1599999964237213,3.6014814376831055,0.21720530092716217
1676104296.95595,3064,1676104296,955177870,,0.0,0.02750048227608204,89,0.1599999964237213,3.9978294372558594,0.2021641731262207
1676104297.0072691,3065,1676104297,5013333,,0.0,0.014960722997784615,89,0.1599999964237213,4.558001518249512,0.19377176463603973
1676104297.0565224,3066,1676104297,55822137,,0.0,0.048870913684368134,89,0.1599999964237213,4.4760894775390625,0.1800561249256134
1676104297.107736,3067,1676104297,105677714,,0.0,0.07689034193754196,89,0.15000000596046448,4.3096232414245605,0.1693139523267746
1676104297.1564915,3068,1676104297,155070486,,0.0,0.09592263400554657,89,0.1599999964237213,4.349257946014404,0.15872235596179962
1676104297.2087767,3069,1676104297,207342303,,0.0,0.11684703081846237,89,0.15000000596046448,4.016325950622559,0.14818352460861206
1676104297.2552924,3070,1676104297,253924212,,0.0,0.1164756640791893,89,0.15000000596046448,4.391534805297852,0.14485064148902893
1676104297.3072512,3071,1676104297,306738230,,0.0,0.11515740305185318,89,0.15000000596046448,4.391534805297852,0.1328674554824829
1676104297.3562481,3072,1676104297,355241326,,0.0,0.10945557057857513,89,0.15000000596046448,5.017764568328857,0.12835067510604858
1676104297.407232,3073,1676104297,406558286,,0.0,0.09320574253797531,90,0.15000000596046448,4.684832572937012,0.10923866927623749
1676104297.456833,3074,1676104297,454114011,,0.0,0.0713007003068924,90,0.15000000596046448,4.203930377960205,0.0935201495885849
1676104297.5086646,3075,1676104297,507130743,,0.0,0.03475537896156311,90,0.15000000596046448,4.558001518249512,0.07935726642608643
1676104297.5555675,3076,1676104297,554173772,,0.0,0.011186891235411167,90,0.1599999964237213,4.912071704864502,0.062254708260297775
1676104297.6070232,3077,1676104297,605933707,,0.0,0.05166434124112129,90,0.1599999964237213,4.7878828048706055,0.05168662592768669
1676104297.6568353,3078,1676104297,656316011,,0.0,0.08083590865135193,90,0.1599999964237213,4.581782341003418,0.04570326581597328
1676104297.7060394,3079,1676104297,704970428,,0.0,0.12328667938709259,90,0.1599999964237213,4.391534805297852,0.039251476526260376
1676104297.7567174,3080,1676104297,755498772,,0.0,0.160530224442482,90,0.1599999964237213,4.581782341003418,0.03200577199459076
1676104297.8088582,3081,1676104297,807253574,,0.0,0.19541043043136597,90,0.1599999964237213,4.7244672775268555,0.020669830963015556
1676104297.8551111,3082,1676104297,854437435,,0.0,0.21612419188022614,90,0.1599999964237213,4.7244672775268555,0.0159820094704628
1676104297.9078856,3083,1676104297,907021756,,0.0,0.23044635355472565,90,0.1599999964237213,4.766744613647461,0.01452032569795847
1676104297.9572437,3084,1676104297,956645578,,0.0,0.247226282954216,90,0.1599999964237213,4.497227668762207,0.006703964900225401
1676104298.0064697,3085,1676104298,5796929,,0.0,0.26155540347099304,90,0.1599999964237213,4.663693904876709,-0.004835543222725391
1676104298.0563197,3086,1676104298,55709073,,0.0,0.2555854618549347,90,0.1599999964237213,4.51836633682251,-0.008554921485483646
1676104298.1078694,3087,1676104298,107254773,,0.0,0.24667786061763763,90,0.1599999964237213,4.745605945587158,-0.015875723212957382
1676104298.1559396,3088,1676104298,154893727,,0.0,0.23831839859485626,90,0.1599999964237213,4.912071704864502,-0.018641967326402664
1676104298.207504,3089,1676104298,206231603,,0.0,0.22882013022899628,90,0.1599999964237213,4.288484573364258,-0.02043609321117401
1676104298.2578309,3090,1676104298,257255666,,0.0,0.21099887788295746,90,0.1599999964237213,4.330761909484863,-0.01495982613414526
1676104298.3072047,3091,1676104298,306207432,,0.0,0.18738800287246704,90,0.1599999964237213,4.391534805297852,-0.02497565560042858
1676104298.3556426,3092,1676104298,354927262,,0.0,0.16686710715293884,90,0.1599999964237213,5.099677085876465,-0.02976974844932556
1676104298.4086113,3093,1676104298,408058871,,0.0,0.14738240838050842,90,0.1599999964237213,4.663693904876709,-0.029682260006666183
1676104298.4581885,3094,1676104298,457248095,,0.0,0.1323699951171875,90,0.1599999964237213,4.663693904876709,-0.03775574266910553
1676104298.50923,3095,1676104298,507144950,,0.0,0.10975988209247589,90,0.1599999964237213,4.663693904876709,-0.040457598865032196
1676104298.5578444,3096,1676104298,557330283,,0.0,0.09122893214225769,90,0.1599999964237213,4.330761909484863,-0.04108971357345581
1676104298.6072884,3097,1676104298,606386666,,0.0,0.08134793490171432,90,0.1599999964237213,4.621417045593262,-0.03808673471212387
1676104298.6565914,3098,1676104298,656092875,,0.0,0.07654912024736404,90,0.1599999964237213,4.4760894775390625,-0.04040606692433357
1676104298.707328,3099,1676104298,705755663,,0.0,0.07023279368877411,90,0.1599999964237213,4.497227668762207,-0.04770072549581528
1676104298.7569218,3100,1676104298,756146671,,0.0,0.059947676956653595,90,0.1599999964237213,4.766744613647461,-0.04269445687532425
1676104298.810077,3101,1676104298,808567314,,0.0,0.06583588570356369,90,0.1599999964237213,4.933210849761963,-0.0487813800573349
1676104298.856881,3102,1676104298,856365277,,0.0,0.06790439039468765,90,0.1599999964237213,5.120815277099609,-0.04967774078249931
1676104298.9093425,3103,1676104298,908083497,,0.0,0.07397864013910294,90,0.1599999964237213,4.51836633682251,-0.040101636201143265
1676104298.9559722,3104,1676104298,955413716,,0.0,0.0834735557436943,90,0.1599999964237213,4.51836633682251,-0.033715762197971344
1676104299.0118268,3105,1676104299,7405947,,0.0,0.07999031245708466,89,0.1599999964237213,4.954349040985107,-0.04084179550409317
1676104299.0567236,3106,1676104299,55529677,,0.0,0.09079617261886597,89,0.1599999964237213,4.600278377532959,-0.04365788400173187
1676104299.109956,3107,1676104299,108579195,,0.0,0.0907803550362587,89,0.1599999964237213,4.225069046020508,-0.04843580350279808
1676104299.156196,3108,1676104299,155526481,,0.0,0.09825492650270462,89,0.1599999964237213,4.182791709899902,-0.04405316337943077
1676104299.2068272,3109,1676104299,205541757,,0.0,0.10302630811929703,89,0.1599999964237213,4.558001518249512,-0.04548800364136696
1676104299.2577212,3110,1676104299,257264517,,0.0,0.0980134978890419,89,0.1599999964237213,5.017764568328857,-0.03876672685146332
1676104299.3100011,3111,1676104299,308708052,,0.0,0.09709280729293823,89,0.15000000596046448,4.558001518249512,-0.031963784247636795
1676104299.3574815,3112,1676104299,355687955,,0.0,0.09852970391511917,89,0.15000000596046448,4.558001518249512,-0.03255055472254753
1676104299.4089088,3113,1676104299,408396369,,0.0,0.0905504822731018,89,0.15000000596046448,4.684832572937012,-0.04260765388607979
1676104299.4563677,3114,1676104299,455838947,,0.0,0.08569367974996567,89,0.1599999964237213,4.745605945587158,-0.05117417499423027
1676104299.5087497,3115,1676104299,507582760,,0.0,0.07753478735685349,89,0.1599999964237213,4.558001518249512,-0.04645029455423355
1676104299.5585027,3116,1676104299,558057542,,0.0,0.06617998331785202,89,0.1599999964237213,4.45495080947876,-0.038706567138433456
1676104299.6082182,3117,1676104299,606809736,,0.0,0.06719908118247986,89,0.1599999964237213,4.45495080947876,-0.031029174104332924
1676104299.6584165,3118,1676104299,657743746,,0.0,0.05612713471055031,89,0.15000000596046448,4.766744613647461,-0.03352028876543045
1676104299.7100544,3119,1676104299,709262652,,0.0,0.05058327317237854,89,0.15000000596046448,4.3096232414245605,-0.032101135700941086
1676104299.7572565,3120,1676104299,756060013,,0.0,0.04759728163480759,89,0.15000000596046448,4.51836633682251,-0.032323792576789856
1676104299.8092299,3121,1676104299,807928880,,0.0,0.04687797650694847,89,0.15000000596046448,4.4760894775390625,-0.04160301759839058
1676104299.863813,3122,1676104299,858249437,,0.0,0.03841138258576393,89,0.1599999964237213,4.890933513641357,-0.05208863690495491
1676104299.9082258,3123,1676104299,906853263,,0.0,0.03867536410689354,89,0.1599999964237213,4.246207237243652,-0.056062374264001846
1676104299.9584079,3124,1676104299,957352248,,0.0,0.034075599163770676,89,0.1599999964237213,4.830160140991211,-0.04694814234972
1676104300.0108893,3125,1676104300,9761475,,0.0,0.032699815928936005,89,0.1599999964237213,4.954349040985107,-0.03227299451828003
1676104300.0569582,3126,1676104300,56211756,,0.0,0.029659122228622437,89,0.1599999964237213,4.558001518249512,-0.023554369807243347
1676104300.1104882,3127,1676104300,108798262,,0.0,0.026409026235342026,89,0.1599999964237213,4.558001518249512,-0.0288444384932518
1676104300.157391,3128,1676104300,156448090,,0.0,0.022663267329335213,89,0.1599999964237213,4.642555236816406,-0.03178449347615242
1676104300.2090976,3129,1676104300,207683681,,0.0,0.024810681119561195,89,0.1599999964237213,4.684832572937012,-0.028142781928181648
1676104300.2599678,3130,1676104300,258931187,,0.0,0.020391542464494705,89,0.1599999964237213,4.705970764160156,-0.03626814857125282
1676104300.3076928,3131,1676104300,306761404,,0.0,0.019282151013612747,89,0.1599999964237213,4.4760894775390625,-0.032507218420505524
1676104300.3570824,3132,1676104300,356492043,,0.0,0.024878034368157387,89,0.1599999964237213,4.581782341003418,-0.027535775676369667
1676104300.4097528,3133,1676104300,408359273,,0.0,0.025342607870697975,89,0.1599999964237213,4.330761909484863,-0.015568225644528866
1676104300.4581811,3134,1676104300,457450137,,0.0,0.03025423362851143,89,0.1599999964237213,4.143157005310059,-0.018832672387361526
1676104300.5076585,3135,1676104300,506339022,,0.0,0.037362053990364075,89,0.1599999964237213,4.684832572937012,-0.01849987544119358
1676104300.5576272,3136,1676104300,556627747,,0.0,0.03471021354198456,89,0.1599999964237213,4.391534805297852,-0.023650122806429863
1676104300.6103344,3137,1676104300,609176819,,0.0,0.037167739123106,89,0.1599999964237213,4.391534805297852,-0.025553235784173012
1676104300.6594398,3138,1676104300,658625569,,0.0,0.03531654551625252,89,0.1599999964237213,4.663693904876709,-0.010529797524213791
1676104300.709908,3139,1676104300,708325630,,0.0,0.030490901321172714,89,0.15000000596046448,4.851298809051514,-0.0016554234316572547
1676104300.7597618,3140,1676104300,758784941,,0.0,0.03166849538683891,89,0.15000000596046448,4.954349040985107,0.0002987141197081655
1676104300.8094118,3141,1676104300,807690598,,0.0,0.031529199331998825,89,0.15000000596046448,5.141953945159912,-0.0019951474387198687
1676104300.8588476,3142,1676104300,858128837,,0.0,0.028496529906988144,89,0.15000000596046448,5.308419704437256,0.0006503585027530789
1676104300.907156,3143,1676104300,906419014,,0.0,0.02368124946951866,89,0.15000000596046448,4.996626377105713,0.0036241202615201473
1676104300.9576766,3144,1676104300,956945484,,0.0,0.022522740066051483,89,0.15000000596046448,3.8709981441497803,0.0001948540157172829
1676104301.010564,3145,1676104301,9748999,,0.0,0.017156440764665604,89,0.15000000596046448,4.642555236816406,-0.0001710454234853387
1676104301.058101,3146,1676104301,57104674,,0.0,0.01590343564748764,89,0.15000000596046448,4.100879669189453,-0.005770583637058735
1676104301.10944,3147,1676104301,108606748,,0.0,0.009948473423719406,89,0.15000000596046448,4.558001518249512,-0.008169572800397873
1676104301.1597657,3148,1676104301,159095614,,0.0,0.011216879822313786,89,0.15000000596046448,4.996626377105713,-0.007831971161067486
1676104301.2100255,3149,1676104301,208603460,,0.0,0.00911931786686182,89,0.1599999964237213,5.038903713226318,-0.012926900759339333
1676104301.2601855,3150,1676104301,259602201,,0.0,0.018817497417330742,89,0.15000000596046448,5.038903713226318,-0.013865035958588123
1676104301.308739,3151,1676104301,307429038,,0.0,0.022776290774345398,89,0.1599999964237213,4.4126739501953125,-0.011492488905787468
1676104301.35887,3152,1676104301,358265036,,0.0,0.02909671887755394,89,0.15000000596046448,4.581782341003418,-0.00711488351225853
1676104301.4113946,3153,1676104301,410187182,,0.0,0.030037222430109978,89,0.15000000596046448,4.3096232414245605,-0.005879164673388004
1676104301.457931,3154,1676104301,457360803,,0.0,0.047807950526475906,89,0.15000000596046448,4.349257946014404,-0.00877309963107109
1676104301.5107484,3155,1676104301,509812319,,0.0,0.04895671457052231,89,0.1599999964237213,4.830160140991211,-0.022034060209989548
1676104301.5576642,3156,1676104301,556900232,,0.0,0.05521494895219803,89,0.1599999964237213,4.705970764160156,-0.021559806540608406
1676104301.6095412,3157,1676104301,608201907,,0.0,0.05106479302048683,89,0.1599999964237213,4.766744613647461,-0.01553543470799923
1676104301.6592965,3158,1676104301,658462002,,0.0,0.0515347383916378,89,0.1599999964237213,4.766744613647461,-0.008358888328075409
1676104301.7112434,3159,1676104301,709961963,,0.0,0.0450611338019371,89,0.1599999964237213,5.517163276672363,0.010920512489974499
1676104301.7583644,3160,1676104301,757890854,,0.0,0.05127778276801109,89,0.15000000596046448,5.517163276672363,0.030319608747959137
1676104301.8089743,3161,1676104301,808355610,,0.0,0.04891752079129219,89,0.15000000596046448,5.038903713226318,0.03552256152033806
1676104301.8600974,3162,1676104301,859517428,,0.0,0.0471438392996788,89,0.15000000596046448,4.954349040985107,0.02318519912660122
1676104301.9105957,3163,1676104301,908819982,,0.0,0.045886460691690445,89,0.15000000596046448,4.890933513641357,0.006524111609905958
1676104301.959383,3164,1676104301,958556396,,0.0,0.050134409219026566,89,0.15000000596046448,4.890933513641357,-0.007624701596796513
1676104302.0115972,3165,1676104302,10176511,,0.0,0.0474570132791996,89,0.1599999964237213,5.223865985870361,-0.009954731911420822
1676104302.0582361,3166,1676104302,57767896,,0.0,0.04314812272787094,89,0.1899999976158142,5.371835708618164,-0.0014176357071846724
1676104302.1106343,3167,1676104302,109845722,,0.0,0.07668270915746689,89,0.15000000596046448,5.4326090812683105,0.0893101617693901
1676104302.1587183,3168,1676104302,158228442,,0.0,0.2138230949640274,90,0.23999999463558197,5.350697040557861,0.1029505804181099
1676104302.2108595,3169,1676104302,209626306,,0.0,0.44165000319480896,91,0.25999999046325684,5.850095272064209,0.20291602611541748
1676104302.258603,3170,1676104302,257979505,,0.0,0.8858152031898499,93,0.25999999046325684,5.995422840118408,0.3766002058982849
1676104302.3107,3171,1676104302,309599205,,0.0,1.451196312904358,97,0.23999999463558197,6.22530460357666,0.4719316065311432
1676104302.36082,3172,1676104302,360247652,,0.0,2.070164442062378,98,0.28999999165534973,6.621652603149414,0.4670414328575134
1676104302.4093685,3173,1676104302,408656759,,0.0,2.768372058868408,94,0.28999999165534973,6.621652603149414,0.46571749448776245
1676104302.4599931,3174,1676104302,459433015,,0.0,3.4591734409332275,90,0.23999999463558197,6.724703311920166,0.4275120794773102
1676104302.5118566,3175,1676104302,510395194,,0.0,3.997352123260498,87,0.23000000417232513,6.7035651206970215,0.3899628520011902
1676104302.5585897,3176,1676104302,557972995,,0.0,4.426498889923096,83,0.25,6.328355312347412,0.408724308013916
1676104302.6110427,3177,1676104302,609968469,,0.0,4.696994781494141,80,0.2199999988079071,5.038903713226318,0.429775595664978
1676104302.6612766,3178,1676104302,660184380,,0.0,4.747098445892334,80,0.23000000417232513,4.600278377532959,0.4371309280395508
1676104302.7098591,3179,1676104302,708539118,,0.0,4.664819240570068,82,0.20999999344348907,4.182791709899902,0.5045428276062012
1676104302.7598348,3180,1676104302,759149001,,0.0,4.370005130767822,87,0.2199999988079071,5.786679744720459,0.5447124242782593
1676104302.811578,3181,1676104302,810820922,,0.0,3.9544124603271484,95,0.1899999976158142,8.037936210632324,0.4364537298679352
1676104302.8587773,3182,1676104302,858133710,,0.0,3.471848726272583,103,0.2199999988079071,7.142189979553223,0.22935517132282257
1676104302.9121943,3183,1676104302,910930729,,0.0,2.9233951568603516,103,0.23999999463558197,7.142189979553223,-0.03130948171019554
1676104302.9588914,3184,1676104302,958263419,,0.0,2.3011419773101807,96,0.2800000011920929,6.183027744293213,-0.2472662478685379
1676104303.0115688,3185,1676104303,11007869,,0.0,1.7068204879760742,90,0.27000001072883606,5.683629035949707,-0.4140866696834564
1676104303.061226,3186,1676104303,60524120,,0.0,1.3539836406707764,84,0.2800000011920929,5.078538417816162,-0.4793308973312378
1676104303.1109338,3187,1676104303,110321076,,0.0,1.4724950790405273,81,0.27000001072883606,5.7893218994140625,-0.4745961129665375
1676104303.1599824,3188,1676104303,159489319,,0.0,1.8529995679855347,79,0.14000000059604645,5.70476770401001,-0.45968449115753174
1676104303.2117496,3189,1676104303,211199004,,0.0,2.089914560317993,77,0.25,5.266142845153809,-0.5516425371170044
1676104303.2595437,3190,1676104303,258985036,,0.0,2.3029682636260986,78,0.2199999988079071,6.101115703582764,-0.550409197807312
1676104303.3112428,3191,1676104303,310676857,,0.0,2.4295156002044678,81,0.30000001192092896,6.494821548461914,-0.4099336564540863
1676104303.3612432,3192,1676104303,360710877,,0.0,2.3724563121795654,82,0.3100000023841858,7.224101543426514,-0.10615739226341248
1676104303.4113917,3193,1676104303,410235597,,0.0,2.0633277893066406,82,0.33000001311302185,7.224101543426514,0.19629819691181183
1676104303.4616575,3194,1676104303,460684651,,0.0,1.6206848621368408,79,0.27000001072883606,7.0787739753723145,0.3356328308582306
1676104303.5103984,3195,1676104303,509345577,,0.0,1.3563965559005737,77,0.1899999976158142,6.6005144119262695,0.22054816782474518
1676104303.5608363,3196,1676104303,560500469,,0.0,1.3911237716674805,75,0.23000000417232513,6.391770839691162,-0.03384366258978844
1676104303.6119304,3197,1676104303,611318601,,0.0,1.6737580299377441,75,0.25,6.183027744293213,-0.3053630292415619
1676104303.6597314,3198,1676104303,659370679,,0.0,2.1809308528900146,77,0.28999999165534973,6.870030879974365,-0.5159848928451538
1676104303.7117298,3199,1676104303,710254410,,0.0,2.8526716232299805,79,0.25,7.808054447174072,-0.6199129223823547
1676104303.7619302,3200,1676104303,760970548,,0.0,3.4697909355163574,81,0.23000000417232513,7.57817268371582,-0.6181886792182922
1676104303.8106215,3201,1676104303,809719606,,0.0,3.934819459915161,86,0.23000000417232513,7.64158821105957,-0.5713119506835938
1676104303.8604913,3202,1676104303,859984575,,0.0,4.239936351776123,91,0.23000000417232513,7.308655738830566,-0.4494107961654663
1676104303.9146507,3203,1676104303,912314356,,0.0,4.296507835388184,94,0.25,7.475121974945068,-0.3107924461364746
1676104303.960382,3204,1676104303,959748988,,0.0,4.130875110626221,93,0.20999999344348907,8.119848251342773,-0.15683074295520782
1676104304.0123749,3205,1676104304,10749918,,0.0,3.78599214553833,88,0.20999999344348907,8.682662010192871,-0.1646234095096588
1676104304.0598433,3206,1676104304,59262144,,0.0,3.3749608993530273,84,0.25999999046325684,8.682662010192871,-0.23554487526416779
1676104304.112416,3207,1676104304,111186718,,0.0,2.9995851516723633,87,0.25,7.744638442993164,-0.3667167127132416
1676104304.1617227,3208,1676104304,161201635,,0.0,2.397963285446167,93,0.28999999165534973,7.475121974945068,-0.40461593866348267
1676104304.2113025,3209,1676104304,209758649,,0.0,1.801938533782959,101,0.27000001072883606,6.058838844299316,-0.34210512042045593
1676104304.261797,3210,1676104304,260768429,,0.0,1.1832919120788574,102,0.25999999046325684,5.786679744720459,-0.16215214133262634
1676104304.3168724,3211,1676104304,314321738,,0.0,0.6943308115005493,101,0.25,5.953145980834961,0.13869260251522064
1676104304.3607926,3212,1676104304,360391909,,0.0,0.5067220330238342,101,0.23999999463558197,6.267582416534424,0.4053576588630676
1676104304.4116175,3213,1676104304,409798285,,0.0,0.3944399356842041,98,0.17000000178813934,5.120815277099609,0.710052490234375
1676104304.4600954,3214,1676104304,459345808,,0.0,0.3165220618247986,95,0.12999999523162842,5.266142845153809,0.7493122816085815
1676104304.5119138,3215,1676104304,510766817,,0.0,0.28682810068130493,93,0.1599999964237213,4.45495080947876,0.6321095824241638
1676104304.5611584,3216,1676104304,560685876,,0.0,0.25941166281700134,93,0.029999999329447746,4.45495080947876,0.5709788799285889
1676104304.6109064,3217,1676104304,609717437,,0.0,0.17920349538326263,92,0.03999999910593033,4.497227668762207,0.37997692823410034
1676104304.6601765,3218,1676104304,659541545,,0.0,0.17438805103302002,91,0.07000000029802322,3.9344139099121094,0.06709040701389313
1676104304.711775,3219,1676104304,711117913,,0.0,0.19543778896331787,91,0.1599999964237213,4.079741477966309,-0.21794073283672333
1676104304.759817,3220,1676104304,758729337,,0.0,0.3282662332057953,90,0.18000000715255737,4.203930377960205,-0.3908052146434784
1676104304.8111188,3221,1676104304,810033714,,0.0,0.5634201765060425,90,0.2199999988079071,4.497227668762207,-0.42080655694007874
1676104304.8616893,3222,1676104304,860604915,,0.0,0.9040871858596802,90,0.23000000417232513,4.600278377532959,-0.3106318414211273
1676104304.916779,3223,1676104304,912753948,,0.0,1.1441212892532349,90,0.20000000298023224,4.996626377105713,-0.16554290056228638
1676104304.960268,3224,1676104304,959777586,,0.0,1.3189306259155273,89,0.1899999976158142,4.7878828048706055,-0.042244743555784225
1676104305.0118546,3225,1676104305,11333703,,0.0,1.3949408531188965,89,0.1599999964237213,4.890933513641357,0.0246567502617836
1676104305.0614536,3226,1676104305,59370779,,0.0,1.4007617235183716,89,0.15000000596046448,5.266142845153809,0.017123421654105186
1676104305.113655,3227,1676104305,112713257,,0.0,1.3571304082870483,90,0.15000000596046448,6.079977035522461,-0.012256448157131672
1676104305.1615415,3228,1676104305,160265363,,0.0,1.262637734413147,90,0.1599999964237213,6.079977035522461,-0.04410713165998459
1676104305.2118664,3229,1676104305,211195384,,0.0,1.133787751197815,91,0.17000000178813934,5.934649467468262,-0.06662070751190186
1676104305.2623458,3230,1676104305,261936416,,0.0,0.969438374042511,91,0.17000000178813934,5.474886417388916,-0.07357755303382874
1676104305.312174,3231,1676104305,310952347,,0.0,0.7969000339508057,91,0.17000000178813934,5.371835708618164,-0.07479860633611679
1676104305.361422,3232,1676104305,360905588,,0.0,0.5961830615997314,91,0.17000000178813934,5.2027268409729,-0.0752447172999382
1676104305.4113774,3233,1676104305,410010557,,0.0,0.4385831952095032,90,0.17000000178813934,5.120815277099609,-0.0655340924859047
1676104305.461073,3234,1676104305,460108259,,0.0,0.3150857985019684,90,0.17000000178813934,5.474886417388916,-0.0518205501139164
1676104305.5111926,3235,1676104305,510538781,,0.0,0.22255632281303406,90,0.17000000178813934,4.97548770904541,-0.029654113575816154
1676104305.5625901,3236,1676104305,562045923,,0.0,0.19469863176345825,89,0.1599999964237213,4.933210849761963,-0.016591431573033333
1676104305.611322,3237,1676104305,610577273,,0.0,0.2038138210773468,89,0.1599999964237213,4.914714336395264,-0.00770797161385417
1676104305.6623697,3238,1676104305,661940361,,0.0,0.22819240391254425,89,0.1599999964237213,5.141953945159912,-0.008755617775022984
1676104305.7155116,3239,1676104305,712625228,,0.0,0.23410595953464508,89,0.1599999964237213,5.141953945159912,-0.009459292516112328
1676104305.761539,3240,1676104305,761140438,,0.0,0.2226550281047821,89,0.1599999964237213,5.017764568328857,-0.010458487085998058
1676104305.81271,3241,1676104305,811664093,,0.0,0.19922897219657898,89,0.1599999964237213,4.705970764160156,-0.024071497842669487
1676104305.8628461,3242,1676104305,862377070,,0.0,0.17350435256958008,89,0.1599999964237213,4.642555236816406,-0.03293837979435921
1676104305.9140651,3243,1676104305,912953276,,0.0,0.12556640803813934,89,0.1599999964237213,4.100879669189453,-0.03578317537903786
1676104305.9616165,3244,1676104305,960487241,,0.0,0.07474707812070847,89,0.1599999964237213,4.745605945587158,-0.028322739526629448
1676104306.0112674,3245,1676104306,10741891,,0.0,0.021468274295330048,89,0.1599999964237213,4.933210849761963,-0.022718532010912895
1676104306.062239,3246,1676104306,61602911,,0.0,0.034404102712869644,89,0.1599999964237213,4.558001518249512,-0.02760213054716587
1676104306.1142726,3247,1676104306,112786239,,0.0,0.09005177021026611,89,0.1599999964237213,4.7878828048706055,-0.013573580421507359
1676104306.1612968,3248,1676104306,160510825,,0.0,0.12978753447532654,89,0.1599999964237213,4.558001518249512,-0.012238006107509136
1676104306.2135994,3249,1676104306,211975973,,0.0,0.17800229787826538,89,0.1599999964237213,4.890933513641357,-0.002032164018601179
1676104306.263624,3250,1676104306,262843256,,0.0,0.2109818458557129,89,0.1599999964237213,4.933210849761963,-0.005791244097054005
1676104306.3122764,3251,1676104306,311394681,,0.0,0.23300008475780487,89,0.1599999964237213,4.933210849761963,-0.010244389064610004
1676104306.3632188,3252,1676104306,362613549,,0.0,0.2457965463399887,89,0.1599999964237213,4.727109909057617,-0.01112804189324379
1676104306.4119527,3253,1676104306,411200162,,0.0,0.25044679641723633,89,0.1599999964237213,4.642555236816406,-0.014141666702926159
1676104306.4623296,3254,1676104306,461857483,,0.0,0.24876302480697632,89,0.1599999964237213,4.809021472930908,-0.02151813730597496
1676104306.5121725,3255,1676104306,511726119,,0.0,0.24239352345466614,89,0.1599999964237213,4.642555236816406,-0.022030718624591827
1676104306.5624554,3256,1676104306,561964593,,0.0,0.22526350617408752,89,0.1599999964237213,4.558001518249512,-0.014482062309980392
1676104306.616502,3257,1676104306,614075265,,0.0,0.20627878606319427,89,0.1599999964237213,4.663693904876709,-0.017447376623749733
1676104306.6623523,3258,1676104306,661857071,,0.0,0.1920037716627121,89,0.1599999964237213,5.060041904449463,-0.027015922591090202
1676104306.7120519,3259,1676104306,710865126,,0.0,0.16976556181907654,89,0.1599999964237213,4.621417045593262,-0.0252566896378994
1676104306.7618916,3260,1676104306,761102284,,0.0,0.1458747535943985,89,0.1599999964237213,4.7244672775268555,-0.021225858479738235
1676104306.8134606,3261,1676104306,812484529,,0.0,0.1324804276227951,89,0.1599999964237213,4.100879669189453,-0.030302340164780617
1676104306.8616388,3262,1676104306,860878784,,0.0,0.11992180347442627,89,0.1599999964237213,4.100879669189453,-0.031628817319869995
1676104306.9129515,3263,1676104306,912338206,,0.0,0.1072249710559845,89,0.1599999964237213,4.061244964599609,-0.025625310838222504
1676104306.9628232,3264,1676104306,962033533,,0.0,0.10773715376853943,89,0.1599999964237213,4.4760894775390625,-0.02780512347817421
1676104307.0150826,3265,1676104307,13665477,,0.0,0.10945665836334229,89,0.1599999964237213,4.4126739501953125,-0.030368439853191376
1676104307.0616896,3266,1676104307,60985757,,0.0,0.11073977500200272,89,0.1599999964237213,4.4126739501953125,-0.038930006325244904
1676104307.1141746,3267,1676104307,112419057,,0.0,0.11632702499628067,89,0.1599999964237213,4.933210849761963,-0.03480260819196701
1676104307.163731,3268,1676104307,162685329,,0.0,0.1206682100892067,89,0.1599999964237213,4.330761909484863,-0.0310793649405241
1676104307.2158284,3269,1676104307,213623427,,0.0,0.12098623067140579,89,0.1599999964237213,4.4760894775390625,-0.028968246653676033
1676104307.2630098,3270,1676104307,261482139,,0.0,0.12097567319869995,89,0.1599999964237213,4.164295673370361,-0.02383328787982464
1676104307.3139992,3271,1676104307,313214616,,0.0,0.11895754933357239,89,0.1599999964237213,4.288484573364258,-0.021086884662508965
1676104307.3634021,3272,1676104307,362808581,,0.0,0.12622876465320587,89,0.1599999964237213,4.288484573364258,-0.025581803172826767
1676104307.4123468,3273,1676104307,411830725,,0.0,0.1188109964132309,89,0.1599999964237213,4.933210849761963,-0.028141126036643982
1676104307.4655697,3274,1676104307,463298897,,0.0,0.1097928136587143,89,0.1599999964237213,4.954349040985107,-0.03451276943087578
1676104307.5123348,3275,1676104307,511657888,,0.0,0.10947419703006744,90,0.1599999964237213,4.851298809051514,-0.040025897324085236
1676104307.5626826,3276,1676104307,562271867,,0.0,0.10052379220724106,90,0.1599999964237213,4.745605945587158,-0.04163410887122154
1676104307.621999,3277,1676104307,614049853,,0.0,0.09092053025960922,90,0.1599999964237213,4.579139709472656,-0.034856922924518585
1676104307.6634939,3278,1676104307,662840303,,0.0,0.08377828449010849,90,0.1599999964237213,4.040106773376465,-0.02979971468448639
1676104307.7169254,3279,1676104307,714646862,,0.0,0.08276515454053879,90,0.1599999964237213,4.97548770904541,-0.018331686034798622
1676104307.7635837,3280,1676104307,763146565,,0.0,0.07715005427598953,90,0.1599999964237213,4.391534805297852,-0.009121427312493324
1676104307.8126009,3281,1676104307,811947040,,0.0,0.06545901298522949,90,0.1599999964237213,4.018968105316162,-0.016862092539668083
1676104307.8630335,3282,1676104307,862534040,,0.0,0.0583915151655674,90,0.1599999964237213,4.330761909484863,-0.03045533411204815
1676104307.9129746,3283,1676104307,912293623,,0.0,0.06080617010593414,90,0.1599999964237213,4.51836633682251,-0.0354275144636631
1676104307.9631116,3284,1676104307,962581538,,0.0,0.058223530650138855,90,0.1599999964237213,4.621417045593262,-0.03786979615688324
1676104308.0209174,3285,1676104308,14431586,,0.0,0.051247838884592056,90,0.1599999964237213,4.621417045593262,-0.03473323583602905
1676104308.0627043,3286,1676104308,61676751,,0.0,0.05699675902724266,90,0.1599999964237213,4.349257946014404,-0.0323982834815979
1676104308.1140728,3287,1676104308,113127572,,0.0,0.05474327132105827,89,0.1599999964237213,4.3096232414245605,-0.024942336603999138
1676104308.167247,3288,1676104308,163836186,,0.0,0.05392709746956825,89,0.1599999964237213,4.391534805297852,-0.018300814554095268
1676104308.2153153,3289,1676104308,214191688,,0.0,0.056890785694122314,89,0.1599999964237213,4.330761909484863,-0.020665351301431656
1676104308.263286,3290,1676104308,262803606,,0.0,0.05577508360147476,89,0.1599999964237213,4.4760894775390625,-0.0156888198107481
1676104308.3119593,3291,1676104308,311371740,,0.0,0.054698456078767776,89,0.1599999964237213,4.349257946014404,-0.015050836838781834
1676104308.3659685,3292,1676104308,363961054,,0.0,0.059711918234825134,89,0.1599999964237213,4.4760894775390625,-0.019758423790335655
1676104308.4155483,3293,1676104308,413913230,,0.0,0.057992398738861084,89,0.1599999964237213,4.7244672775268555,-0.01427106186747551
1676104308.4650702,3294,1676104308,464001873,,0.0,0.058430951088666916,89,0.1599999964237213,4.727109909057617,-0.01660313829779625
1676104308.5148385,3295,1676104308,512878686,,0.0,0.06265165656805038,89,0.1599999964237213,4.727109909057617,-0.021069321781396866
1676104308.5670378,3296,1676104308,565408762,,0.0,0.05762043595314026,89,0.1599999964237213,4.349257946014404,-0.03310338780283928
1676104308.6146133,3297,1676104308,613223775,,0.0,0.05862632393836975,89,0.1599999964237213,4.497227668762207,-0.02632838301360607
1676104308.6647496,3298,1676104308,663367042,,0.0,0.0506645105779171,89,0.1599999964237213,4.684832572937012,-0.021665852516889572
1676104308.71713,3299,1676104308,714540703,,0.0,0.049788787961006165,89,0.1599999964237213,4.5395050048828125,-0.02266507036983967
1676104308.7630506,3300,1676104308,762415936,,0.0,0.05406707525253296,89,0.1599999964237213,4.745605945587158,-0.010857274755835533
1676104308.8156025,3301,1676104308,814148087,,0.0,0.05482253432273865,90,0.1599999964237213,5.017764568328857,-0.003455910598859191
1676104308.8644385,3302,1676104308,863559635,,0.0,0.05238858237862587,89,0.1599999964237213,4.164295673370361,-0.00951378419995308
1676104308.918398,3303,1676104308,915394734,,0.0,0.04748399928212166,89,0.1599999964237213,4.705970764160156,-0.013771254569292068
1676104308.9629254,3304,1676104308,962445379,,0.0,0.0476890429854393,90,0.1599999964237213,4.370396614074707,-0.007777801714837551
1676104309.0164547,3305,1676104309,14389116,,0.0,0.04742475971579552,89,0.1599999964237213,4.933210849761963,-0.0004905792884528637
1676104309.065264,3306,1676104309,64490435,,0.0,0.04308360442519188,89,0.15000000596046448,4.727109909057617,-0.008645891211926937
1676104309.11341,3307,1676104309,112671209,,0.0,0.0399518646299839,89,0.1599999964237213,4.727109909057617,-0.019384173676371574
1676104309.1639369,3308,1676104309,163259247,,0.0,0.04484862834215164,89,0.1599999964237213,4.51836633682251,-0.016774214804172516
1676104309.2141068,3309,1676104309,213326139,,0.0,0.04307716712355614,89,0.1599999964237213,4.100879669189453,-0.02544819749891758
1676104309.2634482,3310,1676104309,262422595,,0.0,0.04252300411462784,89,0.1599999964237213,4.558001518249512,-0.018067365512251854
1676104309.3162198,3311,1676104309,315202016,,0.0,0.04361611232161522,89,0.1599999964237213,4.766744613647461,-0.011497469618916512
1676104309.3649168,3312,1676104309,363334151,,0.0,0.04255393519997597,89,0.1599999964237213,4.642555236816406,-0.012061776593327522
1676104309.4168754,3313,1676104309,416144886,,0.0,0.0444856733083725,89,0.1599999964237213,5.060041904449463,-0.016411731019616127
1676104309.4632382,3314,1676104309,462763520,,0.0,0.04368482902646065,89,0.1599999964237213,5.181588649749756,-0.009003621526062489
1676104309.5158045,3315,1676104309,514186992,,0.0,0.04440658539533615,89,0.1599999964237213,4.330761909484863,-0.010731393471360207
1676104309.5635223,3316,1676104309,562799601,,0.0,0.04425573721528053,89,0.1599999964237213,3.7045319080352783,-0.013066534884274006
1676104309.616267,3317,1676104309,615496050,,0.0,0.042732980102300644,89,0.1599999964237213,3.78908634185791,-0.017967546358704567
1676104309.664828,3318,1676104309,663409116,,0.0,0.041932929307222366,89,0.1599999964237213,3.78908634185791,-0.017901696264743805
1676104309.713493,3319,1676104309,712478576,,0.0,0.04090212285518646,89,0.1599999964237213,3.643758773803711,-0.012665467336773872
1676104309.7641878,3320,1676104309,762811303,,0.0,0.038290660828351974,89,0.1599999964237213,4.143157005310059,-0.0024986285716295242
1676104309.815186,3321,1676104309,814331996,,0.0,0.037121307104825974,89,0.1599999964237213,4.45495080947876,-2.430650420137681e-05
1676104309.8660986,3322,1676104309,865584576,,0.0,0.038637470453977585,89,0.1599999964237213,4.933210849761963,-0.002111237496137619
1676104309.9221787,3323,1676104309,913346891,,0.0,0.03420782834291458,89,0.1599999964237213,4.016325950622559,-0.0030218190513551235
1676104309.9647844,3324,1676104309,964184440,,0.0,0.03857464715838432,89,0.1599999964237213,3.955552339553833,-0.0132939163595438
1676104310.0171444,3325,1676104310,15763450,,0.0,0.03704376891255379,89,0.1599999964237213,4.079741477966309,-0.013997801579535007
1676104310.0642815,3326,1676104310,63461270,,0.0,0.03784112259745598,89,0.1599999964237213,3.9344139099121094,-0.011577073484659195
1676104310.11693,3327,1676104310,114691493,,0.0,0.028925495222210884,89,0.1599999964237213,3.78908634185791,-0.015242488123476505
1676104310.1656828,3328,1676104310,164988537,,0.0,0.03356518596410751,89,0.1599999964237213,4.45495080947876,-0.018865859135985374
1676104310.215164,3329,1676104310,213607030,,0.0,0.03716231882572174,89,0.1599999964237213,4.45495080947876,-0.02005738951265812
1676104310.2660227,3330,1676104310,265062951,,0.0,0.03117392770946026,89,0.1599999964237213,4.3096232414245605,-0.012100600637495518
1676104310.316376,3331,1676104310,314598280,,0.0,0.03280944004654884,89,0.1599999964237213,3.725670576095581,-0.008441179059445858
1676104310.3666534,3332,1676104310,364777630,,0.0,0.031863197684288025,89,0.1599999964237213,3.477292776107788,-0.0021153874695301056
1676104310.4167364,3333,1676104310,415648897,,0.0,0.03086724877357483,89,0.1599999964237213,4.143157005310059,0.006731799803674221
1676104310.464465,3334,1676104310,463341511,,0.0,0.029884982854127884,89,0.1599999964237213,4.497227668762207,0.006613427307456732
1676104310.5164983,3335,1676104310,514832136,,0.0,0.030656641349196434,89,0.1599999964237213,4.391534805297852,0.0051518818363547325
1676104310.5668948,3336,1676104310,566343217,,0.0,0.030008690431714058,89,0.1599999964237213,3.9344139099121094,-0.003432691330090165
1676104310.6165793,3337,1676104310,614910533,,0.0,0.025955500081181526,89,0.1599999964237213,3.955552339553833,-0.008309848606586456
1676104310.6655815,3338,1676104310,663413351,,0.0,0.02523554302752018,89,0.1599999964237213,4.100879669189453,-0.011720225214958191
1676104310.7173579,3339,1676104310,716751917,,0.0,0.02712852507829666,89,0.1599999964237213,3.810224771499634,-0.013253927230834961
1676104310.765356,3340,1676104310,764570007,,0.0,0.029165608808398247,89,0.1599999964237213,3.7468090057373047,-0.0069604357704520226
1676104310.8171885,3341,1676104310,815835657,,0.0,0.02359202317893505,89,0.1599999964237213,3.7468090057373047,0.003941654693335295
1676104310.8651044,3342,1676104310,863260828,,0.0,0.028924593701958656,89,0.1599999964237213,4.288484573364258,0.010287079028785229
1676104310.9192212,3343,1676104310,917420085,,0.0,0.021524954587221146,89,0.1599999964237213,4.122018814086914,-0.005682323593646288
1676104310.9668329,3344,1676104310,964914238,,0.0,0.01711452566087246,89,0.1599999964237213,4.433812141418457,-0.0015723586548119783
1676104311.0177922,3345,1676104311,15992426,,0.0,0.018233302980661392,89,0.1599999964237213,4.433812141418457,-0.012258322909474373
1676104311.0660064,3346,1676104311,65358091,,0.0,0.020836569368839264,89,0.1599999964237213,3.9978294372558594,-0.013564947992563248
1676104311.1187243,3347,1676104311,116224058,,0.0,0.020234856754541397,89,0.1599999964237213,4.663693904876709,-0.0006888401112519205
1676104311.1667793,3348,1676104311,166237588,,0.0,0.021976429969072342,89,0.1599999964237213,4.745605945587158,0.016401216387748718
1676104311.216922,3349,1676104311,214232316,,0.0,0.01900983788073063,89,0.15000000596046448,4.203930377960205,0.01316847838461399
1676104311.2656376,3350,1676104311,264856802,,0.0,0.028191382065415382,89,0.15000000596046448,4.164295673370361,0.0028826380148530006
1676104311.3180847,3351,1676104311,316804737,,0.0,0.027726389467716217,89,0.1599999964237213,4.164295673370361,0.0019102822989225388
1676104311.366528,3352,1676104311,365534117,,0.0,0.024611758068203926,89,0.1599999964237213,4.433812141418457,-0.0036426393780857325
1676104311.419617,3353,1676104311,417449924,,0.0,0.022516824305057526,89,0.1599999964237213,4.642555236816406,-0.005384159740060568
1676104311.4662328,3354,1676104311,464783020,,0.0,0.02518378011882305,89,0.1599999964237213,4.225069046020508,-0.00893984641879797
1676104311.5174196,3355,1676104311,516373467,,0.0,0.024470068514347076,89,0.1599999964237213,4.727109909057617,0.00044342823093757033
1676104311.5677435,3356,1676104311,566994155,,0.0,0.030897481366991997,89,0.1599999964237213,4.203930377960205,0.001987508498132229
1676104311.617459,3357,1676104311,616443365,,0.0,0.029855376109480858,89,0.1599999964237213,4.016325950622559,-0.002140893368050456
1676104311.6669042,3358,1676104311,665264016,,0.0,0.03189077973365784,89,0.1599999964237213,4.51836633682251,-0.0029033515602350235
1676104311.717839,3359,1676104311,716780387,,0.0,0.030712593346834183,89,0.1599999964237213,4.558001518249512,0.00284591899253428
1676104311.7655675,3360,1676104311,764014782,,0.0,0.03236906975507736,89,0.1599999964237213,3.8498594760894775,0.006818053312599659
1676104311.8177817,3361,1676104311,815134756,,0.0,0.02845722809433937,89,0.1599999964237213,4.4760894775390625,0.0035873358137905598
1676104311.866005,3362,1676104311,864394568,,0.0,0.02949044108390808,89,0.1599999964237213,5.163092136383057,0.008613376878201962
1676104311.9168432,3363,1676104311,914710278,,0.0,0.02688509412109852,89,0.1599999964237213,4.349257946014404,-0.004593865480273962
1676104311.9667797,3364,1676104311,966049239,,0.0,0.027904314920306206,89,0.1599999964237213,4.349257946014404,-0.007749561686068773
1676104312.0182285,3365,1676104312,17081518,,0.0,0.03372472524642944,89,0.1599999964237213,4.288484573364258,-0.0028117033652961254
1676104312.0682507,3366,1676104312,65172655,,0.0,0.03470342978835106,89,0.1599999964237213,4.663693904876709,-0.0033852714113891125
1676104312.1180463,3367,1676104312,117013671,,0.0,0.03428719937801361,89,0.1599999964237213,3.9766910076141357,0.003506499109789729
1676104312.1677556,3368,1676104312,166723058,,0.0,0.029889710247516632,89,0.1599999964237213,4.288484573364258,-0.0001287545746890828
1676104312.2163122,3369,1676104312,215192132,,0.0,0.025741567835211754,89,0.1599999964237213,4.246207237243652,0.0014920788817107677
1676104312.2659144,3370,1676104312,265272731,,0.0,0.022738134488463402,89,0.1599999964237213,4.227711200714111,-0.009974272921681404
1676104312.3181558,3371,1676104312,316819113,,0.0,0.022311119362711906,89,0.1599999964237213,4.370396614074707,-0.0054094442166388035
1676104312.366342,3372,1676104312,364836970,,0.0,0.02492481656372547,89,0.1599999964237213,4.558001518249512,-0.015539567917585373
1676104312.418784,3373,1676104312,417731721,,0.0,0.014398302882909775,89,0.1599999964237213,4.705970764160156,-0.007971184328198433
1676104312.4668999,3374,1676104312,466261679,,0.0,0.022589819505810738,89,0.1599999964237213,4.705970764160156,-0.005039655137807131
1676104312.518878,3375,1676104312,517599729,,0.0,0.02053527534008026,89,0.1599999964237213,4.4760894775390625,-0.00732008833438158
1676104312.56731,3376,1676104312,564637280,,0.0,0.012113160453736782,89,0.1599999964237213,4.642555236816406,-0.009148940443992615
1676104312.6174839,3377,1676104312,615852451,,0.0,0.007852957583963871,89,0.1599999964237213,4.581782341003418,-0.013720148243010044
1676104312.6675224,3378,1676104312,666547167,,0.0,0.007034518755972385,89,0.1599999964237213,4.349257946014404,-0.010095992125570774
1676104312.7180753,3379,1676104312,717151150,,0.0,0.009766831062734127,89,0.1599999964237213,4.684832572937012,-0.004814184736460447
1676104312.7656136,3380,1676104312,764400774,,0.0,0.01064236182719469,89,0.1599999964237213,4.642555236816406,-0.000776090135332197
1676104312.8158805,3381,1676104312,814908836,,0.0,0.0064372774213552475,89,0.1599999964237213,4.267346382141113,-0.008556743152439594
1676104312.8663983,3382,1676104312,865643924,,0.0,0.010659546591341496,89,0.1599999964237213,4.497227668762207,-0.013285504654049873
1676104312.9166617,3383,1676104312,914803692,,0.0,0.0062779453583061695,89,0.1599999964237213,4.288484573364258,-0.01552878599613905
1676104312.9670377,3384,1676104312,966694160,,0.0,0.008214469999074936,89,0.1599999964237213,4.3096232414245605,-0.014158853329718113
1676104313.0169218,3385,1676104313,16309014,,0.0,0.004587916657328606,89,0.1599999964237213,4.663693904876709,-0.008513931185007095
1676104313.0671744,3386,1676104313,66131926,,0.0,0.007866156287491322,89,0.1599999964237213,4.663693904876709,-0.006051922217011452
1676104313.1158965,3387,1676104313,114553108,,0.0,0.008242826908826828,89,0.1599999964237213,4.246207237243652,-0.0031317826360464096
1676104313.1661835,3388,1676104313,165286815,,0.0,0.007007482461631298,89,0.1599999964237213,4.288484573364258,-0.004410294815897942
1676104313.2172532,3389,1676104313,216350654,,0.0,0.008645222522318363,89,0.1599999964237213,4.267346382141113,-0.007259125355631113
1676104313.2674036,3390,1676104313,266835883,,0.0,0.01910773664712906,89,0.1599999964237213,4.433812141418457,-0.005553726572543383
1676104313.3172226,3391,1676104313,314949779,,0.0,0.026072107255458832,89,0.1599999964237213,4.330761909484863,-0.008226709440350533
1676104313.3670835,3392,1676104313,366214534,,0.0,0.027079708874225616,89,0.1599999964237213,3.9951870441436768,-0.001616940600797534
