Time,header.seq,header.stamp.secs,header.stamp.nsecs,header.frame_id,twist.linear.x,twist.linear.y,twist.linear.z,twist.angular.x,twist.angular.y,twist.angular.z
1676104290.0589812,245,1676104289,802582528,base_link,0.003233314958257972,-0.003277876420826731,-0.0028464735415434806,0.002429263200610876,0.0009023197926580906,4.257951513864089e-05
1676104290.059033,246,1676104289,832582528,base_link,0.002909373170062872,-0.003363570268203888,-0.0029047060236084368,0.003153489902615547,0.001679191365838051,0.0017957568634301422
1676104290.0591114,247,1676104289,872582528,base_link,0.0029609714372061946,-0.003474020716348369,-0.0031267623650873206,0.0009941133903339505,0.0014714624267071488,0.0011459997622296212
1676104290.059182,248,1676104289,902582528,base_link,0.0032659257369613863,-0.003491172909677296,-0.0030017408363527003,0.00025388842914253473,0.001324697397649288,-0.001505750115029514
1676104290.0592499,249,1676104289,932586880,base_link,0.0031333082417132002,-0.00359537493083192,-0.002924097028598836,-0.0008253981359302998,-0.0008250907412730157,-0.0002533821389079093
1676104290.0593581,250,1676104289,972586880,base_link,0.003139237799605534,-0.003733618732330358,-0.0025349017976029815,0.002507865196093917,0.0007507945410907269,0.0004096513439435511
1676104290.0594304,251,1676104290,2586880,base_link,0.0031178765651353776,-0.003593883376841477,-0.0027276968278778413,-0.0023574824444949627,0.0005699804751202464,-0.00017659252625890084
1676104290.0594878,252,1676104290,32591488,base_link,0.003209344219300528,-0.0035373014131015075,-0.002707686254318455,-0.0010028164833784103,-0.0008016946958377957,0.0004288060299586506
1676104290.078929,253,1676104290,72591488,base_link,0.003406057728224752,-0.0036292037515620393,-0.0024991205912622007,-0.0005250935209915042,0.0007697930559515954,0.0007597723742946981
1676104290.1094663,254,1676104290,102591488,base_link,0.003293909810123567,-0.003420471788359273,-0.0027306603656416955,0.000637873075902462,0.0005483238492161036,0.00012581076589412982
1676104290.1412728,255,1676104290,132595584,base_link,0.0033223365851016706,-0.003591937792670933,-0.002895172061202217,0.0013836314901709557,-0.0004436840536072852,-0.0013486887328326702
1676104290.1762028,256,1676104290,172595584,base_link,0.0033803659270601606,-0.0036632099050483012,-0.002806519038993774,-0.002155967289581895,0.0018383165588602424,-8.723521023057424e-05
1676104290.2083123,257,1676104290,202595584,base_link,0.0036352332217859606,-0.0037476243625599198,-0.003069406871055961,0.002581306966021657,0.0003084547352045777,0.0022372989915311337
1676104290.2414105,258,1676104290,232599936,base_link,0.0036211736260827136,-0.003984113606298532,-0.003099029570896299,0.0007040246855467558,0.0003444215981289744,-0.00022872084809932863
1676104290.2761488,259,1676104290,272599936,base_link,0.003517415644289858,-0.0037823961812750743,-0.002807192849125527,-0.0004742788150906563,-0.00011254067067056905,-0.0008684563217684627
1676104290.3097587,260,1676104290,302599936,base_link,0.0036807977251790114,-0.003641295431752339,-0.0027899673952176303,0.0021167949307709932,-0.0008410307345911862,-0.0011186788324266672
1676104290.3423026,261,1676104290,332604032,base_link,0.0034379979268107526,-0.003530151531022147,-0.003028759677100403,-0.0021329629234969616,-0.0009368954924866558,-0.0009908454958349464
1676104290.3754797,262,1676104290,372604032,base_link,0.003285456866021012,-0.003724546393960247,-0.003003454182789776,0.001972275087609887,0.0011294815922155976,-1.4637131243944307e-05
1676104290.408962,263,1676104290,402604032,base_link,0.0033532487272304595,-0.0037975514775864514,-0.0031330104202758956,-0.00027467147447168827,-0.0006638318300247193,-0.0006919213337823748
1676104290.441917,264,1676104290,432608640,base_link,0.0033175464964311256,-0.004073034477612539,-0.003063047755586571,-0.0032177534885704517,-0.00017547170864418165,-0.001267280662432313
1676104290.478518,265,1676104290,472608640,base_link,0.0033672929524644866,-0.0045422201506636,-0.0029249595235978933,0.0009377631358802319,-0.0014446256682276724,0.0009041855810210111
1676104290.5107994,266,1676104290,502608640,base_link,0.0033404739550967175,-0.004563974632371584,-0.002797121735348402,0.0010947163682430983,0.001143120811320841,-0.0010286988690495493
1676104290.5412266,267,1676104290,531612992,base_link,0.0031974100909460115,-0.004779773066212637,-0.002656898427534735,0.00043180910870432854,-6.305752322077737e-06,0.00011958743561990559
1676104290.5751657,268,1676104290,571612992,base_link,0.003223187546546319,-0.004770077031646047,-0.0025290080645398454,0.0017844210378825665,8.892850019037608e-06,-0.0009362765122205019
1676104290.610409,269,1676104290,602612992,base_link,0.0033679361795752433,-0.004681913473735091,-0.0024540023940229894,0.0014809323474764824,-0.00014311267295852304,2.9313523555174487e-05
1676104290.6420903,270,1676104290,631617600,base_link,0.00302785219340559,-0.004805190064498754,-0.002213374117547198,-0.0017200972652062774,-0.00044318340951576834,-0.0005909204483032225
1676104290.6754777,271,1676104290,671617600,base_link,0.003037305130822574,-0.004878417232750194,-0.0023307592832894322,-0.002149751177057624,-0.0006272101891227068,-0.0005687124212272464
1676104290.7084663,272,1676104290,701617600,base_link,0.0031231086617485703,-0.0049481231238513316,-0.0022586291630821093,0.0018176191952079535,0.0009190192213281989,0.0002586782502476125
1676104290.7415698,273,1676104290,731622208,base_link,0.00328192628192678,-0.005209344050126023,-0.0023467724512949233,-0.0003193881129845977,-0.0020172016229480505,0.0010123832616955044
1676104290.776388,274,1676104290,771622208,base_link,0.003697840660340953,-0.005304254444039783,-0.002292870293015799,-0.0006755577633157372,0.0010025344090536237,0.00032690950320102264
1676104290.8081138,275,1676104290,801622208,base_link,0.003581030520455405,-0.005248794076834987,-0.002089574299778869,0.0008275886066257954,-0.001231252565048635,-0.00028302898863330467
1676104290.8411517,276,1676104290,831626816,base_link,0.0037143463968774973,-0.005159226572662841,-0.0022699909177880382,-0.0009544580243527889,-0.0014160238206386566,0.0008409835863858464
1676104290.8758926,277,1676104290,861626816,base_link,0.0034260644076678187,-0.005141826151360115,-0.002036600368887506,0.0020244864281266928,3.9219507016241584e-05,0.0002738159673754126
1676104290.9087975,278,1676104290,896626816,base_link,0.0036697564477155575,-0.005200293907686135,-0.0019456563292486004,-0.001662763999775052,-0.00030527234775945555,-0.0007348186336457729
1676104290.9413848,279,1676104290,936631424,base_link,0.003919535332827814,-0.005190212259587355,-0.0019868825827473345,-0.0006751380860805511,0.0008718392346054317,0.00046628384734503914
1676104290.9753277,280,1676104290,966631424,base_link,0.00398569037017085,-0.005281744503560259,-0.0021976497714045274,0.0029743092600256205,-0.0003206333494745193,0.0018560774624347687
1676104291.0108268,281,1676104291,6635776,base_link,0.004365032462083154,-0.0054433218867835104,-0.0024495049406603403,0.002236907137557864,0.00025567959528416406,0.0007983840769156814
1676104291.0430353,282,1676104291,36635776,base_link,0.004374023204834286,-0.0054323886267831824,-0.002570339467763256,0.002361074322834611,0.002017159480601549,0.0006215332541614769
1676104291.0762756,283,1676104291,66635776,base_link,0.004292244912416805,-0.005393262991212286,-0.0025805742209702065,-0.0024354064371436834,8.857285138219587e-05,-0.0006419307319447398
1676104291.1090975,284,1676104291,106635776,base_link,0.00426953317575912,-0.005286696692882422,-0.0028592763908661984,0.0015648719854652882,0.001204472384415567,8.257824811153099e-05
1676104291.1446035,285,1676104291,136639872,base_link,0.004252857605536275,-0.005206686100785174,-0.0026161938254836226,-0.001872682711109519,0.00010797346476465477,0.0011581367580220103
1676104291.1749458,286,1676104291,166639872,base_link,0.00414996753522861,-0.0051966355460055765,-0.0026272672946284882,-0.0012049453798681498,0.0006320540560409427,0.0003881262673530727
1676104291.2103503,287,1676104291,206644480,base_link,0.004021548845555777,-0.0054147765485308514,-0.0027471058859369676,-0.00332877435721457,0.0002473209751769902,0.0014180324506014585
1676104291.2434123,288,1676104291,236644480,base_link,0.0038815714179017973,-0.005711067562189152,-0.0026847255268921226,-0.0003210941795259714,-0.0009753984049893916,0.00033570404048077773
1676104291.2759075,289,1676104291,266644480,base_link,0.003979224928713443,-0.005814315340649139,-0.00251086827610316,0.000861473148688674,-0.001414122059941292,-0.001116283470764756
1676104291.309757,290,1676104291,306644480,base_link,0.00411031896935868,-0.005790951675617682,-0.002449963530398707,0.0007664947770535946,0.00012289953883737337,0.0009229016723111272
1676104291.3407974,291,1676104291,336648832,base_link,0.004151837294221958,-0.005739273641385192,-0.00250005456453924,-0.0013896897435188293,0.0001284414902329445,-0.00010365506750531496
1676104291.3747015,292,1676104291,366648832,base_link,0.004036993805861938,-0.005773929394067656,-0.0025281328256942757,0.000948428176343441,0.002299840562045574,-0.00043810255010612336
1676104291.4102144,293,1676104291,406653440,base_link,0.004042815547108053,-0.0055389986005299225,-0.0028086584712078925,0.002338825026527047,1.6202800907194655e-05,0.00034013009280897677
1676104291.4443836,294,1676104291,436653440,base_link,0.0038149450798942446,-0.005636263295413458,-0.002715391964060485,-0.0009311664616689086,-0.0006734233465977013,0.00014653734979219743
1676104291.4761162,295,1676104291,466653440,base_link,0.003678429856382402,-0.005670484722259373,-0.0024805740647051854,0.0012519259471446276,0.0018064392497763038,0.0008801162475720046
1676104291.5101545,296,1676104291,506658048,base_link,0.0036586766411887124,-0.00568540285129758,-0.002563893554108181,0.0003872206434607506,8.175265975296507e-05,0.0007214416982606053
1676104291.5410125,297,1676104291,535658048,base_link,0.0035837889519431763,-0.00558149865022265,-0.002411507011957068,0.0031158418860286474,0.0015365219442173839,5.068295286037009e-05
1676104291.5760176,298,1676104291,566658048,base_link,0.0034428411972809076,-0.00562902674933441,-0.0023861317829579334,-0.002904413966462016,0.000316714053042233,-0.00013879817561246457
1676104291.6099703,299,1676104291,605662656,base_link,0.0037461853439345947,-0.0061279985664983855,-0.0022834811736426866,-0.0027209261897951365,-0.0007459917105734348,-5.123787559568873e-05
1676104291.6430712,300,1676104291,635662656,base_link,0.0035670653997669924,-0.006344728463347479,-0.0022264639576253225,0.00022969325073063374,9.3264621682465e-05,-0.0007003526552580297
1676104291.6761508,301,1676104291,666662656,base_link,0.0034988227083696728,-0.00636001459323284,-0.002202115031700781,0.0011972945649176836,0.0003691985039040448,0.0011830575531348586
1676104291.7094107,302,1676104291,705662656,base_link,0.0036130152040786804,-0.006412841944194417,-0.0018377073980602081,-0.001907252473756671,-0.001532221329398453,0.0020769708789885044
1676104291.7448785,303,1676104291,735667264,base_link,0.0033354821307684172,-0.006342233671160195,-0.001749722137160683,-0.00025132426526397467,-2.1206564269960008e-05,-0.0006706531858071685
1676104291.775838,304,1676104291,765667264,base_link,0.0033685671596795797,-0.006208414907638133,-0.0017463297185161678,-0.00010633456986397505,-0.001765677006915212,-0.001486781286075711
1676104291.8095937,305,1676104291,805667264,base_link,0.003140378169805139,-0.0060615599359510434,-0.0015966591856400377,-0.0009040649747475982,-0.00014420831575989704,0.0015668636187911034
1676104291.8411705,306,1676104291,835671872,base_link,0.0030606955490889653,-0.006060961861386981,-0.0015668863739420808,0.0029908076394349337,-0.0016549827996641397,-0.0003248479333706198
1676104291.875102,307,1676104291,865671872,base_link,0.0028478198457840107,-0.005879253585593118,-0.0012318811475899112,0.0009941994212567806,0.0001648099860176445,0.0005701720947399735
1676104291.910326,308,1676104291,905676736,base_link,0.002573079574577109,-0.005963393214007468,-0.0011291741773289295,0.0024262925144284964,-0.0009298386867158115,-3.4826894989237074e-05
1676104291.9448242,309,1676104291,935676736,base_link,0.0025401582861820067,-0.00579702337448901,-0.0012426584352314704,0.001982596004381776,0.0004080986836925148,-0.0010602165712043643
1676104291.9771628,310,1676104291,965676736,base_link,0.002376146195421113,-0.00592048093403049,-0.0009852683131830946,0.00043327128514647484,0.0004360803868621587,-0.00039204896893352276
1676104292.0103483,311,1676104292,5681344,base_link,0.0022251103374858697,-0.005861641755979206,-0.0010110536617510286,0.00019960617646574974,-0.0003199352067895232,0.0012416326208040118
1676104292.0454245,312,1676104292,35681344,base_link,0.0023317051172612,-0.0059191155638608,-0.0006878700585810867,-0.0014518756652250886,-0.004112836439162493,0.0004414436116348957
1676104292.0763648,313,1676104292,65681344,base_link,0.0020004929694489243,-0.005901112733165233,-0.0006882876753707321,0.001996957464143634,-0.0002897283993661405,-0.0007155152270570397
1676104292.1105754,314,1676104292,105681344,base_link,0.0017976858046954605,-0.005805853814281573,-0.000710662627513487,-0.001874491455964744,-0.0010244521545246243,-0.0005733787547796964
1676104292.143139,315,1676104292,135685184,base_link,0.0013648588068715648,-0.005967370146379933,-0.0006446062028475066,-0.0007796430727466941,1.9190832972526682e-05,0.0010717773111537099
1676104292.1760995,316,1676104292,165685184,base_link,0.001289675836371965,-0.005955928667015818,-0.0004843731737459885,0.0022664249408990145,-0.0004814718849956989,0.0005297582829371096
1676104292.2094197,317,1676104292,205685184,base_link,0.0013899186138666285,-0.006148010955828617,-0.00023063040562043425,-0.0005212543765082955,0.0018586994847282767,0.0006409370107576249
1676104292.242157,318,1676104292,235689792,base_link,0.0010082653610018768,-0.006307613854357507,-0.0001163689203746179,0.0038898445200175047,-0.00011956796515733008,-0.00033969158539548516
1676104292.2776382,319,1676104292,265689792,base_link,0.0007320540373556516,-0.006516274456068061,7.204184128918987e-05,-0.0028084637597203255,0.000413740403018892,0.0014964239671826363
1676104292.3099177,320,1676104292,305689792,base_link,0.0009183727056844574,-0.006595929588415735,3.468484660467352e-05,0.00036107050254940987,0.0008002135436981916,0.0002272902347613125
1676104292.3421583,321,1676104292,335694912,base_link,0.0005157274178972984,-0.006625450242628244,1.1246481761477618e-05,0.0024374902714043856,-0.0026057420764118433,0.0005226858193054799
1676104292.3760982,322,1676104292,365694912,base_link,0.0002136804040124916,-0.006397646416000383,0.00016355833768155672,-0.0024258773773908615,-0.0003387556644156576,-0.000290986499749124
1676104292.4081082,323,1676104292,405694912,base_link,7.980804414054471e-05,-0.006374399687881406,0.0004113772290599896,-0.0009234251920133829,0.0014012920437380672,-0.0008828880963847043
1676104292.4409761,324,1676104292,435699776,base_link,-0.00024476686279703265,-0.006421723387193134,0.0004945235240225191,-0.0028025333303958178,-0.00046105816727504145,-0.0007859987672418355
1676104292.4745295,325,1676104292,465699776,base_link,-0.00036074161712368086,-0.006277391813390159,0.00043432684815376376,-0.003186639863997698,-0.003094445448368788,-0.002098223194479942
1676104292.5101545,326,1676104292,505704640,base_link,-0.0006039225470009856,-0.006141280039000433,0.0007615751366148657,-0.0018376567168161273,-0.0007158039370551705,-0.0001357263536192476
1676104292.543162,327,1676104292,535704640,base_link,-0.000666296176479,-0.006210117750734352,0.0010042027960495573,0.0013959072530269623,-0.0008259322494268417,0.00023485938436351727
1676104292.576797,328,1676104292,564704640,base_link,-0.0009047131122003142,-0.0061066149908287366,0.0007944478938660278,0.0026862488593906164,0.0022821631282567974,-0.0020943866111338143
1676104292.6095645,329,1676104292,605704640,base_link,-0.0010825124137006058,-0.006301436233907354,0.001163003639762494,-0.0011501973494887352,-0.00047152157640084624,4.9030844820663394e-05
1676104292.6426094,330,1676104292,635708992,base_link,-0.001246374647703907,-0.006312762324256266,0.0013030899917593753,0.0008032133337110281,0.0016575314803048968,0.000611038878560066
1676104292.6766667,331,1676104292,664708992,base_link,-0.0011711388328135624,-0.006343892211900607,0.001100278375858735,0.0009627833496779203,2.8116744942963266e-05,0.0011515638325363398
1676104292.708025,332,1676104292,705708992,base_link,-0.001168394013201393,-0.006514360631351676,0.0015503795825246181,-0.0011708156671375036,0.0011401291703805327,0.00030696028261445446
1676104292.7412984,333,1676104292,734713856,base_link,-0.0015267014744575183,-0.006699017762504129,0.001393904106923349,0.0021219828631728888,0.0015111578395590186,0.0006073110271245239
1676104292.7755065,334,1676104292,764713856,base_link,-0.0017058026722791676,-0.007004658885434872,0.0013755478662887464,-0.002433286514133215,-0.0012757881777361035,0.0008133619558066131
1676104292.810155,335,1676104292,804713856,base_link,-0.0017683562777796248,-0.007047241489671962,0.0014516754707505995,0.002381479600444436,0.0007015737937763334,0.0006667623529210686
1676104292.8421853,336,1676104292,834719488,base_link,-0.0017791205087544031,-0.006836725675466128,0.0014660761739768728,0.0008997074328362942,0.0010767359053716063,2.581308945082115e-05
1676104292.8759086,337,1676104292,864719488,base_link,-0.0018287378478836886,-0.006864695996293339,0.0013568348421177509,-0.0005265615181997418,0.0008050004253163934,-0.00021255825413391005
1676104292.9084477,338,1676104292,904719488,base_link,-0.0018162593828473933,-0.0068845696799190335,0.0016995545610591022,0.001681874506175518,-0.0010111818555742502,0.000310990057187155
1676104292.94219,339,1676104292,934724096,base_link,-0.0017769366805817954,-0.006848710767062985,0.0019113693114950294,-0.0016091384459286928,-0.001022533397190273,-0.0011794029269367454
1676104292.9740438,340,1676104292,964724096,base_link,-0.0019396323938861073,-0.006798726376301875,0.0018657799410633869,0.002047134330496192,0.00010447727981954839,0.0020595325622707605
1676104293.0098903,341,1676104293,4728704,base_link,-0.002020554771587437,-0.006433836546591417,0.002015181853569053,0.0026921473909169436,-1.940981019288306e-05,-0.00035003124503418803
1676104293.043309,342,1676104293,34728704,base_link,-0.0021389972221634865,-0.006370694153387914,0.002210186168497955,-0.0009442073060199618,0.00033022544812411075,0.000558550818823278
1676104293.0765624,343,1676104293,64728704,base_link,-0.0021315922852120444,-0.006228042001960076,0.0022389206636935495,0.0016127645503729582,-0.0007281844154931603,0.0013666534796357155
1676104293.109181,344,1676104293,104728704,base_link,-0.0020073726686357586,-0.006195984614080162,0.002514121349219612,-0.002218114212155342,-0.0006256281048990786,0.00043723292765207594
1676104293.1406195,345,1676104293,134731520,base_link,-0.002139876057558501,-0.006428072528359018,0.0026093793663261103,0.0012816404923796654,-0.0007963154930621384,0.0005129835335537792
1676104293.176023,346,1676104293,164731520,base_link,-0.0021485298029182047,-0.0063940534886606035,0.0027064887831635006,0.0016373905818909407,-0.0004349827650003136,-0.0004732059314846992
1676104293.2099066,347,1676104293,204731520,base_link,-0.0017823096054905936,-0.0062627170689696365,0.0026784045830542773,0.001783493673428893,0.0017437824280932548,0.0011239533778280018
1676104293.2420137,348,1676104293,234735872,base_link,-0.001796714508889839,-0.006380829050426578,0.002653221984704298,-0.00032849807757884264,0.0013910263078287244,-0.0003282045363448562
1676104293.275761,349,1676104293,264735872,base_link,-0.0014421899009037105,-0.006421808161106711,0.0025613459349034624,-0.0026648673228919506,0.00017181667499244208,-0.0004971788730472326
1676104293.308083,350,1676104293,304735872,base_link,-0.0013714436597195268,-0.006252327929379781,0.0025165873562253594,0.002088581444695592,-0.0004931812873110176,-0.0005296110175549983
1676104293.3411133,351,1676104293,334740480,base_link,-0.001339433625801073,-0.0058934759049561886,0.002596504096258994,0.0004377700388431549,-0.0004008864052593706,0.0015592984855175018
1676104293.3748875,352,1676104293,364740480,base_link,-0.0013686869304271178,-0.005949823136571304,0.0028693745759889575,0.0015006617177277803,-0.0006353511125780644,-0.002098457422107458
1676104293.409868,353,1676104293,404745344,base_link,-0.0015415573727981468,-0.005759902979984713,0.002913161183438593,-0.0017165056196972728,0.0012573605636134744,-0.0005783573724329473
1676104293.4446003,354,1676104293,434745344,base_link,-0.0014515971969893359,-0.0058729853050004666,0.0029395633672295563,-0.0021658416371792555,-0.00018847966566681867,-0.0005306068924255669
1676104293.4766946,355,1676104293,464745344,base_link,-0.001603842124153099,-0.0060564386957903775,0.0030466081635295164,-0.0003124939976260066,0.0012401422718539834,-0.00035023523378185944
1676104293.5101223,356,1676104293,504749696,base_link,-0.0013363746592731775,-0.005739530831460179,0.003201468540451179,0.002926368499174714,0.000844421796500683,0.0017559896223247051
1676104293.5412445,357,1676104293,534749696,base_link,-0.001070685350510199,-0.005386653878086538,0.0033413641933981103,-0.0006201881915330887,-0.0006409030174836517,-0.0004931406001560389
1676104293.5746868,358,1676104293,564749696,base_link,-0.0008532282940873154,-0.005112096199240703,0.0035820520066366032,0.0006482885219156742,-0.0005371497245505453,-0.001310032675974071
1676104293.6112592,359,1676104293,604755840,base_link,-0.0008384691861705421,-0.005082220952797032,0.0035813480412340932,0.0017411380540579557,0.0008701010374352337,0.0012886392651125789
1676104293.6436944,360,1676104293,634755840,base_link,-0.0008303363777843058,-0.004891026506546993,0.0036071215658133385,0.0035480030346661806,-0.0005594075191766026,-0.001364314928650856
1676104293.6759894,361,1676104293,663755840,base_link,-0.000755676841883592,-0.004782538349613599,0.0037429930251998175,0.0014876234345138073,0.0007753892568871379,0.00011337801697663953
1676104293.7095027,362,1676104293,704755840,base_link,-0.0006839226229701708,-0.004711159609411036,0.0037331772107081543,0.0009952271357178688,0.0018262761877849698,0.0005376985063776372
1676104293.7438724,363,1676104293,734759936,base_link,-0.0005688666627818024,-0.004647222302042379,0.0036765423327704263,-0.001594488974660635,-0.0015968026127666237,-0.0017559905536472795
1676104293.7753396,364,1676104293,763759936,base_link,-0.00028221437491248293,-0.004426003896798755,0.0035130889789846856,-0.0023377148900181055,0.0016480762278661132,0.0002432188775856046
1676104293.8099403,365,1676104293,803759936,base_link,-0.00028139383726218147,-0.004323163628018146,0.003690669501042001,0.0004771419335156679,0.00032859586644917716,-0.0009872133377939463
1676104293.848612,366,1676104293,843765312,base_link,0.003166823074533597,-0.004196414214929808,0.0033724432837962314,0.0004771419335156679,0.00032859586644917716,-0.0009872133377939463
1676104293.8743064,367,1676104293,863765312,base_link,-0.001453135536970183,-0.005681799316356816,-0.0002776259063274096,-0.00045744702219963074,0.05280687287449837,-0.026829103007912643
1676104293.910358,368,1676104293,903770176,base_link,-0.0035197979421232022,-0.006492612792499199,0.003194813516353288,0.03442096337676048,-0.048389986157417283,0.14101077616214752
1676104293.9437182,369,1676104293,933770176,base_link,0.0016020898801437282,-0.011002535940368294,0.003862631995113328,0.03709583729505539,-0.027767313644289974,-0.014672026969492432
1676104293.9812572,370,1676104293,973770176,base_link,0.04607485964267568,-0.020779919601464636,-4.174835724593381e-05,0.21137762069702148,0.36956846714019775,-0.05953010544180875
1676104294.0097969,371,1676104294,3770176,base_link,0.07577437008727747,-0.025371015353830677,0.006820022729882904,0.12434868514537811,0.6642016768455505,0.06031643599271766
1676104294.0422385,372,1676104294,33777088,base_link,0.08275357628981085,-0.019376172686390497,0.01101646139351992,0.11860441416501999,0.9052973985671997,0.01618003100156773
1676104294.076412,373,1676104294,63777088,base_link,0.06859495183417484,-0.019641377332132254,0.009617290828333598,0.08865996450185776,0.7213253378868103,0.03669857978820792
1676104294.1088688,374,1676104294,103777088,base_link,0.04130026221273074,-0.022642534425033972,0.00790771317246014,0.1430864930152893,0.6126707196235657,0.0025273561477660383
1676104294.1410909,375,1676104294,133781952,base_link,0.023953819534983975,-0.020098475092607117,0.0028580471316563545,0.18512286245822906,0.2940371334552765,0.003128493670374119
1676104294.1752207,376,1676104294,163781952,base_link,0.009577337471453862,-0.019517942127772376,0.001370707808979084,0.011188043281435966,0.08508063107728958,0.05576283112168311
1676104294.2112794,377,1676104294,203787328,base_link,0.003756643906007816,-0.014237832285148503,0.001382686402152011,-0.0022332067601382732,-0.007519917096942666,-0.01961490325629711
1676104294.244173,378,1676104294,233787328,base_link,0.00469830155579733,-0.011118644235139849,0.0033789574870447406,-0.03982595354318619,-0.055321771651506424,-0.0010733115486800603
1676104294.2769697,379,1676104294,273787328,base_link,0.014064926859513384,-0.009167474484473827,0.0025345932202298794,-0.0060025788843631744,0.048832423985004425,-0.01894818432629109
1676104294.3146088,380,1676104294,303787328,base_link,0.017757529380321276,-0.012314044003809107,0.001390510413810427,0.09673279523849487,0.059253577142953866,-0.02902874723076821
1676104294.3423817,381,1676104294,333793984,base_link,0.015452472024455197,-0.011862173372050939,0.00612402642019318,0.012653673999011517,0.10899799317121506,-0.022081274539232268
1676104294.3769677,382,1676104294,373793984,base_link,0.01611239223068464,-0.011959830906116853,0.0053281730149810635,0.05952683836221695,0.07966792583465576,-0.022375980392098437
1676104294.4115393,383,1676104294,403800128,base_link,0.012331377831173941,-0.013424607568042903,0.00629039222680147,0.022541821002960205,0.08577209711074829,0.004852177575230588
1676104294.4436815,384,1676104294,433800128,base_link,0.012441532199395724,-0.009103540712427615,0.009213182325815276,-0.02787511982023716,0.05381572246551514,-0.014678841456770904
1676104294.4767604,385,1676104294,473800128,base_link,0.011329384921929544,-0.013826496706403154,0.002837276902094381,0.125896617770195,0.042384009808301926,0.0017999145202338643
1676104294.5105777,386,1676104294,503806016,base_link,0.011028730151012809,-0.01146726306660529,0.0028171768564236857,-0.1346464604139328,0.056052543222904205,0.006169324275106185
1676104294.544902,387,1676104294,533806016,base_link,0.006803053806987488,-0.00964478233452066,0.00400785309796126,0.009181255474686623,0.020010087639093396,-0.01842475309967995
1676104294.5775197,388,1676104294,573806016,base_link,0.008175666926167934,-0.011024913450888569,0.0012580952556821656,0.12226836383342743,0.007464201655238862,-0.040245261043310165
1676104294.6106994,389,1676104294,603812160,base_link,0.004641248168401668,-0.00902551547738406,0.005711207706246381,-0.04643591493368149,0.03445856645703316,0.0067715565674006896
1676104294.6432657,390,1676104294,633812160,base_link,0.005374022600553792,-0.007396229958479226,0.006298571733616433,-0.05981044843792915,0.001176432240754364,-0.016648249700665474
1676104294.6761026,391,1676104294,663812160,base_link,0.0011439514966736849,-0.009553634842114852,0.009302403340923283,0.04853098839521408,0.0045408378355205085,0.02323281764984131
1676104294.709832,392,1676104294,703812160,base_link,0.0028039709329490815,-0.007668199428590133,0.004375292984719937,-0.1497761756181717,0.00893851649016142,0.01769167371094227
1676104294.7417302,393,1676104294,733817792,base_link,0.0005604008697007739,-0.006803285563541076,0.009032059339525599,-0.045915551483631134,0.019112883135676384,-0.007300812751054766
1676104294.7765446,394,1676104294,762817792,base_link,0.0012767002230446615,-0.004826045168552057,0.009874294045373136,0.11960022896528244,-0.0297570675611496,-0.025589525699615475
1676104294.8108015,395,1676104294,803824704,base_link,4.8407272841257785e-05,-0.0035881345779942,0.007761848503632467,-0.050250228494405746,0.047066826373338706,0.02909702062606811
1676104294.8427029,396,1676104294,832824704,base_link,-0.0015204951909451412,-0.0011270685105783458,0.0072795409735437674,0.02275724895298481,-0.03553621843457223,-0.04276909306645393
1676104294.8771641,397,1676104294,872824704,base_link,-0.006410265227171323,-0.0013931670926851767,0.00819724805053364,-0.0818319022655487,-0.019126346334815025,-0.00458544725552201
1676104294.9089935,398,1676104294,902824704,base_link,-0.004825256507634764,-0.00018240857574264058,0.0054699688847617035,0.009863168001174927,0.0026102564297616508,0.020418841391801834
1676104294.9419928,399,1676104294,932832128,base_link,-0.007864632490793376,-0.00269274703883987,0.007511193746839767,-0.0701456367969513,-0.002788810525089501,0.011254290118813515
1676104294.9758775,400,1676104294,962832128,base_link,-0.007550345223050065,-0.0004985116947636468,0.007675046773294967,-0.05257294327020645,-0.018206546083092693,-0.019415402784943577
1676104295.0114393,401,1676104295,2839040,base_link,-0.007451462287852678,-0.0026543660254747183,0.007675574276103417,0.023534148931503296,0.010995843447744852,0.03549635037779808
1676104295.0455778,402,1676104295,32839040,base_link,-0.009106808528198217,-0.00040169645379633715,0.010729253740849327,-0.12839823961257935,0.018953964114189148,0.009612059220671652
1676104295.077913,403,1676104295,72839040,base_link,-0.0070831293141942215,-0.0012961225888615247,0.002574511452926733,0.17104753851890564,0.00707151228561997,-0.03628350421786308
1676104295.109853,404,1676104295,102846208,base_link,-0.010000305776051238,0.0008669115329098152,0.006741096439394984,-0.07655412703752518,0.02357129193842411,0.0028173692990094393
1676104295.1431813,405,1676104295,132846208,base_link,-0.00936883595993029,0.003655763762769544,0.006147508594079563,-0.08914206176996231,-0.02639861218631268,-0.030169826000928875
1676104295.1776376,406,1676104295,172846208,base_link,-0.012483573596906532,6.711525752804682e-05,0.005110657110371563,0.011291240341961384,0.010595172643661496,-0.024084409698843956
1676104295.2104247,407,1676104295,202846208,base_link,-0.011135960265808199,0.0025144235436928204,0.006088050828989621,-0.020432401448488235,-0.0005627815844491092,0.026868022978305817
1676104295.2424855,408,1676104295,232853120,base_link,-0.013136489873412063,-0.0008139619725271513,0.006527247900046522,-0.03549681603908539,0.02599881403148174,-0.02178924344480038
1676104295.279022,409,1676104295,272853120,base_link,-0.009824093769904103,0.0002771223339372334,0.0020481134553995647,0.08380316942930222,0.003066031727939847,0.025097772479057312
1676104295.3097382,410,1676104295,302861056,base_link,-0.010817806810958754,-0.0030251893769821974,0.0015118825186134026,-0.07365766912698746,-0.011252717114984994,-0.04082714393734932
1676104295.342312,411,1676104295,332861056,base_link,-0.010335922685381185,0.00047546921979039336,0.002718909889007656,0.06265757977962494,0.026050871238112453,0.029218276962637898
1676104295.375599,412,1676104295,362861056,base_link,-0.010927713795643825,-0.0008590909165250065,-0.0011434480085592122,-0.011900541372597218,0.03868553042411804,0.024370519444346424
1676104295.4116595,413,1676104295,402869504,base_link,-0.012802172909925667,0.002463522383233755,0.0037954533609207675,-0.009124858304858208,-0.038294415920972824,-0.02822450920939445
1676104295.4464035,414,1676104295,432869504,base_link,-0.014863763818064174,-6.422282610191619e-05,0.0021458577523381472,0.03338586539030075,0.008073098957538606,0.019879931584000587
1676104295.4780498,415,1676104295,472869504,base_link,-0.012429273443722686,0.0036927137355498873,0.004165380705599165,-0.04965035989880562,-0.05590587854385376,-0.02418032102286815
1676104295.5109355,416,1676104295,502877696,base_link,-0.030749675378387433,-0.046242266046365325,0.013890014897106511,0.09041613340377808,0.02842525579035282,-0.0021065447945147787
1676104295.54357,417,1676104295,532877696,base_link,-0.14782595106591798,-0.2206459220941144,0.15373662525101042,4.347733974456787,-2.4202191829681396,0.2439163327217105
1676104295.5765111,418,1676104295,572877696,base_link,-0.1585454676555574,-0.15736482151792464,0.7147061166526787,2.177985906600952,-4.064535140991211,0.24647356569767048
1676104295.610118,419,1676104295,602886656,base_link,-0.12629826267887206,-0.19144461471530905,1.246516058224664,0.5435462594032288,-2.757240056991577,0.31221896409988437
1676104295.6426468,420,1676104295,632886656,base_link,-0.09288496520666975,-0.26143286164702717,1.6788501007168637,-0.03907273709774017,-1.5852068662643433,0.38825115561485307
1676104295.6759064,421,1676104295,662886656,base_link,-0.1039967531048513,-0.36346660991854995,1.8577278483592745,-1.1678622961044312,-0.23694789409637448,0.33990791440010076
1676104295.7118447,422,1676104295,702897152,base_link,-0.2533365325501421,-0.5463687156789292,1.8052088553055925,-1.7548751831054688,1.0111361742019653,0.19885675609111775
1676104295.7457826,423,1676104295,732897152,base_link,-0.38918660289499885,-0.6416775003082775,1.6459855974071966,-1.8301302194595337,1.4965976476669312,0.16405175626277904
1676104295.7776034,424,1676104295,772897152,base_link,-0.6056794836640955,-0.7818758388131911,1.3487721969990185,-1.7648489475250244,1.9890812635421753,0.2134567797183988
1676104295.810804,425,1676104295,802906368,base_link,-0.7307799013159884,-0.8302997985109078,1.1368825712107948,-1.5540475845336914,1.9744657278060913,0.15488332509994482
1676104295.8435602,426,1676104295,831906368,base_link,-0.8659746503579894,-0.8839283304022875,0.9161956131353937,-1.3291867971420288,1.8023492097854614,0.11587125808000542
1676104295.8767202,427,1676104295,871906368,base_link,-0.9751007113649961,-0.8997955253263122,0.7374316814174701,-1.124760389328003,1.7381417751312256,0.14449694752693154
1676104295.9105642,428,1676104295,902915840,base_link,-1.0219705232660126,-0.8917402868859976,0.6698933760989083,-1.1484863758087158,1.7067921161651611,0.18399441242217995
1676104295.9427433,429,1676104295,932915840,base_link,-1.064716778854321,-0.8741052178873343,0.5961558997418366,-0.9371538162231445,1.627101182937622,0.20830395817756633
1676104295.9772468,430,1676104295,971915840,base_link,-1.0765357380533291,-0.8292103839814652,0.5627168485760752,-0.7419208884239197,1.4968328475952148,0.2509446442127226
1676104296.0122933,431,1676104296,1925568,base_link,-1.0668640177675006,-0.7895404909575663,0.5319480828773709,-0.5465689897537231,1.4186855554580688,0.146062523126602
1676104296.0472548,432,1676104296,31925568,base_link,-1.0599869165591815,-0.7388794734990747,0.4775709958769626,-0.33962687849998474,1.1443672180175781,0.17542345821857439
1676104296.0778675,433,1676104296,72925568,base_link,-1.0166103683436634,-0.6595354428441176,0.40674207807775165,-0.29700803756713867,0.8598690629005432,0.15996457636356343
1676104296.1116762,434,1676104296,101935552,base_link,-0.9627774735512687,-0.5946153264624091,0.3775248697006282,-0.1425192505121231,0.704112708568573,0.1763908863067626
1676104296.1452215,435,1676104296,131935552,base_link,-0.9169150679363179,-0.5420305093269477,0.32060294375513737,0.007158242166042328,0.5589589476585388,0.11708046495914452
1676104296.1771877,436,1676104296,171935552,base_link,-0.8300209438695756,-0.4544561751082622,0.2853361723590705,0.1811889111995697,0.28632062673568726,0.14838065207004544
1676104296.2102292,437,1676104296,196946048,base_link,-0.7688763384596707,-0.40199715696036337,0.2768207221259859,0.29191404581069946,0.11392857879400255,0.13252720236778257
1676104296.2436903,438,1676104296,236946048,base_link,-0.6799874933983957,-0.33695507695224913,0.2792430940103469,0.42387956380844116,-0.03307989984750747,0.05013102293014527
1676104296.2765026,439,1676104296,266946048,base_link,-0.6067835414376247,-0.2795397776061592,0.2993512854201127,0.5387783646583557,-0.2579566240310669,-0.04306951910257336
1676104296.3121185,440,1676104296,306956544,base_link,-0.49547951764656445,-0.20508269799656992,0.327901493359564,0.5618516206741333,-0.5047402381896973,0.0975183323025704
1676104296.3457363,441,1676104296,336956544,base_link,-0.42025623713755444,-0.15940108292136584,0.3534547905277906,0.6105462908744812,-0.4472437798976898,-0.027640003710985128
1676104296.3784425,442,1676104296,366956544,base_link,-0.3490003913629865,-0.1146154465721224,0.3784161270871498,0.690545380115509,-0.8501297831535339,0.07065885514020931
1676104296.4122236,443,1676104296,406967552,base_link,-0.26754174844230033,-0.0687613400505698,0.3993752349433193,0.7362191081047058,-0.9034902453422546,-0.029734466224908718
1676104296.4452727,444,1676104296,436967552,base_link,-0.20288361336831795,-0.03156819137640998,0.4096615947718698,0.720219612121582,-0.8675216436386108,-0.0476173497736453
1676104296.4778755,445,1676104296,466967552,base_link,-0.14072163885077313,0.003575814880023426,0.4075309262227339,0.5758928060531616,-0.931194007396698,0.0022610388696194836
1676104296.5111315,446,1676104296,496978560,base_link,-0.08702183792556178,0.032018797043194915,0.3982443781697042,0.6920864582061768,-0.9383273124694824,-0.05271976813673961
1676104296.5433264,447,1676104296,536978560,base_link,-0.02131050529521409,0.06185724369023154,0.38060704292564146,0.4955362379550934,-0.9176828265190125,0.020296197384595982
1676104296.5811138,448,1676104296,566978560,base_link,0.015695169869185458,0.07639361174951173,0.3615132829637263,0.5290144681930542,-0.9647650122642517,0.04057747870683682
1676104296.6114256,449,1676104296,596989568,base_link,0.048327330861849094,0.09334938442246496,0.3462977164467181,0.49659448862075806,-0.9413350820541382,-0.01936719380319107
1676104296.643377,450,1676104296,636989568,base_link,0.08194413200274832,0.10207479874443251,0.3282790056157512,0.3967788815498352,-0.8629363179206848,0.0035552282352001533
1676104296.676538,451,1676104296,666989568,base_link,0.09925715717468345,0.10597511505308148,0.31528236522427444,0.3116179406642914,-0.809832751750946,0.09779051691293726
1676104296.712866,452,1676104296,707000832,base_link,0.10108823401390478,0.10365278095827421,0.2928119294047935,0.22194841504096985,-0.6545970439910889,-0.041363067924976266
1676104296.7455742,453,1676104296,737000832,base_link,0.11025116529088058,0.1024536769899792,0.2765704140219537,0.16543777287006378,-0.5568278431892395,0.05372486636042602
1676104296.779626,454,1676104296,767000832,base_link,0.11371288104919756,0.102294572828402,0.2576331863446238,0.055363595485687256,-0.37067538499832153,0.04152050986886029
1676104296.8116488,455,1676104296,807012864,base_link,0.09497952285277243,0.08553884285858285,0.2323359038262695,0.13109515607357025,-0.37567949295043945,0.02710300870239739
1676104296.84574,456,1676104296,837012864,base_link,0.09004679369533186,0.08169991948604573,0.21585966542911128,0.08767638355493546,-0.2248716950416565,-0.07056912779808042
1676104296.8800454,457,1676104296,867012864,base_link,0.08159172220248194,0.06868502748314388,0.21275659538863564,-0.1528874784708023,-0.06337300688028336,-0.003566030412912361
1676104296.9117053,458,1676104296,907024896,base_link,0.056633319814827804,0.050215492045418114,0.20379065104794172,-0.057296205312013626,0.004773412831127649,0.040784671902656555
1676104296.944346,459,1676104296,936024896,base_link,0.041113289279718614,0.039604483793028146,0.20302699959114348,-0.07310125231742859,0.06441803276538847,-0.10804677009582521
1676104296.9769368,460,1676104296,966024896,base_link,0.027687906387751773,0.026307455892171372,0.19983096544910828,-0.15154948830604553,0.2219434231519699,0.06059553474187848
1676104297.0122168,461,1676104297,7037184,base_link,0.003485383449512232,0.006283208752971875,0.18965980965328386,-0.22548629343509674,0.32761120796203613,0.030996255576610524
1676104297.046225,462,1676104297,37037184,base_link,-0.016637107732198154,-0.008562262531413295,0.1890135140850966,-0.2728199362754822,0.2548554539680481,0.08880938589572904
1676104297.0778568,463,1676104297,67037184,base_link,-0.03463266259818023,-0.022590332658372216,0.18610510759051657,-0.281703382730484,0.4102890193462372,0.09810111671686167
1676104297.1120958,464,1676104297,106049728,base_link,-0.054705560161913906,-0.03498944926184335,0.16994600646172278,-0.22068189084529877,0.45071274042129517,-0.07225601375103002
1676104297.1438286,465,1676104297,136049728,base_link,-0.06949755563851089,-0.04474084318436918,0.1606921661115731,-0.3777977526187897,0.533000648021698,0.029747873544692927
1676104297.177643,466,1676104297,166049728,base_link,-0.08246338734617543,-0.056189139413854554,0.1577925213817188,-0.32321423292160034,0.49526888132095337,0.04253137111663812
1676104297.2129154,467,1676104297,206062016,base_link,-0.09155458763137084,-0.06745887625175918,0.14716207699250505,-0.2805565595626831,0.5231062173843384,0.06510330736637109
1676104297.2460253,468,1676104297,236062016,base_link,-0.09760327836208285,-0.06987375218078352,0.13891615203527252,-0.36057063937187195,0.5575450658798218,0.06833913922309869
1676104297.2793925,469,1676104297,266062016,base_link,-0.09952827933630641,-0.07043924078513786,0.1310630070465355,-0.3793143033981323,0.5193366408348083,-0.02444310858845717
1676104297.312033,470,1676104297,306074816,base_link,-0.09810152053379285,-0.07763543795062486,0.13348130270905745,-0.38833898305892944,0.5363771915435791,0.03687346354126924
1676104297.3448727,471,1676104297,336074816,base_link,-0.09678653495321092,-0.07843384691699812,0.12481566948517478,-0.22944775223731995,0.47389522194862366,0.007232740987092198
1676104297.3775744,472,1676104297,366074816,base_link,-0.09127112215159026,-0.07435575003854965,0.11230481999246986,-0.2656421959400177,0.44042283296585083,0.025551948696374838
1676104297.4132116,473,1676104297,406087872,base_link,-0.07109267628290132,-0.05967033899570014,0.09548886699019574,-0.2583203613758087,0.3288157880306244,0.06427807360887523
1676104297.4483976,474,1676104297,436087872,base_link,-0.05781407148751751,-0.053625174343160414,0.08642899262131065,-0.18385663628578186,0.35879284143447876,-0.020942468196153686
1676104297.4796033,475,1676104297,466087872,base_link,-0.044754296033802196,-0.04674718363255184,0.08030674225812345,-0.06814959645271301,0.17472286522388458,-0.04006634280085566
1676104297.5133066,476,1676104297,506100928,base_link,-0.025015469463061744,-0.03238372372522208,0.06618737185366098,-0.048086658120155334,0.15260006487369537,-0.06325914710760118
1676104297.5464704,477,1676104297,536100928,base_link,-0.0023692533150520625,-0.01705294324227964,0.06122036150438735,-0.10147155821323395,0.08691923320293427,0.04069860279560088
1676104297.5791512,478,1676104297,566100928,base_link,0.02111417172896419,0.0005516533617824017,0.05877939132183937,0.0019758802372962236,0.06356949359178543,-0.013994448818266399
1676104297.6121194,479,1676104297,606114496,base_link,0.041465957550516,0.012999165837799495,0.0589327084120129,-0.1441844403743744,0.04707334563136101,-0.026689352467656142
1676104297.6487412,480,1676104297,636114496,base_link,0.059739160401065035,0.026043326359758992,0.05855737303737153,-0.053895965218544006,-0.0798007696866989,0.08892247080802919
1676104297.6787734,481,1676104297,666114496,base_link,0.07992460406097074,0.04172816250542345,0.057713287073825656,0.023006219416856766,-0.22394107282161713,0.10025262087583545
1676104297.7123942,482,1676104297,706128064,base_link,0.11138614293829381,0.06445474610301548,0.05019872653498965,0.018180912360548973,-0.21636760234832764,0.10654350370168689
1676104297.7462893,483,1676104297,736128064,base_link,0.13425604402417915,0.07834835945716319,0.04757269369177609,0.12863098084926605,-0.18640297651290894,-0.029326964169740653
1676104297.7779493,484,1676104297,766128064,base_link,0.15103005589103755,0.09102755963501512,0.04484519856558398,0.20091885328292847,-0.24980370700359347,-0.14650881290435788
1676104297.8142998,485,1676104297,806142144,base_link,0.16327326528148017,0.10960613365338628,0.041443247012005996,0.2014703005552292,-0.3332810699939728,-0.020695060491561848
1676104297.846774,486,1676104297,836142144,base_link,0.17574715428701912,0.11714273708309808,0.035579446179664034,0.1152462288737297,-0.28903597593307495,-0.02896218374371525
1676104297.8794558,487,1676104297,866142144,base_link,0.18327349361739262,0.12130290700835637,0.033474962288765425,0.2133602350950241,-0.2551528811454773,-0.08654507994651792
1676104297.913812,488,1676104297,906156224,base_link,0.19614198737912839,0.13470717148427544,0.028118587821025953,0.24468527734279633,-0.29095259308815,-0.0164132863283157
1676104297.9465559,489,1676104297,936156224,base_link,0.2027545171978161,0.14070390078011744,0.021079243848882975,0.14272496104240417,-0.2835368812084198,-0.017055816948413814
1676104297.9786184,490,1676104297,965156224,base_link,0.2101885447057613,0.14739792135019444,0.010660481028493035,0.20597140491008759,-0.2587386667728424,-0.05002478882670399
1676104298.012827,491,1676104298,6170560,base_link,0.20549660467531342,0.14820099447978374,0.006088787884369771,0.13866646587848663,-0.32643836736679077,0.0817685723304749
1676104298.0469959,492,1676104298,35170560,base_link,0.20549495817219174,0.15227669364699448,-0.0021872805667299627,0.14458997547626495,-0.28551435470581055,-0.01814096979796883
1676104298.078423,493,1676104298,65170560,base_link,0.2017505769190527,0.15177989780479137,-0.008369773083268583,0.20983949303627014,-0.19146737456321716,-0.05004624277353285
1676104298.1114557,494,1676104298,105185408,base_link,0.19890426834779365,0.1496545460050972,-0.01584371167410968,0.12558221817016602,-0.259965717792511,0.08776478469371798
1676104298.147121,495,1676104298,135185408,base_link,0.1908142270793219,0.14966678510796405,-0.024090797069720418,0.15327666699886322,-0.1024642288684845,-0.040595117956399904
1676104298.1801898,496,1676104298,165185408,base_link,0.18600077554716157,0.1499308954334963,-0.02559425102827024,0.040725596249103546,-0.13446244597434998,0.023010617122054117
1676104298.2129786,497,1676104298,205200256,base_link,0.16949375277047768,0.13867529161746361,-0.018929908725566418,0.009195905178785324,-0.03286470845341683,-0.06734171509742737
1676104298.245978,498,1676104298,235200256,base_link,0.1597259910336458,0.13568932299890818,-0.018553964054375035,0.08597691357135773,-0.10022413730621338,0.02441591024398805
1676104298.27917,499,1676104298,266200256,base_link,0.1496554182429136,0.12740584481392592,-0.023483030100493553,0.059160586446523666,0.05507645383477211,0.020202904939651482
1676104298.3143842,500,1676104298,305215616,base_link,0.13742633784974922,0.1156539668635867,-0.032808060008989934,0.08116382360458374,0.007212629076093434,-0.0038313199765980252
1676104298.3466568,501,1676104298,335215616,base_link,0.130378466721577,0.11330663921996165,-0.03803706524371557,0.054597847163677216,0.07742158323526381,-0.11144014447927476
1676104298.3800535,502,1676104298,365215616,base_link,0.12335161956708614,0.10826640254311945,-0.036150906690873896,0.013126639649271965,0.09841596335172653,-0.05465609580278398
1676104298.4141502,503,1676104298,405230720,base_link,0.10475114899755045,0.08725590325781685,-0.03348056123559823,-0.16054776310920715,0.050573103129863746,0.06408911943435669
1676104298.447463,504,1676104298,435230720,base_link,0.0925516861926662,0.07857606509301854,-0.03769189744432616,0.06596645712852478,0.03804920613765717,0.03766167536377906
1676104298.479106,505,1676104298,465230720,base_link,0.08966038038816655,0.07376367356479117,-0.04002035709307252,0.010784843936562538,0.12888117134571075,-0.0442822426557541
1676104298.5137005,506,1676104298,505246848,base_link,0.08662518459177612,0.06738292137251449,-0.036448073843568005,-0.06590032577514648,0.14205895364284515,0.0172953139990568
1676104298.5459979,507,1676104298,535246848,base_link,0.07846505397232381,0.06334927421971369,-0.03897342292643704,-0.15156421065330505,0.1280961036682129,-0.06137388199567796
1676104298.5795262,508,1676104298,565246848,base_link,0.06972459696236619,0.05700444206614639,-0.037353231270176326,-0.17507143318653107,0.10779674351215363,-0.0034277881495654713
1676104298.6124449,509,1676104298,605262720,base_link,0.06270871145124056,0.040498197100273144,-0.04027190185457955,-0.1048530712723732,0.13693255186080933,-0.0020959004759788682
1676104298.646568,510,1676104298,635262720,base_link,0.058872193481228595,0.03368085576304971,-0.04214776541805132,-0.09841769188642502,0.14632003009319305,-0.05558835342526438
1676104298.677971,511,1676104298,665262720,base_link,0.059862811328202384,0.033972059052594546,-0.04199288415683606,-0.23385289311408997,0.09077181667089464,0.07298544049262999
1676104298.7133079,512,1676104298,705278848,base_link,0.06222576892456745,0.03574219917405851,-0.03849541230956,-0.06600503623485565,0.09978858381509782,0.07391075044870375
1676104298.745632,513,1676104298,735278848,base_link,0.06180111704479588,0.0314158483179971,-0.03794986516851202,-0.1679214984178543,0.11263032257556917,0.09079167246818541
1676104298.7786868,514,1676104298,765278848,base_link,0.06116820582378181,0.0284264145150495,-0.042676807881671074,0.05406391993165016,0.06798227131366728,-0.10554253309965135
1676104298.818892,515,1676104298,805294464,base_link,0.06423030946128448,0.031420248458195806,-0.050321760664242605,-0.20664234459400177,0.053762990981340415,0.04380078986287116
1676104298.8457117,516,1676104298,835294464,base_link,0.06618411626577496,0.033253303454367965,-0.04910038692012839,-0.10987336933612823,0.09276092052459717,-0.02073248475790025
1676104298.878261,517,1676104298,865294464,base_link,0.06803579547030376,0.03216958131668829,-0.04349251644775224,0.06965479999780655,0.008110377937555311,-0.009059185162186624
1676104298.9152153,518,1676104298,905310592,base_link,0.0685809504164748,0.023952174650914433,-0.037801092001487624,-0.034680403769016266,-0.011053011752665043,0.006485946476459505
1676104298.9474096,519,1676104298,935310592,base_link,0.07148388333980193,0.026994133911172807,-0.03377640645373123,0.09256138652563095,-0.021162394434213635,0.023407846689224247
1676104298.98045,520,1676104298,965310592,base_link,0.07362158637627768,0.032328864532020024,-0.036306028389161825,-0.0007306945044547319,0.030066866427659992,0.025713510811328884
1676104299.0159974,521,1676104299,5325952,base_link,0.07797802225688169,0.037012221355587516,-0.03779719711962724,-0.056600186973810196,-0.006088836584240196,0.01506299339234829
1676104299.0474505,522,1676104299,34325952,base_link,0.08009712886937939,0.03625754128614288,-0.043262976390825325,-0.07021689414978027,-0.1091167703270912,0.1411614865064621
1676104299.0812123,523,1676104299,74325952,base_link,0.0852525424484754,0.040810943722499084,-0.039481321659427616,-0.011239008978009224,-0.08247986435890196,0.10673025250434877
1676104299.1144614,524,1676104299,104341824,base_link,0.08644915849883016,0.04220770411818857,-0.03992384210767989,0.11508472263813019,-0.0999334380030632,-0.03514100611209868
1676104299.1466112,525,1676104299,135341824,base_link,0.08588156805832241,0.04350485113830402,-0.041802635808704476,-0.017454206943511963,-0.07764414697885513,-0.017764871940016736
1676104299.1808622,526,1676104299,175341824,base_link,0.08854610087420506,0.04655628353779017,-0.035608758116483695,0.046628762036561966,-0.05427123978734016,0.07596209645271301
1676104299.211871,527,1676104299,204358464,base_link,0.08657035096629992,0.04549202644628733,-0.033837562884151885,0.12806282937526703,-0.09865019470453262,-0.004517146386206138
1676104299.2458403,528,1676104299,234358464,base_link,0.0851463378106969,0.04469335258860335,-0.03581583818642839,-0.0008723270148038864,-0.05472311004996299,0.049106203019618995
1676104299.2789512,529,1676104299,264358464,base_link,0.08388198906067598,0.04764572478270832,-0.03327799193103141,-0.03729467839002609,-0.07479044795036316,0.028835132718086253
1676104299.3169365,530,1676104299,304375104,base_link,0.08182720683353707,0.05385461877987818,-0.02447793911765346,0.14542104303836823,-0.027111805975437168,-0.029297621920704838
1676104299.3475094,531,1676104299,334375104,base_link,0.07807321341638139,0.050515854866341824,-0.03229848164593056,0.11732412874698639,-0.0013497467152774464,-0.10665079206228256
1676104299.3817267,532,1676104299,374375104,base_link,0.07831777264716139,0.05027059170277132,-0.03456771063864888,0.07662521302700043,-0.07300613075494766,0.038192462176084525
1676104299.4172578,533,1676104299,404393024,base_link,0.07355329039305877,0.04515152014079999,-0.04606752349743583,0.24356958270072937,-0.07468643039464952,-0.0963359773159027
1676104299.447537,534,1676104299,434393024,base_link,0.07237305467938805,0.047048556172946836,-0.0496906039670008,-0.052567191421985626,-0.05847653374075889,0.06292949616909028
1676104299.4813006,535,1676104299,474393024,base_link,0.06850901386835523,0.04208132728062358,-0.051001937423191285,-0.029893914237618446,0.0257294736802578,0.03907030075788498
1676104299.5140512,536,1676104299,504409920,base_link,0.06346531419094054,0.03928450619868231,-0.04845503132857827,-0.022440912202000618,-0.02713764086365699,0.05834420397877693
1676104299.5465336,537,1676104299,534409920,base_link,0.06324944269836384,0.039395061388321925,-0.04245178533807873,-0.015943747013807297,-0.06986914575099944,0.059381954371929176
1676104299.5797133,538,1676104299,564409920,base_link,0.06177056661679798,0.039690498653471226,-0.03794838316445156,-0.04308942332863808,0.05216541886329651,0.007704942487180227
1676104299.6144762,539,1676104299,604427840,base_link,0.04844323833993488,0.025768390824360183,-0.031104737520159215,0.11401048302650452,-0.0018969296943396304,0.021692384034395218
1676104299.6468296,540,1676104299,634427840,base_link,0.0464370216456838,0.025142777274183594,-0.032202721439411074,-0.08659319579601288,0.02313814871013165,0.016125902533531185
1676104299.6792555,541,1676104299,664427840,base_link,0.04554270718029776,0.028084997345127836,-0.030756103518737456,-0.004838509950786829,0.06594480574131012,-0.01659872382879258
1676104299.7161703,542,1676104299,704443968,base_link,0.03947249932906144,0.029015055444379947,-0.030439835917985734,0.045593105256557465,0.03616107255220413,0.019448077306151387
1676104299.7486854,543,1676104299,734443968,base_link,0.03813883821847175,0.02550759586845383,-0.03298176145232204,-0.05810755491256714,0.03224160894751549,-0.018421744927763942
1676104299.781235,544,1676104299,774443968,base_link,0.04029171874027858,0.021787109598002934,-0.03365864197764733,0.042885590344667435,0.08464825898408888,-0.07071182131767274
1676104299.8142557,545,1676104299,804462144,base_link,0.035043441781835036,0.01794593039057331,-0.03626502701144069,0.037359245121479034,-0.003889670828357339,-0.0017106845043599601
1676104299.8478885,546,1676104299,834462144,base_link,0.033311610299311546,0.015252475213797313,-0.04760321669123292,-0.1440843641757965,0.02681289240717889,0.08615923672914505
1676104299.879933,547,1676104299,864462144,base_link,0.03268941642618297,0.018459281209740632,-0.05414734078459277,0.037934932857751846,0.03810156136751174,-0.06745767593383789
1676104299.9140224,548,1676104299,904480832,base_link,0.029210008167919577,0.018646020380147954,-0.0569414103563186,-0.028159957379102707,0.021942205727100376,0.022936189547181126
1676104299.947622,549,1676104299,934480832,base_link,0.02934227137942623,0.015699242354658062,-0.04717732054672048,-0.032094623893499374,-0.06359370797872542,0.056809078902006156
1676104299.9789886,550,1676104299,964480832,base_link,0.030236167582058174,0.016878205373860568,-0.036495594867142586,0.04559343680739403,-0.0690823197364807,0.140583336353302
1676104300.0157678,551,1676104300,4500032,base_link,0.031107683923382746,0.013826105223223485,-0.024120017073028605,0.16294802725315094,-0.06185698509216309,-0.03411553055047988
1676104300.0485525,552,1676104300,34500032,base_link,0.026617709121705396,0.00822362958958077,-0.024587194965055528,0.0901164785027504,0.0026246858760714457,-0.0593128502368927
1676104300.081906,553,1676104300,74500032,base_link,0.024728449989755426,0.009812401096581264,-0.022169521638028086,0.11121073365211487,0.011148555204272263,-0.06368255615234375
1676104300.11543,554,1676104300,104520256,base_link,0.020558797747108126,0.004558569459515754,-0.024726620267204086,0.03405081108212471,-0.0393911749124527,0.024667061865329746
1676104300.148692,555,1676104300,133520256,base_link,0.019236454514690228,-0.002377033102255095,-0.03087285537660578,-0.10301318764686584,0.036690205335617065,-0.02612828649580479
1676104300.1812518,556,1676104300,173520256,base_link,0.016045059093274448,0.0007574054322715199,-0.024452509667523284,-0.07118141651153564,0.04001624882221222,0.002663912018761034
1676104300.2152863,557,1676104300,203539456,base_link,0.013761376419474936,-0.006424066108323694,-0.03043051387055033,-0.10239587724208832,-0.039419196546077714,0.13264301419258118
1676104300.247253,558,1676104300,233539456,base_link,0.012380807282583558,-0.010667171610893731,-0.036592074341320266,0.09979390352964401,-0.01585061103105545,-0.008989815600216387
1676104300.2810886,559,1676104300,273539456,base_link,0.017173871711073995,-0.005558715227990697,-0.033288947312951615,0.08915362507104874,-0.011852637864649303,-0.06370779871940613
1676104300.316052,560,1676104300,303559168,base_link,0.015763402322150462,-0.011134993781112287,-0.03012711526406763,0.001522883540019393,0.03642753884196281,-0.05715285614132882
1676104300.3460453,561,1676104300,333559168,base_link,0.014237820850634726,-0.016927283862594816,-0.028092525657408805,-0.05660628899931908,-0.018746569752693176,0.01108883135020733
1676104300.3817246,562,1676104300,373559168,base_link,0.013282811248859636,-0.02074841399930403,-0.025591465960208556,0.03953118994832039,-0.0845467671751976,0.0022422117181122407
1676104300.414659,563,1676104300,403578112,base_link,0.01316451622360014,-0.022066551732053824,-0.01771779798061873,-0.08366383612155914,-0.05150758475065231,0.02213780581951142
1676104300.4489467,564,1676104300,433578112,base_link,0.010796614689834403,-0.027851828037323223,-0.013968958046202877,-0.009784534573554993,0.03812564164400099,-0.12167217582464218
1676104300.4794302,565,1676104300,463578112,base_link,0.007923666226229264,-0.03263058368508822,-0.015940834120404195,0.01711863838136196,-0.010493916459381592,-0.09342986345291138
1676104300.5190728,566,1676104300,503598080,base_link,0.0007505844406439859,-0.028363824804986254,-0.024003685915382128,-0.155204176902771,-0.03369008004665374,0.04863759502768517
1676104300.5484774,567,1676104300,533598080,base_link,-0.000521787748511898,-0.02744937032848106,-0.025551762593844236,0.05449047312140465,-0.003519616089761267,-0.08073288202285767
1676104300.5822456,568,1676104300,573598080,base_link,0.003800723443418358,-0.03698019260099465,-0.02639593393282281,-0.021833386272192,0.06838810443878174,-0.051980763673782356
1676104300.6176543,569,1676104300,603618304,base_link,0.002906979648624297,-0.036459340822205415,-0.02304482595733962,-0.07807810604572296,0.0909663513302803,-0.03460602462291719
1676104300.6479719,570,1676104300,633618304,base_link,-0.0002000659298420983,-0.03367210718878836,-0.01808307001488502,-0.07221643626689911,-0.025760870426893227,0.049664657562971115
1676104300.6812935,571,1676104300,673618304,base_link,-0.0050386272510434624,-0.036967788587008124,-0.007944042349964809,-0.07714271545410156,0.011639836244285101,-0.04795215651392937
1676104300.7178693,572,1676104300,703638784,base_link,-0.003779069719614592,-0.03784940676767483,-0.004679980671304344,-0.0258713997900486,-0.026225740090012543,0.06056055799126625
