Time,header.seq,header.stamp.secs,header.stamp.nsecs,header.frame_id,magnetic_field.x,magnetic_field.y,magnetic_field.z,magnetic_field_covariance_0,magnetic_field_covariance_1,magnetic_field_covariance_2,magnetic_field_covariance_3,magnetic_field_covariance_4,magnetic_field_covariance_5,magnetic_field_covariance_6,magnetic_field_covariance_7,magnetic_field_covariance_8
1676104290.0586157,6969,1676104289,677564360,base_link,1.9777314364910128e-05,1.7141583561897275e-05,-2.3934981226921087e-05,-1.0,0.0,0.0,0.0,0.0,0.0,0.0,0.0,0.0
1676104290.058738,6970,1676104289,697546360,base_link,1.9916187226772308e-05,1.7102631926536557e-05,-2.39239513874054e-05,-1.0,0.0,0.0,0.0,0.0,0.0,0.0,0.0,0.0
1676104290.0588107,6971,1676104289,717530688,base_link,1.960766315460205e-05,1.7143636941909787e-05,-2.3839583992958074e-05,-1.0,0.0,0.0,0.0,0.0,0.0,0.0,0.0,0.0
1676104290.0588493,6972,1676104289,737513688,base_link,1.96369007229805e-05,1.7039641737937923e-05,-2.3853534460067752e-05,-1.0,0.0,0.0,0.0,0.0,0.0,0.0,0.0,0.0
1676104290.0588892,6973,1676104289,757495688,base_link,1.9601154327392578e-05,1.709612905979156e-05,-2.3865160346031194e-05,-1.0,0.0,0.0,0.0,0.0,0.0,0.0,0.0,0.0
1676104290.0589228,6974,1676104289,777475688,base_link,1.9748088717460632e-05,1.7251911759376523e-05,-2.38770604133606e-05,-1.0,0.0,0.0,0.0,0.0,0.0,0.0,0.0,0.0
1676104290.0589526,6975,1676104289,797457688,base_link,1.980825960636139e-05,1.7224811017513272e-05,-2.378376424312592e-05,-1.0,0.0,0.0,0.0,0.0,0.0,0.0,0.0,0.0
1676104290.0590045,6976,1676104289,817442528,base_link,1.9982436299324037e-05,1.7076110839843746e-05,-2.3843237757682806e-05,-1.0,0.0,0.0,0.0,0.0,0.0,0.0,0.0,0.0
1676104290.059047,6977,1676104289,837423528,base_link,1.993430554866791e-05,1.7113569378852843e-05,-2.3785999417304998e-05,-1.0,0.0,0.0,0.0,0.0,0.0,0.0,0.0,0.0
1676104290.0590844,6978,1676104289,857404528,base_link,2.003052830696106e-05,1.7055675387382504e-05,-2.371841669082642e-05,-1.0,0.0,0.0,0.0,0.0,0.0,0.0,0.0,0.0
1676104290.0591319,6979,1676104289,877386528,base_link,2.0013049244880678e-05,1.7114886641502377e-05,-2.3792862892150882e-05,-1.0,0.0,0.0,0.0,0.0,0.0,0.0,0.0,0.0
1676104290.0591564,6980,1676104289,897368528,base_link,2.0019842684268952e-05,1.7187589406967162e-05,-2.3792085051536565e-05,-1.0,0.0,0.0,0.0,0.0,0.0,0.0,0.0,0.0
1676104290.0592203,6981,1676104289,917352880,base_link,1.9934536516666414e-05,1.7131441831588744e-05,-2.3829695582389835e-05,-1.0,0.0,0.0,0.0,0.0,0.0,0.0,0.0,0.0
1676104290.0592844,6982,1676104289,937334880,base_link,2.0086303353309632e-05,1.7154341936111447e-05,-2.3949757218360904e-05,-1.0,0.0,0.0,0.0,0.0,0.0,0.0,0.0,0.0
1676104290.0593243,6983,1676104289,957315880,base_link,1.98789119720459e-05,1.7018476128578183e-05,-2.3849368095397955e-05,-1.0,0.0,0.0,0.0,0.0,0.0,0.0,0.0,0.0
1676104290.059382,6984,1676104289,977299880,base_link,1.9959428906440735e-05,1.7196571826934812e-05,-2.3835417628288273e-05,-1.0,0.0,0.0,0.0,0.0,0.0,0.0,0.0,0.0
1676104290.0593987,6985,1676104289,997279880,base_link,1.9741089642047884e-05,1.7162077128887173e-05,-2.385294288396836e-05,-1.0,0.0,0.0,0.0,0.0,0.0,0.0,0.0,0.0
1676104290.059476,6986,1676104290,17264488,base_link,1.9837790727615357e-05,1.7140176892280577e-05,-2.387902140617371e-05,-1.0,0.0,0.0,0.0,0.0,0.0,0.0,0.0,0.0
1676104290.0595038,6987,1676104290,37248488,base_link,1.9788387417793275e-05,1.7049518227577207e-05,-2.384831607341767e-05,-1.0,0.0,0.0,0.0,0.0,0.0,0.0,0.0,0.0
1676104290.0785425,6988,1676104290,57227488,base_link,1.9934126734733584e-05,1.709109544754028e-05,-2.3830151557922368e-05,-1.0,0.0,0.0,0.0,0.0,0.0,0.0,0.0,0.0
1676104290.1033375,6989,1676104290,97191488,base_link,2.0049962401390078e-05,1.7153847217559813e-05,-2.394948303699494e-05,-1.0,0.0,0.0,0.0,0.0,0.0,0.0,0.0,0.0
1676104290.125634,6990,1676104290,117175584,base_link,2.0018592476844787e-05,1.705996841192245e-05,-2.383115589618683e-05,-1.0,0.0,0.0,0.0,0.0,0.0,0.0,0.0,0.0
1676104290.1619215,6991,1676104290,157139584,base_link,1.9958239793777467e-05,1.7076525092124936e-05,-2.3861861228942874e-05,-1.0,0.0,0.0,0.0,0.0,0.0,0.0,0.0,0.0
1676104290.1873488,6992,1676104290,177121584,base_link,1.991044580936432e-05,1.7146506905555723e-05,-2.381052523851395e-05,-1.0,0.0,0.0,0.0,0.0,0.0,0.0,0.0,0.0
1676104290.203193,6993,1676104290,197104584,base_link,1.986069530248642e-05,1.7023077607154843e-05,-2.3767650127410892e-05,-1.0,0.0,0.0,0.0,0.0,0.0,0.0,0.0,0.0
1676104290.2229643,6994,1676104290,217088936,base_link,1.9820073246955874e-05,1.7169339954853054e-05,-2.401024997234345e-05,-1.0,0.0,0.0,0.0,0.0,0.0,0.0,0.0,0.0
1676104290.2465527,6995,1676104290,242063936,base_link,1.963740587234497e-05,1.70943945646286e-05,-2.3809018731117252e-05,-1.0,0.0,0.0,0.0,0.0,0.0,0.0,0.0,0.0
1676104290.2643976,6996,1676104290,257049936,base_link,1.9698873162269593e-05,1.7183974385261534e-05,-2.380847036838532e-05,-1.0,0.0,0.0,0.0,0.0,0.0,0.0,0.0,0.0
1676104290.2840683,6997,1676104290,277031936,base_link,1.9711023569107056e-05,1.7185130715370174e-05,-2.383363544940949e-05,-1.0,0.0,0.0,0.0,0.0,0.0,0.0,0.0,0.0
1676104290.3042326,6998,1676104290,297012936,base_link,1.9618646800518036e-05,1.7043253779411313e-05,-2.3746743798255927e-05,-1.0,0.0,0.0,0.0,0.0,0.0,0.0,0.0,0.0
1676104290.3244305,6999,1676104290,317002032,base_link,1.96554958820343e-05,1.7074644565582274e-05,-2.3915991187095648e-05,-1.0,0.0,0.0,0.0,0.0,0.0,0.0,0.0,0.0
1676104290.3429108,7000,1676104290,336984032,base_link,1.9776618480682374e-05,1.7076039314270017e-05,-2.3910637199878697e-05,-1.0,0.0,0.0,0.0,0.0,0.0,0.0,0.0,0.0
1676104290.3634937,7001,1676104290,356962032,base_link,1.9692906737327577e-05,1.7192210257053373e-05,-2.381460070610047e-05,-1.0,0.0,0.0,0.0,0.0,0.0,0.0,0.0,0.0
1676104290.3854287,7002,1676104290,376943032,base_link,1.9559237360954287e-05,1.7143720388412472e-05,-2.385802417993546e-05,-1.0,0.0,0.0,0.0,0.0,0.0,0.0,0.0,0.0
1676104290.4051006,7003,1676104290,396925032,base_link,1.9747488200664522e-05,1.7200770974159238e-05,-2.3808655142784122e-05,-1.0,0.0,0.0,0.0,0.0,0.0,0.0,0.0,0.0
1676104290.4245372,7004,1676104290,416910640,base_link,1.9668494164943695e-05,1.716915965080261e-05,-2.385230511426926e-05,-1.0,0.0,0.0,0.0,0.0,0.0,0.0,0.0,0.0
1676104290.4425929,7005,1676104290,436891640,base_link,1.954617202281952e-05,1.704747080802917e-05,-2.3877832293510443e-05,-1.0,0.0,0.0,0.0,0.0,0.0,0.0,0.0,0.0
1676104290.4629488,7006,1676104290,456872640,base_link,1.95409893989563e-05,1.714149266481399e-05,-2.3807740211486822e-05,-1.0,0.0,0.0,0.0,0.0,0.0,0.0,0.0,0.0
1676104290.485425,7007,1676104290,481849640,base_link,1.9879552721977234e-05,1.7076694965362548e-05,-2.389260828495026e-05,-1.0,0.0,0.0,0.0,0.0,0.0,0.0,0.0,0.0
1676104290.5080416,7008,1676104290,501830640,base_link,1.973467767238617e-05,1.712897568941116e-05,-2.383445799350739e-05,-1.0,0.0,0.0,0.0,0.0,0.0,0.0,0.0,0.0
1676104290.5229533,7009,1676104290,516820992,base_link,1.98384627699852e-05,1.7199137806892392e-05,-2.3941066861152655e-05,-1.0,0.0,0.0,0.0,0.0,0.0,0.0,0.0,0.0
1676104290.546202,7010,1676104290,541797992,base_link,1.9849935173988343e-05,1.7147171497344968e-05,-2.3847679793834692e-05,-1.0,0.0,0.0,0.0,0.0,0.0,0.0,0.0,0.0
1676104290.5661416,7011,1676104290,561778992,base_link,1.9806292653083804e-05,1.7025063931941982e-05,-2.3836190998554233e-05,-1.0,0.0,0.0,0.0,0.0,0.0,0.0,0.0,0.0
1676104290.582807,7012,1676104290,576765992,base_link,1.980155557394028e-05,1.7154332995414732e-05,-2.3840954899787906e-05,-1.0,0.0,0.0,0.0,0.0,0.0,0.0,0.0,0.0
1676104290.60984,7013,1676104290,601741992,base_link,1.9729533791542055e-05,1.722398996353149e-05,-2.3789435625076297e-05,-1.0,0.0,0.0,0.0,0.0,0.0,0.0,0.0,0.0
1676104290.626677,7014,1676104290,621728600,base_link,1.9874036312103274e-05,1.7144280672073362e-05,-2.3766371607780462e-05,-1.0,0.0,0.0,0.0,0.0,0.0,0.0,0.0,0.0
1676104290.6426153,7015,1676104290,636714600,base_link,1.965664625167847e-05,1.721171289682388e-05,-2.370749115943909e-05,-1.0,0.0,0.0,0.0,0.0,0.0,0.0,0.0,0.0
1676104290.6645355,7016,1676104290,656695600,base_link,1.9697585701942446e-05,1.706145107746124e-05,-2.3772227764129645e-05,-1.0,0.0,0.0,0.0,0.0,0.0,0.0,0.0,0.0
1676104290.6857126,7017,1676104290,681673600,base_link,1.974676847457886e-05,1.7140571773052213e-05,-2.371526658535004e-05,-1.0,0.0,0.0,0.0,0.0,0.0,0.0,0.0,0.0
1676104290.7022185,7018,1676104290,696659600,base_link,1.9813427329063416e-05,1.7136380076408385e-05,-2.3791080713272098e-05,-1.0,0.0,0.0,0.0,0.0,0.0,0.0,0.0,0.0
1676104290.7231023,7019,1676104290,716646208,base_link,1.941351294517517e-05,1.7126494646072385e-05,-2.367523312568665e-05,-1.0,0.0,0.0,0.0,0.0,0.0,0.0,0.0,0.0
1676104290.7458656,7020,1676104290,741621208,base_link,1.9232743978500366e-05,1.721353232860565e-05,-2.3691664636135107e-05,-1.0,0.0,0.0,0.0,0.0,0.0,0.0,0.0,0.0
1676104290.764459,7021,1676104290,756607208,base_link,1.9704869389533996e-05,1.7182570695877074e-05,-2.377090752124787e-05,-1.0,0.0,0.0,0.0,0.0,0.0,0.0,0.0,0.0
1676104290.7855875,7022,1676104290,781584208,base_link,1.9565220177173616e-05,1.7147907614707946e-05,-2.3757684230804448e-05,-1.0,0.0,0.0,0.0,0.0,0.0,0.0,0.0,0.0
1676104290.8228467,7023,1676104290,816556816,base_link,1.95831835269928e-05,1.7124938964843748e-05,-2.3783166706562047e-05,-1.0,0.0,0.0,0.0,0.0,0.0,0.0,0.0,0.0
1676104290.84649,7024,1676104290,841532816,base_link,1.9819130003452303e-05,1.710952967405319e-05,-2.3722445964813236e-05,-1.0,0.0,0.0,0.0,0.0,0.0,0.0,0.0,0.0
1676104290.8852937,7025,1676104290,881495816,base_link,1.983167827129364e-05,1.714469641447067e-05,-2.3791125416755682e-05,-1.0,0.0,0.0,0.0,0.0,0.0,0.0,0.0,0.0
1676104290.902711,7026,1676104290,896483816,base_link,1.9976329803466797e-05,1.7074789106845852e-05,-2.3811851441860203e-05,-1.0,0.0,0.0,0.0,0.0,0.0,0.0,0.0,0.0
1676104290.9242823,7027,1676104290,916469424,base_link,1.9758772850036622e-05,1.711999624967575e-05,-2.3803389072418217e-05,-1.0,0.0,0.0,0.0,0.0,0.0,0.0,0.0,0.0
1676104290.9448376,7028,1676104290,941445424,base_link,1.982542723417282e-05,1.7121645808219907e-05,-2.3822697997093206e-05,-1.0,0.0,0.0,0.0,0.0,0.0,0.0,0.0,0.0
1676104290.9617746,7029,1676104290,956431424,base_link,1.967890411615372e-05,1.6994279623031615e-05,-2.3917086422443395e-05,-1.0,0.0,0.0,0.0,0.0,0.0,0.0,0.0,0.0
1676104290.9838529,7030,1676104290,976414424,base_link,1.973528563976288e-05,1.721030473709106e-05,-2.364539802074433e-05,-1.0,0.0,0.0,0.0,0.0,0.0,0.0,0.0,0.0
1676104291.0098217,7031,1676104291,1389424,base_link,1.9673682749271395e-05,1.7087312042713162e-05,-2.3821920156478886e-05,-1.0,0.0,0.0,0.0,0.0,0.0,0.0,0.0,0.0
1676104291.021875,7032,1676104291,16380776,base_link,1.9681936502456665e-05,1.7316943407058713e-05,-2.3706488311290745e-05,-1.0,0.0,0.0,0.0,0.0,0.0,0.0,0.0,0.0
1676104291.0435488,7033,1676104291,36362776,base_link,1.9734442234039307e-05,1.7105016112327574e-05,-2.384099960327149e-05,-1.0,0.0,0.0,0.0,0.0,0.0,0.0,0.0,0.0
1676104291.0616775,7034,1676104291,56342776,base_link,1.9619837403297424e-05,1.7151373624801632e-05,-2.382704615592957e-05,-1.0,0.0,0.0,0.0,0.0,0.0,0.0,0.0,0.0
1676104291.0823767,7035,1676104291,76323776,base_link,1.9794262945652008e-05,1.70329675078392e-05,-2.383600920438767e-05,-1.0,0.0,0.0,0.0,0.0,0.0,0.0,0.0,0.0
1676104291.1033516,7036,1676104291,96308776,base_link,1.9680146872997286e-05,1.7121654748916625e-05,-2.3871746659278875e-05,-1.0,0.0,0.0,0.0,0.0,0.0,0.0,0.0,0.0
1676104291.1253574,7037,1676104291,121286872,base_link,1.9516688585281372e-05,1.712725460529327e-05,-2.386415302753449e-05,-1.0,0.0,0.0,0.0,0.0,0.0,0.0,0.0,0.0
1676104291.1448982,7038,1676104291,141267872,base_link,1.960704326629639e-05,1.7073985934257505e-05,-2.39156261086464e-05,-1.0,0.0,0.0,0.0,0.0,0.0,0.0,0.0,0.0
1676104291.1622791,7039,1676104291,156253872,base_link,1.958308815956116e-05,1.7110534012317656e-05,-2.3827229440212256e-05,-1.0,0.0,0.0,0.0,0.0,0.0,0.0,0.0,0.0
1676104291.1838067,7040,1676104291,176237872,base_link,1.974768042564392e-05,1.7217653989791868e-05,-2.3827275633811955e-05,-1.0,0.0,0.0,0.0,0.0,0.0,0.0,0.0,0.0
1676104291.207979,7041,1676104291,201211872,base_link,1.9745668768882752e-05,1.7022755742073055e-05,-2.379812449216843e-05,-1.0,0.0,0.0,0.0,0.0,0.0,0.0,0.0,0.0
1676104291.2228847,7042,1676104291,216202480,base_link,1.9855889678001404e-05,1.7132602632045744e-05,-2.3885518312454228e-05,-1.0,0.0,0.0,0.0,0.0,0.0,0.0,0.0,0.0
1676104291.2444658,7043,1676104291,236185480,base_link,1.9800329208374025e-05,1.7033296823501583e-05,-2.3842322826385503e-05,-1.0,0.0,0.0,0.0,0.0,0.0,0.0,0.0,0.0
1676104291.2649941,7044,1676104291,261161480,base_link,1.9758141040802003e-05,1.7062026262283323e-05,-2.3766416311264043e-05,-1.0,0.0,0.0,0.0,0.0,0.0,0.0,0.0,0.0
1676104291.2827978,7045,1676104291,276146480,base_link,1.9601330161094666e-05,1.7118602991104122e-05,-2.3821005225181583e-05,-1.0,0.0,0.0,0.0,0.0,0.0,0.0,0.0,0.0
1676104291.3052597,7046,1676104291,301123480,base_link,1.9610776007175446e-05,1.6859316825866695e-05,-2.379267513751984e-05,-1.0,0.0,0.0,0.0,0.0,0.0,0.0,0.0,0.0
1676104291.3221986,7047,1676104291,316114832,base_link,1.971714347600937e-05,1.7192788422107695e-05,-2.3821052908897405e-05,-1.0,0.0,0.0,0.0,0.0,0.0,0.0,0.0,0.0
1676104291.3448548,7048,1676104291,341090832,base_link,1.9744870066642763e-05,1.694255918264389e-05,-2.381157279014588e-05,-1.0,0.0,0.0,0.0,0.0,0.0,0.0,0.0,0.0
1676104291.3621068,7049,1676104291,356077832,base_link,1.9728739559650423e-05,1.714988052845001e-05,-2.3752647638320928e-05,-1.0,0.0,0.0,0.0,0.0,0.0,0.0,0.0,0.0
1676104291.3833098,7050,1676104291,376058832,base_link,1.9753094017505646e-05,1.7189459502696988e-05,-2.3520350456237796e-05,-1.0,0.0,0.0,0.0,0.0,0.0,0.0,0.0,0.0
1676104291.4073915,7051,1676104291,401034832,base_link,1.9740334153175356e-05,1.7088958621025082e-05,-2.3841227591037756e-05,-1.0,0.0,0.0,0.0,0.0,0.0,0.0,0.0,0.0
1676104291.4220428,7052,1676104291,416027440,base_link,1.9795364141464235e-05,1.713885813951492e-05,-2.3859897255897527e-05,-1.0,0.0,0.0,0.0,0.0,0.0,0.0,0.0,0.0
1676104291.444434,7053,1676104291,441005440,base_link,1.9850070774555207e-05,1.7162567377090452e-05,-2.382869124412537e-05,-1.0,0.0,0.0,0.0,0.0,0.0,0.0,0.0,0.0
1676104291.4646058,7054,1676104291,460984440,base_link,1.950371116399765e-05,1.7051246762275693e-05,-2.3783394694328313e-05,-1.0,0.0,0.0,0.0,0.0,0.0,0.0,0.0,0.0
1676104291.50777,7055,1676104291,500947440,base_link,1.968660354614258e-05,1.71679213643074e-05,-2.3814830183982854e-05,-1.0,0.0,0.0,0.0,0.0,0.0,0.0,0.0,0.0
1676104291.547078,7056,1676104291,540916048,base_link,1.9825595617294314e-05,1.7131942510604857e-05,-2.387902289628983e-05,-1.0,0.0,0.0,0.0,0.0,0.0,0.0,0.0,0.0
1676104291.56177,7057,1676104291,555902048,base_link,1.9830870628356936e-05,1.7064252495765684e-05,-2.3798307776451116e-05,-1.0,0.0,0.0,0.0,0.0,0.0,0.0,0.0,0.0
1676104291.583889,7058,1676104291,580879048,base_link,1.9757850468158724e-05,1.7024651169776915e-05,-2.3842094838619237e-05,-1.0,0.0,0.0,0.0,0.0,0.0,0.0,0.0,0.0
1676104291.6065443,7059,1676104291,600861048,base_link,1.989244818687439e-05,1.71626478433609e-05,-2.3816475272178655e-05,-1.0,0.0,0.0,0.0,0.0,0.0,0.0,0.0,0.0
1676104291.621941,7060,1676104291,615850656,base_link,1.9758181273937226e-05,1.7063017189502713e-05,-2.379149049520493e-05,-1.0,0.0,0.0,0.0,0.0,0.0,0.0,0.0,0.0
1676104291.644299,7061,1676104291,640827656,base_link,1.96789413690567e-05,1.700719892978668e-05,-2.3835414648056035e-05,-1.0,0.0,0.0,0.0,0.0,0.0,0.0,0.0,0.0
1676104291.665909,7062,1676104291,660809656,base_link,1.991560459136963e-05,1.7063915729522703e-05,-2.376133799552918e-05,-1.0,0.0,0.0,0.0,0.0,0.0,0.0,0.0,0.0
1676104291.6822205,7063,1676104291,675796656,base_link,1.964387893676758e-05,1.7128980159759518e-05,-2.386511415243149e-05,-1.0,0.0,0.0,0.0,0.0,0.0,0.0,0.0,0.0
1676104291.7046332,7064,1676104291,700772656,base_link,1.9698463380336763e-05,1.7143628001213073e-05,-2.380892932415009e-05,-1.0,0.0,0.0,0.0,0.0,0.0,0.0,0.0,0.0
1676104291.723872,7065,1676104291,720759264,base_link,1.956637799739838e-05,1.7267212271690367e-05,-2.371243536472321e-05,-1.0,0.0,0.0,0.0,0.0,0.0,0.0,0.0,0.0
1676104291.7450879,7066,1676104291,735744264,base_link,1.974701285362244e-05,1.716477870941162e-05,-2.3714990913867955e-05,-1.0,0.0,0.0,0.0,0.0,0.0,0.0,0.0,0.0
1676104291.7633624,7067,1676104291,760722264,base_link,1.9457802176475527e-05,1.7312909662723538e-05,-2.3679721355438237e-05,-1.0,0.0,0.0,0.0,0.0,0.0,0.0,0.0,0.0
1676104291.7823849,7068,1676104291,775705264,base_link,1.9709166884422304e-05,1.7024138569831846e-05,-2.3641046881675726e-05,-1.0,0.0,0.0,0.0,0.0,0.0,0.0,0.0,0.0
1676104291.804425,7069,1676104291,795688264,base_link,1.9632297754287722e-05,1.7184311151504515e-05,-2.3839309811592108e-05,-1.0,0.0,0.0,0.0,0.0,0.0,0.0,0.0,0.0
1676104291.8231444,7070,1676104291,820668872,base_link,1.9625632464885713e-05,1.7132839560508725e-05,-2.3764589428901678e-05,-1.0,0.0,0.0,0.0,0.0,0.0,0.0,0.0,0.0
1676104291.8456361,7071,1676104291,840652872,base_link,1.961984932422638e-05,1.7157709598541258e-05,-2.3783075809478763e-05,-1.0,0.0,0.0,0.0,0.0,0.0,0.0,0.0,0.0
1676104291.8627987,7072,1676104291,855636872,base_link,1.958983987569809e-05,1.71761617064476e-05,-2.3851619660854346e-05,-1.0,0.0,0.0,0.0,0.0,0.0,0.0,0.0,0.0
1676104291.8836198,7073,1676104291,880616872,base_link,1.9770580530166628e-05,1.708838045597076e-05,-2.3816381394863134e-05,-1.0,0.0,0.0,0.0,0.0,0.0,0.0,0.0,0.0
1676104291.907452,7074,1676104291,900596872,base_link,1.9904720783233644e-05,1.71728640794754e-05,-2.386662364006043e-05,-1.0,0.0,0.0,0.0,0.0,0.0,0.0,0.0,0.0
1676104291.9221487,7075,1676104291,915584736,base_link,1.9844433665275573e-05,1.7203077673912046e-05,-2.383445948362351e-05,-1.0,0.0,0.0,0.0,0.0,0.0,0.0,0.0,0.0
1676104291.9449568,7076,1676104291,940564736,base_link,1.984505653381348e-05,1.7260800302028655e-05,-2.3865163326263432e-05,-1.0,0.0,0.0,0.0,0.0,0.0,0.0,0.0,0.0
1676104291.9643092,7077,1676104291,960549736,base_link,1.974042057991028e-05,1.7103116214275357e-05,-2.3790895938873297e-05,-1.0,0.0,0.0,0.0,0.0,0.0,0.0,0.0,0.0
1676104291.9827385,7078,1676104291,975529736,base_link,1.9619549810886384e-05,1.712008863687515e-05,-2.3852485418319708e-05,-1.0,0.0,0.0,0.0,0.0,0.0,0.0,0.0,0.0
1676104292.0065033,7079,1676104292,509736,base_link,1.9722750782966614e-05,1.7151534557342526e-05,-2.3796480894088748e-05,-1.0,0.0,0.0,0.0,0.0,0.0,0.0,0.0,0.0
1676104292.0235698,7080,1676104292,20495344,base_link,1.9775892794132233e-05,1.7021679878234862e-05,-2.3760741949081427e-05,-1.0,0.0,0.0,0.0,0.0,0.0,0.0,0.0,0.0
1676104292.0455978,7081,1676104292,35478344,base_link,1.971699595451355e-05,1.7189070582389828e-05,-2.3727026581764227e-05,-1.0,0.0,0.0,0.0,0.0,0.0,0.0,0.0,0.0
1676104292.0631893,7082,1676104292,60457344,base_link,1.976485252380371e-05,1.7126661539077758e-05,-2.3765733838081363e-05,-1.0,0.0,0.0,0.0,0.0,0.0,0.0,0.0,0.0
1676104292.0854979,7083,1676104292,80438344,base_link,1.9711081683635714e-05,1.7204630374908444e-05,-2.3714260756969457e-05,-1.0,0.0,0.0,0.0,0.0,0.0,0.0,0.0,0.0
1676104292.1077812,7084,1676104292,100421344,base_link,1.9680048525333404e-05,1.7119175195693968e-05,-2.3809063434600836e-05,-1.0,0.0,0.0,0.0,0.0,0.0,0.0,0.0,0.0
1676104292.1221228,7085,1676104292,115408184,base_link,1.9717326760292053e-05,1.7209421098232267e-05,-2.383340895175934e-05,-1.0,0.0,0.0,0.0,0.0,0.0,0.0,0.0,0.0
1676104292.144382,7086,1676104292,140388184,base_link,1.975829303264618e-05,1.7071831226348874e-05,-2.3810204863548283e-05,-1.0,0.0,0.0,0.0,0.0,0.0,0.0,0.0,0.0
1676104292.1671603,7087,1676104292,160366184,base_link,1.9262295961380006e-05,1.7129394412040708e-05,-2.379946112632752e-05,-1.0,0.0,0.0,0.0,0.0,0.0,0.0,0.0,0.0
1676104292.2043998,7088,1676104292,200329184,base_link,1.9595226645469666e-05,1.7105355858802793e-05,-2.3896363377571112e-05,-1.0,0.0,0.0,0.0,0.0,0.0,0.0,0.0,0.0
1676104292.225894,7089,1676104292,220316792,base_link,1.9818831980228426e-05,1.707799434661865e-05,-2.3741617798805242e-05,-1.0,0.0,0.0,0.0,0.0,0.0,0.0,0.0,0.0
1676104292.263049,7090,1676104292,260278792,base_link,1.971539855003357e-05,1.702867746353149e-05,-2.375392317771912e-05,-1.0,0.0,0.0,0.0,0.0,0.0,0.0,0.0,0.0
1676104292.2831624,7091,1676104292,275264792,base_link,1.9824771583080294e-05,1.705709099769592e-05,-2.3823426663875585e-05,-1.0,0.0,0.0,0.0,0.0,0.0,0.0,0.0,0.0
1676104292.302895,7092,1676104292,300240792,base_link,1.9917476177215577e-05,1.724925935268402e-05,-2.3752969503402715e-05,-1.0,0.0,0.0,0.0,0.0,0.0,0.0,0.0,0.0
1676104292.3256772,7093,1676104292,320229912,base_link,1.9807347655296328e-05,1.7129714787006377e-05,-2.3828735947608952e-05,-1.0,0.0,0.0,0.0,0.0,0.0,0.0,0.0,0.0
1676104292.3432245,7094,1676104292,335212912,base_link,1.976511925458908e-05,1.7151364684104918e-05,-2.37779974937439e-05,-1.0,0.0,0.0,0.0,0.0,0.0,0.0,0.0,0.0
1676104292.363374,7095,1676104292,360190912,base_link,1.9764405488967896e-05,1.7085325717926023e-05,-2.3741114139556888e-05,-1.0,0.0,0.0,0.0,0.0,0.0,0.0,0.0,0.0
1676104292.3854508,7096,1676104292,380171912,base_link,1.976539641618729e-05,1.71824038028717e-05,-2.3746289312839513e-05,-1.0,0.0,0.0,0.0,0.0,0.0,0.0,0.0,0.0
1676104292.4030132,7097,1676104292,395157912,base_link,1.9709792733192445e-05,1.7076021432876585e-05,-2.3728257417678838e-05,-1.0,0.0,0.0,0.0,0.0,0.0,0.0,0.0,0.0
1676104292.4231863,7098,1676104292,420139776,base_link,1.9727420806884766e-05,1.7020526528358456e-05,-2.3747840523719793e-05,-1.0,0.0,0.0,0.0,0.0,0.0,0.0,0.0,0.0
1676104292.444851,7099,1676104292,440120776,base_link,1.980179846286774e-05,1.719047129154205e-05,-2.3733934760093695e-05,-1.0,0.0,0.0,0.0,0.0,0.0,0.0,0.0,0.0
1676104292.4619048,7100,1676104292,455106776,base_link,1.9740454852581026e-05,1.7116034030914304e-05,-2.3709222674369818e-05,-1.0,0.0,0.0,0.0,0.0,0.0,0.0,0.0,0.0
1676104292.4845417,7101,1676104292,480086776,base_link,1.9662564992904664e-05,1.7190313339233395e-05,-2.3776763677597052e-05,-1.0,0.0,0.0,0.0,0.0,0.0,0.0,0.0,0.0
1676104292.506653,7102,1676104292,500064776,base_link,1.9722482562065125e-05,1.712074279785156e-05,-2.383445650339127e-05,-1.0,0.0,0.0,0.0,0.0,0.0,0.0,0.0,0.0
1676104292.523265,7103,1676104292,520052640,base_link,1.9280073046684266e-05,1.70897901058197e-05,-2.3812592029571537e-05,-1.0,0.0,0.0,0.0,0.0,0.0,0.0,0.0,0.0
1676104292.5440748,7104,1676104292,540035640,base_link,1.9800364971160888e-05,1.704621613025665e-05,-2.3760651051998143e-05,-1.0,0.0,0.0,0.0,0.0,0.0,0.0,0.0,0.0
1676104292.5640187,7105,1676104292,560017640,base_link,1.9618886709213258e-05,1.7055284976959225e-05,-2.384694814682007e-05,-1.0,0.0,0.0,0.0,0.0,0.0,0.0,0.0,0.0
1676104292.5828743,7106,1676104292,579998640,base_link,2.0134612917900086e-05,1.7145442962646482e-05,-2.3912602663040167e-05,-1.0,0.0,0.0,0.0,0.0,0.0,0.0,0.0,0.0
1676104292.6058624,7107,1676104292,599980640,base_link,1.9686421751976016e-05,1.715128719806671e-05,-2.3802477121353155e-05,-1.0,0.0,0.0,0.0,0.0,0.0,0.0,0.0,0.0
1676104292.6249404,7108,1676104292,619962992,base_link,1.9775819778442384e-05,1.701385825872421e-05,-2.376710176467896e-05,-1.0,0.0,0.0,0.0,0.0,0.0,0.0,0.0,0.0
1676104292.642708,7109,1676104292,639945992,base_link,1.988714039325714e-05,1.724152266979217e-05,-2.3771637678146367e-05,-1.0,0.0,0.0,0.0,0.0,0.0,0.0,0.0,0.0
1676104292.662908,7110,1676104292,659925992,base_link,1.9740477204322814e-05,1.7104601860046384e-05,-2.3828507959842686e-05,-1.0,0.0,0.0,0.0,0.0,0.0,0.0,0.0,0.0
1676104292.6846054,7111,1676104292,679907992,base_link,1.9698292016983033e-05,1.7133331298828124e-05,-2.3752601444721225e-05,-1.0,0.0,0.0,0.0,0.0,0.0,0.0,0.0,0.0
1676104292.7041512,7112,1676104292,699888992,base_link,1.9729524850845338e-05,1.7223742604255673e-05,-2.3783168196678166e-05,-1.0,0.0,0.0,0.0,0.0,0.0,0.0,0.0,0.0
1676104292.723118,7113,1676104292,719875856,base_link,1.9740517437458038e-05,1.7123606801033017e-05,-2.3696598410606388e-05,-1.0,0.0,0.0,0.0,0.0,0.0,0.0,0.0,0.0
1676104292.7445676,7114,1676104292,739855856,base_link,1.9462287425994875e-05,1.7165270447731016e-05,-2.361872494220734e-05,-1.0,0.0,0.0,0.0,0.0,0.0,0.0,0.0,0.0
1676104292.7636955,7115,1676104292,759840856,base_link,1.9345103204250337e-05,1.6954404115676876e-05,-2.3632767796516422e-05,-1.0,0.0,0.0,0.0,0.0,0.0,0.0,0.0,0.0
1676104292.785018,7116,1676104292,779819856,base_link,1.9735221564769746e-05,1.7184719443321226e-05,-2.381501495838166e-05,-1.0,0.0,0.0,0.0,0.0,0.0,0.0,0.0,0.0
1676104292.805295,7117,1676104292,799800856,base_link,1.9613152742385865e-05,1.7099407315254208e-05,-2.3739790916442874e-05,-1.0,0.0,0.0,0.0,0.0,0.0,0.0,0.0,0.0
1676104292.8216755,7118,1676104292,814792488,base_link,1.9582518935203555e-05,1.7060136795043943e-05,-2.3777629435062414e-05,-1.0,0.0,0.0,0.0,0.0,0.0,0.0,0.0,0.0
1676104292.842673,7119,1676104292,839769488,base_link,1.95596843957901e-05,1.7196984589099883e-05,-2.377589344978333e-05,-1.0,0.0,0.0,0.0,0.0,0.0,0.0,0.0,0.0
1676104292.863679,7120,1676104292,859750488,base_link,1.9540613889694215e-05,1.710797846317291e-05,-2.3776762187480933e-05,-1.0,0.0,0.0,0.0,0.0,0.0,0.0,0.0,0.0
1676104292.9036953,7121,1676104292,899713488,base_link,1.9734176993370058e-05,1.7080312967300414e-05,-2.3828735947608952e-05,-1.0,0.0,0.0,0.0,0.0,0.0,0.0,0.0,0.0
1676104292.923963,7122,1676104292,919699096,base_link,1.9697684049606324e-05,1.7063930630683897e-05,-2.3834913969039922e-05,-1.0,0.0,0.0,0.0,0.0,0.0,0.0,0.0,0.0
1676104292.9424908,7123,1676104292,934685096,base_link,1.9770437479019166e-05,1.7078825831413265e-05,-2.3778861761093144e-05,-1.0,0.0,0.0,0.0,0.0,0.0,0.0,0.0,0.0
1676104292.9621372,7124,1676104292,959662096,base_link,1.9807368516921997e-05,1.713020801544189e-05,-2.3841273784637455e-05,-1.0,0.0,0.0,0.0,0.0,0.0,0.0,0.0,0.0
1676104292.9834769,7125,1676104292,979644096,base_link,1.968619227409363e-05,1.7139503359794614e-05,-2.3708540201187138e-05,-1.0,0.0,0.0,0.0,0.0,0.0,0.0,0.0,0.0
1676104293.0025854,7126,1676104292,994630096,base_link,1.9486844539642334e-05,1.71859472990036e-05,-2.3725289106369023e-05,-1.0,0.0,0.0,0.0,0.0,0.0,0.0,0.0,0.0
1676104293.0222032,7127,1676104293,19611704,base_link,1.9741332530975343e-05,1.7198212444782256e-05,-2.3745922744274145e-05,-1.0,0.0,0.0,0.0,0.0,0.0,0.0,0.0,0.0
1676104293.0457747,7128,1676104293,39592704,base_link,1.975865662097931e-05,1.7117023468017574e-05,-2.3728168010711674e-05,-1.0,0.0,0.0,0.0,0.0,0.0,0.0,0.0,0.0
1676104293.0652075,7129,1676104293,59573704,base_link,1.9726383686065674e-05,1.6910281777381893e-05,-2.3818069696426396e-05,-1.0,0.0,0.0,0.0,0.0,0.0,0.0,0.0,0.0
1676104293.083473,7130,1676104293,79555704,base_link,1.974693536758423e-05,1.7144784331321713e-05,-2.3821829259395602e-05,-1.0,0.0,0.0,0.0,0.0,0.0,0.0,0.0,0.0
1676104293.1031234,7131,1676104293,99537704,base_link,1.9739732146263123e-05,1.7025646567344665e-05,-2.3873299360275274e-05,-1.0,0.0,0.0,0.0,0.0,0.0,0.0,0.0,0.0
1676104293.1218898,7132,1676104293,119522520,base_link,1.972118616104126e-05,1.699797213077545e-05,-2.3791947960853583e-05,-1.0,0.0,0.0,0.0,0.0,0.0,0.0,0.0,0.0
1676104293.1437445,7133,1676104293,139504520,base_link,1.989250034093857e-05,1.7169973254203792e-05,-2.3797577619552618e-05,-1.0,0.0,0.0,0.0,0.0,0.0,0.0,0.0,0.0
1676104293.1620681,7134,1676104293,154488520,base_link,1.9765251874923707e-05,1.716675907373428e-05,-2.375900745391846e-05,-1.0,0.0,0.0,0.0,0.0,0.0,0.0,0.0,0.0
1676104293.183508,7135,1676104293,179465520,base_link,1.963247209787369e-05,1.720069646835327e-05,-2.3845395445823673e-05,-1.0,0.0,0.0,0.0,0.0,0.0,0.0,0.0,0.0
1676104293.204568,7136,1676104293,199448520,base_link,1.973441243171692e-05,1.710427403450012e-05,-2.382219433784485e-05,-1.0,0.0,0.0,0.0,0.0,0.0,0.0,0.0,0.0
1676104293.2242248,7137,1676104293,219437872,base_link,1.9595476984977724e-05,1.7135651409626006e-05,-2.3845851421356205e-05,-1.0,0.0,0.0,0.0,0.0,0.0,0.0,0.0,0.0
1676104293.2430646,7138,1676104293,239413872,base_link,1.9539768993854523e-05,1.7014615237712857e-05,-2.3865616321563727e-05,-1.0,0.0,0.0,0.0,0.0,0.0,0.0,0.0,0.0
1676104293.263004,7139,1676104293,259397872,base_link,1.9563084840774538e-05,1.6943949460983275e-05,-2.37035483121872e-05,-1.0,0.0,0.0,0.0,0.0,0.0,0.0,0.0,0.0
1676104293.286006,7140,1676104293,279378872,base_link,1.9885417819023134e-05,1.7059892416000365e-05,-2.3874029517173772e-05,-1.0,0.0,0.0,0.0,0.0,0.0,0.0,0.0,0.0
1676104293.3022156,7141,1676104293,299358872,base_link,1.978408992290497e-05,1.723789572715759e-05,-2.371444404125214e-05,-1.0,0.0,0.0,0.0,0.0,0.0,0.0,0.0,0.0
1676104293.3233151,7142,1676104293,319345480,base_link,1.985657960176468e-05,1.7210072278976437e-05,-2.380311489105225e-05,-1.0,0.0,0.0,0.0,0.0,0.0,0.0,0.0,0.0
1676104293.3451807,7143,1676104293,339327480,base_link,1.9873949885368348e-05,1.7130121588706968e-05,-2.3816701769828802e-05,-1.0,0.0,0.0,0.0,0.0,0.0,0.0,0.0,0.0
1676104293.3625443,7144,1676104293,359308480,base_link,1.977154463529587e-05,1.7190802097320555e-05,-2.3752512037754064e-05,-1.0,0.0,0.0,0.0,0.0,0.0,0.0,0.0,0.0
1676104293.3833668,7145,1676104293,379290480,base_link,1.9704532623291015e-05,1.7168062925338743e-05,-2.360801696777344e-05,-1.0,0.0,0.0,0.0,0.0,0.0,0.0,0.0,0.0
1676104293.4049273,7146,1676104293,399273480,base_link,1.967437118291855e-05,1.715869605541229e-05,-2.3789754509925847e-05,-1.0,0.0,0.0,0.0,0.0,0.0,0.0,0.0,0.0
1676104293.4225411,7147,1676104293,419259344,base_link,1.9793429970741274e-05,1.6963954269886015e-05,-2.3723906278610236e-05,-1.0,0.0,0.0,0.0,0.0,0.0,0.0,0.0,0.0
1676104293.4448378,7148,1676104293,439238344,base_link,1.9625651836395264e-05,1.713333576917648e-05,-2.3777127265930182e-05,-1.0,0.0,0.0,0.0,0.0,0.0,0.0,0.0,0.0
1676104293.465509,7149,1676104293,459222344,base_link,1.955280601978302e-05,1.7110122740268704e-05,-2.382700145244599e-05,-1.0,0.0,0.0,0.0,0.0,0.0,0.0,0.0,0.0
1676104293.4823344,7150,1676104293,479204344,base_link,1.9666974246501924e-05,1.7028763890266414e-05,-2.3772364854812628e-05,-1.0,0.0,0.0,0.0,0.0,0.0,0.0,0.0,0.0
1676104293.5062046,7151,1676104293,499185344,base_link,1.9510754942893984e-05,1.7142319679260253e-05,-2.3838853836059576e-05,-1.0,0.0,0.0,0.0,0.0,0.0,0.0,0.0,0.0
1676104293.523367,7152,1676104293,519181696,base_link,1.9492441415786744e-05,1.712642908096313e-05,-2.385143488645554e-05,-1.0,0.0,0.0,0.0,0.0,0.0,0.0,0.0,0.0
1676104293.5456917,7153,1676104293,539149696,base_link,1.969771683216095e-05,1.7070758342742918e-05,-2.380347847938538e-05,-1.0,0.0,0.0,0.0,0.0,0.0,0.0,0.0,0.0
1676104293.562205,7154,1676104293,559130696,base_link,1.966829001903534e-05,1.71520322561264e-05,-2.3827412724494938e-05,-1.0,0.0,0.0,0.0,0.0,0.0,0.0,0.0,0.0
1676104293.5844834,7155,1676104293,579112696,base_link,1.9601167738437653e-05,1.7102465033531187e-05,-2.382118701934815e-05,-1.0,0.0,0.0,0.0,0.0,0.0,0.0,0.0,0.0
1676104293.6074326,7156,1676104293,599094696,base_link,1.9661396741867065e-05,1.7070761322975156e-05,-2.3815742135047916e-05,-1.0,0.0,0.0,0.0,0.0,0.0,0.0,0.0,0.0
1676104293.6441267,7157,1676104293,639062840,base_link,1.97953000664711e-05,1.7143212258815764e-05,-2.3765778541564947e-05,-1.0,0.0,0.0,0.0,0.0,0.0,0.0,0.0,0.0
1676104293.6653297,7158,1676104293,659044840,base_link,1.9892364740371703e-05,1.715457737445831e-05,-2.3816567659378058e-05,-1.0,0.0,0.0,0.0,0.0,0.0,0.0,0.0,0.0
1676104293.6824808,7159,1676104293,679025840,base_link,1.9808655977249148e-05,1.725882142782211e-05,-2.3827277123928074e-05,-1.0,0.0,0.0,0.0,0.0,0.0,0.0,0.0,0.0
1676104293.7040107,7160,1676104293,699007840,base_link,1.974649429321289e-05,1.7097607254981992e-05,-2.3853719234466557e-05,-1.0,0.0,0.0,0.0,0.0,0.0,0.0,0.0,0.0
1676104293.726086,7161,1676104293,718992936,base_link,1.9789749383926393e-05,1.7185951769351956e-05,-2.3827961087226873e-05,-1.0,0.0,0.0,0.0,0.0,0.0,0.0,0.0,0.0
1676104293.7442226,7162,1676104293,738973936,base_link,1.9824416935443878e-05,1.703015863895416e-05,-2.375474721193314e-05,-1.0,0.0,0.0,0.0,0.0,0.0,0.0,0.0,0.0
1676104293.7629557,7163,1676104293,758955936,base_link,1.9655957818031314e-05,1.7134241759777066e-05,-2.378989309072495e-05,-1.0,0.0,0.0,0.0,0.0,0.0,0.0,0.0,0.0
1676104293.7842605,7164,1676104293,778936936,base_link,1.9662424921989443e-05,1.71807587146759e-05,-2.3739242553710943e-05,-1.0,0.0,0.0,0.0,0.0,0.0,0.0,0.0,0.0
1676104293.8040438,7165,1676104293,798919936,base_link,1.9657185673713687e-05,1.726136803627014e-05,-2.3738285899162297e-05,-1.0,0.0,0.0,0.0,0.0,0.0,0.0,0.0,0.0
1676104293.850336,7166,1676104293,843885312,base_link,2.8759929537773132e-05,1.1665976792573927e-05,-1.613965928554535e-05,-1.0,0.0,0.0,0.0,0.0,0.0,0.0,0.0,0.0
1676104293.8686993,7167,1676104293,863863312,base_link,1.8405568599700927e-05,2.9772949218749997e-05,-2.0287565886974338e-05,-1.0,0.0,0.0,0.0,0.0,0.0,0.0,0.0,0.0
1676104293.8892922,7168,1676104293,883845312,base_link,2.1121454238891604e-05,1.1022292822599407e-05,-3.551637530326843e-05,-1.0,0.0,0.0,0.0,0.0,0.0,0.0,0.0,0.0
1676104293.911545,7169,1676104293,903831176,base_link,1.6761410236358644e-05,1.1806569993495938e-05,-3.3949983119964604e-05,-1.0,0.0,0.0,0.0,0.0,0.0,0.0,0.0,0.0
1676104293.928839,7170,1676104293,923814176,base_link,1.9422669708728792e-05,1.6868914663791656e-05,-2.8594857454299933e-05,-1.0,0.0,0.0,0.0,0.0,0.0,0.0,0.0,0.0
1676104293.9502492,7171,1676104293,943796176,base_link,3.267307281494141e-05,8.804908394813534e-06,-4.211496114730835e-05,-1.0,0.0,0.0,0.0,0.0,0.0,0.0,0.0,0.0
1676104293.970489,7172,1676104293,963776176,base_link,2.6582917571067813e-05,1.3110816478729246e-05,-3.2198357582092285e-05,-1.0,0.0,0.0,0.0,0.0,0.0,0.0,0.0,0.0
1676104293.9911914,7173,1676104293,983757176,base_link,2.0753175020217895e-05,1.643857955932617e-05,-2.5631177425384527e-05,-1.0,0.0,0.0,0.0,0.0,0.0,0.0,0.0,0.0
1676104294.0123317,7174,1676104294,3738176,base_link,2.092310041189194e-05,1.6098384559154507e-05,-2.370482981204987e-05,-1.0,0.0,0.0,0.0,0.0,0.0,0.0,0.0,0.0
1676104294.0302274,7175,1676104294,23727088,base_link,2.15257927775383e-05,1.6496641933918e-05,-2.2958660125732427e-05,-1.0,0.0,0.0,0.0,0.0,0.0,0.0,0.0,0.0
1676104294.0502493,7176,1676104294,43709088,base_link,2.243543714284897e-05,1.8269185721874234e-05,-2.420599609613419e-05,-1.0,0.0,0.0,0.0,0.0,0.0,0.0,0.0,0.0
1676104294.069111,7177,1676104294,63690088,base_link,2.260532081127167e-05,1.5956741571426388e-05,-2.3844812810420994e-05,-1.0,0.0,0.0,0.0,0.0,0.0,0.0,0.0,0.0
1676104294.0873907,7178,1676104294,83672088,base_link,2.3733308911323548e-05,1.4832636713981626e-05,-2.463765144348145e-05,-1.0,0.0,0.0,0.0,0.0,0.0,0.0,0.0,0.0
1676104294.109333,7179,1676104294,103653088,base_link,2.227511703968048e-05,1.6319864988327022e-05,-2.3135763406753544e-05,-1.0,0.0,0.0,0.0,0.0,0.0,0.0,0.0,0.0
1676104294.1301758,7180,1676104294,123639952,base_link,2.426605522632599e-05,1.5521034598350524e-05,-2.369950711727143e-05,-1.0,0.0,0.0,0.0,0.0,0.0,0.0,0.0,0.0
1676104294.1506505,7181,1676104294,143625952,base_link,2.3215611279010774e-05,1.47348016500473e-05,-2.294782549142838e-05,-1.0,0.0,0.0,0.0,0.0,0.0,0.0,0.0,0.0
1676104294.1709328,7182,1676104294,163601952,base_link,2.4887311458587647e-05,1.507436633110046e-05,-2.546530961990357e-05,-1.0,0.0,0.0,0.0,0.0,0.0,0.0,0.0,0.0
1676104294.189666,7183,1676104294,183583952,base_link,2.4199174344539643e-05,1.5333545207977293e-05,-2.510587573051453e-05,-1.0,0.0,0.0,0.0,0.0,0.0,0.0,0.0,0.0
1676104294.210476,7184,1676104294,203564952,base_link,2.5566282868385317e-05,1.0358913242816921e-05,-2.5605744123458862e-05,-1.0,0.0,0.0,0.0,0.0,0.0,0.0,0.0,0.0
1676104294.2286758,7185,1676104294,223552328,base_link,2.3810002207756043e-05,1.4656077325344083e-05,-2.44333028793335e-05,-1.0,0.0,0.0,0.0,0.0,0.0,0.0,0.0,0.0
1676104294.250314,7186,1676104294,243534328,base_link,2.353436350822449e-05,1.5408375859260557e-05,-2.5589060783386234e-05,-1.0,0.0,0.0,0.0,0.0,0.0,0.0,0.0,0.0
1676104294.2701888,7187,1676104294,263515328,base_link,2.5498616695404055e-05,1.4469140768051144e-05,-2.5263684988021855e-05,-1.0,0.0,0.0,0.0,0.0,0.0,0.0,0.0,0.0
1676104294.2888489,7188,1676104294,283497328,base_link,2.3698788881301882e-05,1.5118245780467984e-05,-2.370599508285523e-05,-1.0,0.0,0.0,0.0,0.0,0.0,0.0,0.0,0.0
1676104294.314876,7189,1676104294,303484984,base_link,2.5905954837799075e-05,1.4723628759384152e-05,-2.4417310953140265e-05,-1.0,0.0,0.0,0.0,0.0,0.0,0.0,0.0,0.0
1676104294.3281584,7190,1676104294,323465984,base_link,2.3991994559764864e-05,1.482201814651489e-05,-2.326009869575501e-05,-1.0,0.0,0.0,0.0,0.0,0.0,0.0,0.0,0.0
1676104294.349767,7191,1676104294,343446984,base_link,2.4530357122421266e-05,1.4728257060050961e-05,-2.3566329479217534e-05,-1.0,0.0,0.0,0.0,0.0,0.0,0.0,0.0,0.0
1676104294.3703477,7192,1676104294,363428984,base_link,2.4647966027259826e-05,1.545089781284332e-05,-2.465646862983704e-05,-1.0,0.0,0.0,0.0,0.0,0.0,0.0,0.0,0.0
1676104294.3889837,7193,1676104294,383411984,base_link,2.3032678663730623e-05,1.5643243491649626e-05,-2.4347096681594855e-05,-1.0,0.0,0.0,0.0,0.0,0.0,0.0,0.0,0.0
1676104294.4128351,7194,1676104294,403398128,base_link,2.4473561346530915e-05,1.5104703605175016e-05,-2.35114336013794e-05,-1.0,0.0,0.0,0.0,0.0,0.0,0.0,0.0,0.0
1676104294.42841,7195,1676104294,423380128,base_link,2.5189077854156494e-05,1.510552018880844e-05,-2.4313378334045413e-05,-1.0,0.0,0.0,0.0,0.0,0.0,0.0,0.0,0.0
1676104294.4506736,7196,1676104294,443362128,base_link,2.2114171087741852e-05,1.6890007257461544e-05,-2.5567531585693363e-05,-1.0,0.0,0.0,0.0,0.0,0.0,0.0,0.0,0.0
1676104294.4710789,7197,1676104294,463342128,base_link,2.464987337589264e-05,1.6366213560104366e-05,-2.351097464561463e-05,-1.0,0.0,0.0,0.0,0.0,0.0,0.0,0.0,0.0
1676104294.5123239,7198,1676104294,503311016,base_link,2.5931167602539065e-05,1.349477171897888e-05,-2.5585395097732546e-05,-1.0,0.0,0.0,0.0,0.0,0.0,0.0,0.0,0.0
1676104294.531668,7199,1676104294,528289016,base_link,2.4513676762580872e-05,1.5500730276107785e-05,-2.3306557536125188e-05,-1.0,0.0,0.0,0.0,0.0,0.0,0.0,0.0,0.0
1676104294.570602,7200,1676104294,563255016,base_link,2.2786241769790652e-05,1.5198484063148496e-05,-2.4613654613494876e-05,-1.0,0.0,0.0,0.0,0.0,0.0,0.0,0.0,0.0
1676104294.588547,7201,1676104294,583236016,base_link,2.7097237110137942e-05,1.5079461038112637e-05,-2.5055822730064397e-05,-1.0,0.0,0.0,0.0,0.0,0.0,0.0,0.0,0.0
1676104294.6108253,7202,1676104294,603225160,base_link,2.4311716854572296e-05,1.3962945342063901e-05,-2.4495224654674534e-05,-1.0,0.0,0.0,0.0,0.0,0.0,0.0,0.0,0.0
1676104294.6314545,7203,1676104294,623205160,base_link,2.4246287345886232e-05,1.4793300628662107e-05,-2.3469331860542303e-05,-1.0,0.0,0.0,0.0,0.0,0.0,0.0,0.0,0.0
1676104294.649649,7204,1676104294,643187160,base_link,2.3760491609573365e-05,1.4508651196956632e-05,-2.480459958314896e-05,-1.0,0.0,0.0,0.0,0.0,0.0,0.0,0.0,0.0
1676104294.670361,7205,1676104294,663168160,base_link,2.6123973727226258e-05,1.4678137004375456e-05,-2.4827137589454656e-05,-1.0,0.0,0.0,0.0,0.0,0.0,0.0,0.0,0.0
1676104294.6907551,7206,1676104294,688145160,base_link,2.386789619922638e-05,1.542355120182037e-05,-2.586111724376679e-05,-1.0,0.0,0.0,0.0,0.0,0.0,0.0,0.0,0.0
1676104294.7101178,7207,1676104294,703131160,base_link,2.466401308774948e-05,1.6429580748081204e-05,-2.4701891839504248e-05,-1.0,0.0,0.0,0.0,0.0,0.0,0.0,0.0,0.0
1676104294.730439,7208,1676104294,723118792,base_link,2.404644787311554e-05,1.333312392234802e-05,-2.5804761052131653e-05,-1.0,0.0,0.0,0.0,0.0,0.0,0.0,0.0,0.0
1676104294.7513835,7209,1676104294,748094792,base_link,2.6333099603652956e-05,1.3933745026588437e-05,-2.3689588904380803e-05,-1.0,0.0,0.0,0.0,0.0,0.0,0.0,0.0,0.0
1676104294.7693975,7210,1676104294,763082792,base_link,2.474862337112427e-05,1.4259891211986538e-05,-2.267028689384461e-05,-1.0,0.0,0.0,0.0,0.0,0.0,0.0,0.0,0.0
1676104294.7902515,7211,1676104294,783062792,base_link,2.4452011287212375e-05,1.389394402503967e-05,-2.5970822572708133e-05,-1.0,0.0,0.0,0.0,0.0,0.0,0.0,0.0,0.0
1676104294.811677,7212,1676104294,803050704,base_link,2.3753671348094942e-05,1.6208547353744504e-05,-2.49294325709343e-05,-1.0,0.0,0.0,0.0,0.0,0.0,0.0,0.0,0.0
1676104294.8280458,7213,1676104294,823032704,base_link,2.4177008867263795e-05,1.4521263539791105e-05,-2.3553422093391424e-05,-1.0,0.0,0.0,0.0,0.0,0.0,0.0,0.0,0.0
1676104294.8497074,7214,1676104294,843013704,base_link,2.5618261098861696e-05,1.3938096165657041e-05,-2.3426918685436252e-05,-1.0,0.0,0.0,0.0,0.0,0.0,0.0,0.0,0.0
1676104294.869967,7215,1676104294,862995704,base_link,2.3037661612033846e-05,1.3620963692665097e-05,-2.5461345911026e-05,-1.0,0.0,0.0,0.0,0.0,0.0,0.0,0.0,0.0
1676104294.8915975,7216,1676104294,887972704,base_link,2.5428441166877746e-05,1.4318433403968808e-05,-2.3515194654464725e-05,-1.0,0.0,0.0,0.0,0.0,0.0,0.0,0.0,0.0
1676104294.9095361,7217,1676104294,902958704,base_link,2.457486093044281e-05,1.4950063824653623e-05,-2.344499230384827e-05,-1.0,0.0,0.0,0.0,0.0,0.0,0.0,0.0,0.0
1676104294.9304445,7218,1676104294,922947128,base_link,2.6939147710800172e-05,1.3342663645744321e-05,-2.4052171409130097e-05,-1.0,0.0,0.0,0.0,0.0,0.0,0.0,0.0,0.0
1676104294.951444,7219,1676104294,947925128,base_link,2.3902952671051027e-05,1.4824496209621426e-05,-2.47832864522934e-05,-1.0,0.0,0.0,0.0,0.0,0.0,0.0,0.0,0.0
1676104294.9697623,7220,1676104294,962911128,base_link,2.4230147898197175e-05,1.3101175427436826e-05,-2.4366438388824466e-05,-1.0,0.0,0.0,0.0,0.0,0.0,0.0,0.0,0.0
1676104294.9900768,7221,1676104294,982891128,base_link,2.531464993953705e-05,1.3179101049900053e-05,-2.4135595560073854e-05,-1.0,0.0,0.0,0.0,0.0,0.0,0.0,0.0,0.0
1676104295.008616,7222,1676104295,2873128,base_link,2.4464634060859682e-05,1.4122915267944334e-05,-2.440678328275681e-05,-1.0,0.0,0.0,0.0,0.0,0.0,0.0,0.0,0.0
1676104295.0293493,7223,1676104295,22861040,base_link,2.8746345639228822e-05,1.3521784543991086e-05,-2.4709977209568026e-05,-1.0,0.0,0.0,0.0,0.0,0.0,0.0,0.0,0.0
1676104295.0512671,7224,1676104295,42843040,base_link,2.3063813149929046e-05,1.6334301233291623e-05,-2.425794452428818e-05,-1.0,0.0,0.0,0.0,0.0,0.0,0.0,0.0,0.0
1676104295.0693831,7225,1676104295,62824040,base_link,2.4566814303398133e-05,1.5721797943115233e-05,-2.5411576032638555e-05,-1.0,0.0,0.0,0.0,0.0,0.0,0.0,0.0,0.0
1676104295.088915,7226,1676104295,82806040,base_link,2.4664980173110963e-05,1.4686849713325499e-05,-2.512936592102051e-05,-1.0,0.0,0.0,0.0,0.0,0.0,0.0,0.0,0.0
1676104295.1109667,7227,1676104295,102794208,base_link,2.4846714735031128e-05,1.4255152642726895e-05,-2.3743471503257756e-05,-1.0,0.0,0.0,0.0,0.0,0.0,0.0,0.0,0.0
1676104295.1286426,7228,1676104295,122776208,base_link,2.4891284108161926e-05,1.5075728297233579e-05,-2.3659218847751622e-05,-1.0,0.0,0.0,0.0,0.0,0.0,0.0,0.0,0.0
1676104295.149885,7229,1676104295,142757208,base_link,2.378438860177994e-05,1.4494717121124265e-05,-2.464816421270371e-05,-1.0,0.0,0.0,0.0,0.0,0.0,0.0,0.0,0.0
1676104295.170121,7230,1676104295,162738208,base_link,2.430633008480072e-05,1.534200012683868e-05,-2.3444734513759617e-05,-1.0,0.0,0.0,0.0,0.0,0.0,0.0,0.0,0.0
1676104295.1917434,7231,1676104295,187727208,base_link,2.40701362490654e-05,1.5327116847038265e-05,-2.355596721172333e-05,-1.0,0.0,0.0,0.0,0.0,0.0,0.0,0.0,0.0
1676104295.231298,7232,1676104295,222690120,base_link,2.637187242507935e-05,1.4187745749950406e-05,-2.356784343719483e-05,-1.0,0.0,0.0,0.0,0.0,0.0,0.0,0.0,0.0
1676104295.252011,7233,1676104295,247677120,base_link,2.3984314501285555e-05,1.4546871185302732e-05,-2.4266564846038823e-05,-1.0,0.0,0.0,0.0,0.0,0.0,0.0,0.0,0.0
1676104295.291908,7234,1676104295,287631120,base_link,2.5274771451950073e-05,1.4049312472343443e-05,-2.3905889689922336e-05,-1.0,0.0,0.0,0.0,0.0,0.0,0.0,0.0,0.0
1676104295.3120313,7235,1676104295,302625056,base_link,2.4490071833133698e-05,1.437597572803497e-05,-2.324392497539521e-05,-1.0,0.0,0.0,0.0,0.0,0.0,0.0,0.0,0.0
1676104295.3303096,7236,1676104295,322607056,base_link,2.591541111469269e-05,1.3168515264987942e-05,-2.5300511717796326e-05,-1.0,0.0,0.0,0.0,0.0,0.0,0.0,0.0,0.0
1676104295.3499396,7237,1676104295,342588056,base_link,2.3254266381263735e-05,1.5312898159027097e-05,-2.5105109810829166e-05,-1.0,0.0,0.0,0.0,0.0,0.0,0.0,0.0,0.0
1676104295.370773,7238,1676104295,362568056,base_link,2.3673826456069947e-05,1.5027280151844022e-05,-2.386361956596375e-05,-1.0,0.0,0.0,0.0,0.0,0.0,0.0,0.0,0.0
1676104295.3905203,7239,1676104295,382550056,base_link,2.5007423758506776e-05,1.3945999741554257e-05,-2.4036705493927006e-05,-1.0,0.0,0.0,0.0,0.0,0.0,0.0,0.0,0.0
1676104295.4095716,7240,1676104295,402534056,base_link,2.3137283325195315e-05,1.6487292945384977e-05,-2.361083328723908e-05,-1.0,0.0,0.0,0.0,0.0,0.0,0.0,0.0,0.0
1676104295.4294734,7241,1676104295,422524504,base_link,2.4043169617652894e-05,1.4939498901367185e-05,-2.458237856626511e-05,-1.0,0.0,0.0,0.0,0.0,0.0,0.0,0.0,0.0
1676104295.452098,7242,1676104295,442503504,base_link,2.466309368610382e-05,1.531422138214111e-05,-2.3234575986862187e-05,-1.0,0.0,0.0,0.0,0.0,0.0,0.0,0.0,0.0
1676104295.4685838,7243,1676104295,462490504,base_link,2.42171049118042e-05,1.427763998508453e-05,-2.3707014322280888e-05,-1.0,0.0,0.0,0.0,0.0,0.0,0.0,0.0,0.0
1676104295.4901414,7244,1676104295,482465504,base_link,2.484318017959595e-05,1.4975921809673305e-05,-3.524916768074036e-05,-1.0,0.0,0.0,0.0,0.0,0.0,0.0,0.0,0.0
1676104295.5110192,7245,1676104295,502457696,base_link,7.669923305511475e-05,-2.7572321891784684e-05,-0.00011585221290588379,-1.0,0.0,0.0,0.0,0.0,0.0,0.0,0.0,0.0
1676104295.5283794,7246,1676104295,522437696,base_link,8.014037609100342e-05,-1.6006447374820724e-05,-0.00011508228778839112,-1.0,0.0,0.0,0.0,0.0,0.0,0.0,0.0,0.0
1676104295.550174,7247,1676104295,542417696,base_link,2.1515291929244995e-05,-1.2037946283817311e-05,-0.00014861338138580322,-1.0,0.0,0.0,0.0,0.0,0.0,0.0,0.0,0.0
1676104295.5707555,7248,1676104295,562400696,base_link,2.5312045216560365e-05,-1.3016693294048322e-05,-9.966938495635986e-05,-1.0,0.0,0.0,0.0,0.0,0.0,0.0,0.0,0.0
1676104295.5922554,7249,1676104295,587377696,base_link,4.0177369117736815e-05,-3.9702743291854946e-06,-6.621770858764649e-05,-1.0,0.0,0.0,0.0,0.0,0.0,0.0,0.0,0.0
1676104295.6103373,7250,1676104295,602371656,base_link,3.129062056541443e-05,-3.7371687591075976e-06,-6.161884069442749e-05,-1.0,0.0,0.0,0.0,0.0,0.0,0.0,0.0,0.0
1676104295.630417,7251,1676104295,622352656,base_link,1.8680500984191896e-05,2.2757757455110496e-06,-4.377480149269104e-05,-1.0,0.0,0.0,0.0,0.0,0.0,0.0,0.0,0.0
1676104295.6522958,7252,1676104295,647330656,base_link,1.2889136373996736e-05,6.525601446628567e-06,-3.090740442276001e-05,-1.0,0.0,0.0,0.0,0.0,0.0,0.0,0.0,0.0
1676104295.6698143,7253,1676104295,662315656,base_link,1.4456576108932495e-05,7.371009886264798e-06,-2.7874583005905154e-05,-1.0,0.0,0.0,0.0,0.0,0.0,0.0,0.0,0.0
1676104295.6908956,7254,1676104295,682297656,base_link,1.2249019742012025e-05,8.352755010128018e-06,-2.6905733346939087e-05,-1.0,0.0,0.0,0.0,0.0,0.0,0.0,0.0,0.0
1676104295.7087991,7255,1676104295,702278656,base_link,1.4106595516204835e-05,8.170282840728757e-06,-2.7179229259490968e-05,-1.0,0.0,0.0,0.0,0.0,0.0,0.0,0.0,0.0
1676104295.730081,7256,1676104295,722270152,base_link,1.3597798347473146e-05,9.941570460796353e-06,-2.723667621612549e-05,-1.0,0.0,0.0,0.0,0.0,0.0,0.0,0.0,0.0
1676104295.7526767,7257,1676104295,747247152,base_link,1.575363874435425e-05,1.0343773663043973e-05,-2.8929370641708375e-05,-1.0,0.0,0.0,0.0,0.0,0.0,0.0,0.0,0.0
1676104295.7688916,7258,1676104295,762234152,base_link,1.7472383379936218e-05,1.2214615941047666e-05,-2.7284520864486696e-05,-1.0,0.0,0.0,0.0,0.0,0.0,0.0,0.0,0.0
1676104295.7909262,7259,1676104295,782215152,base_link,1.9211827218532564e-05,1.0786125808954236e-05,-3.058773875236511e-05,-1.0,0.0,0.0,0.0,0.0,0.0,0.0,0.0,0.0
1676104295.8114665,7260,1676104295,802205368,base_link,2.214109003543854e-05,1.16117849946022e-05,-3.2319200038909916e-05,-1.0,0.0,0.0,0.0,0.0,0.0,0.0,0.0,0.0
1676104295.829856,7261,1676104295,822186368,base_link,2.2196976840496064e-05,1.3009497523307798e-05,-3.1720495223999024e-05,-1.0,0.0,0.0,0.0,0.0,0.0,0.0,0.0,0.0
1676104295.852042,7262,1676104295,842170368,base_link,2.5277283787727356e-05,1.1856542527675625e-05,-3.480513691902161e-05,-1.0,0.0,0.0,0.0,0.0,0.0,0.0,0.0,0.0
1676104295.8709118,7263,1676104295,867145368,base_link,2.6106736063957215e-05,1.255916357040405e-05,-3.371860384941101e-05,-1.0,0.0,0.0,0.0,0.0,0.0,0.0,0.0,0.0
1676104295.8922038,7264,1676104295,887127368,base_link,2.62597531080246e-05,1.3486868143081663e-05,-3.222295045852661e-05,-1.0,0.0,0.0,0.0,0.0,0.0,0.0,0.0,0.0
1676104295.931491,7265,1676104295,927099840,base_link,2.6994675397872926e-05,1.3867256045341489e-05,-3.0775627493858336e-05,-1.0,0.0,0.0,0.0,0.0,0.0,0.0,0.0,0.0
1676104295.9498353,7266,1676104295,942084840,base_link,2.817102074623108e-05,1.4790485799312589e-05,-2.9231455922126775e-05,-1.0,0.0,0.0,0.0,0.0,0.0,0.0,0.0,0.0
1676104295.9696803,7267,1676104295,962066840,base_link,2.8877881169319153e-05,1.5460640192031858e-05,-2.7159771323204047e-05,-1.0,0.0,0.0,0.0,0.0,0.0,0.0,0.0,0.0
1676104295.9911242,7268,1676104295,987043840,base_link,2.813253700733185e-05,1.6116049885749814e-05,-2.622470855712891e-05,-1.0,0.0,0.0,0.0,0.0,0.0,0.0,0.0,0.0
1676104296.01268,7269,1676104296,7034568,base_link,2.8919267654418945e-05,1.639277935028076e-05,-2.3361670970916752e-05,-1.0,0.0,0.0,0.0,0.0,0.0,0.0,0.0,0.0
1676104296.0304098,7270,1676104296,22020568,base_link,3.0034643411636355e-05,1.7233222723007198e-05,-2.2194245457649236e-05,-1.0,0.0,0.0,0.0,0.0,0.0,0.0,0.0,0.0
1676104296.0542386,7271,1676104296,46997568,base_link,2.9482933878898624e-05,1.6680553555488583e-05,-2.1261879801750186e-05,-1.0,0.0,0.0,0.0,0.0,0.0,0.0,0.0,0.0
1676104296.07243,7272,1676104296,66980568,base_link,3.067982196807861e-05,1.7784237861633298e-05,-2.019242644309998e-05,-1.0,0.0,0.0,0.0,0.0,0.0,0.0,0.0,0.0
1676104296.089793,7273,1676104296,81965568,base_link,3.0822095274925235e-05,1.687720119953155e-05,-2.027283012866974e-05,-1.0,0.0,0.0,0.0,0.0,0.0,0.0,0.0,0.0
1676104296.112999,7274,1676104296,106952552,base_link,3.0127680301666263e-05,1.7142772674560544e-05,-1.9668696820735935e-05,-1.0,0.0,0.0,0.0,0.0,0.0,0.0,0.0,0.0
1676104296.1296797,7275,1676104296,121938552,base_link,3.11393678188324e-05,1.719214171171188e-05,-1.9556771218776707e-05,-1.0,0.0,0.0,0.0,0.0,0.0,0.0,0.0,0.0
1676104296.1506152,7276,1676104296,141920552,base_link,3.177288770675659e-05,1.6899558901786802e-05,-2.0110571384429936e-05,-1.0,0.0,0.0,0.0,0.0,0.0,0.0,0.0,0.0
1676104296.1713834,7277,1676104296,166897552,base_link,3.1247928738594054e-05,1.7092153429985044e-05,-2.0054167509078983e-05,-1.0,0.0,0.0,0.0,0.0,0.0,0.0,0.0,0.0
1676104296.1899931,7278,1676104296,181887552,base_link,3.2385468482971196e-05,1.6290506720542904e-05,-2.1037817001342778e-05,-1.0,0.0,0.0,0.0,0.0,0.0,0.0,0.0,0.0
1676104296.2122478,7279,1676104296,201875048,base_link,3.196113109588623e-05,1.6353484988212582e-05,-2.011823952198029e-05,-1.0,0.0,0.0,0.0,0.0,0.0,0.0,0.0,0.0
1676104296.2318552,7280,1676104296,226852048,base_link,3.396064043045044e-05,1.6986285150051113e-05,-2.0753546059131627e-05,-1.0,0.0,0.0,0.0,0.0,0.0,0.0,0.0,0.0
1676104296.2498965,7281,1676104296,241839048,base_link,3.268505930900574e-05,1.5876683592796323e-05,-2.1903988718986515e-05,-1.0,0.0,0.0,0.0,0.0,0.0,0.0,0.0,0.0
1676104296.2703154,7282,1676104296,261820048,base_link,3.1674814224243166e-05,1.657469272613525e-05,-2.1932163834571844e-05,-1.0,0.0,0.0,0.0,0.0,0.0,0.0,0.0,0.0
1676104296.2916908,7283,1676104296,286795048,base_link,3.282507061958313e-05,1.590858399868011e-05,-2.2255891561508183e-05,-1.0,0.0,0.0,0.0,0.0,0.0,0.0,0.0,0.0
1676104296.31258,7284,1676104296,306793544,base_link,3.264474868774414e-05,1.5487876534461973e-05,-2.1883019804954535e-05,-1.0,0.0,0.0,0.0,0.0,0.0,0.0,0.0,0.0
1676104296.3306324,7285,1676104296,321774544,base_link,3.265954256057739e-05,1.4475524425506589e-05,-2.2609573602676397e-05,-1.0,0.0,0.0,0.0,0.0,0.0,0.0,0.0,0.0
1676104296.3520956,7286,1676104296,346750544,base_link,3.273866772651672e-05,1.4396429061889646e-05,-2.3645833134651188e-05,-1.0,0.0,0.0,0.0,0.0,0.0,0.0,0.0,0.0
1676104296.3696926,7287,1676104296,361736544,base_link,3.20464164018631e-05,1.4149650931358334e-05,-2.4170096218585973e-05,-1.0,0.0,0.0,0.0,0.0,0.0,0.0,0.0,0.0
1676104296.3900867,7288,1676104296,381721544,base_link,3.225492835044861e-05,1.4385813474655149e-05,-2.4357149004936222e-05,-1.0,0.0,0.0,0.0,0.0,0.0,0.0,0.0,0.0
1676104296.4123373,7289,1676104296,406705552,base_link,3.152171671390534e-05,1.4909940958023068e-05,-2.4590113759040836e-05,-1.0,0.0,0.0,0.0,0.0,0.0,0.0,0.0,0.0
1676104296.4321623,7290,1676104296,426688552,base_link,3.15946489572525e-05,1.3699191808700559e-05,-2.4974459409713747e-05,-1.0,0.0,0.0,0.0,0.0,0.0,0.0,0.0,0.0
1676104296.45062,7291,1676104296,441675552,base_link,3.0068671703338625e-05,1.4228901267051693e-05,-2.5615161657333378e-05,-1.0,0.0,0.0,0.0,0.0,0.0,0.0,0.0,0.0
1676104296.472008,7292,1676104296,466650552,base_link,2.9752731323242188e-05,1.34944811463356e-05,-2.5928378105163576e-05,-1.0,0.0,0.0,0.0,0.0,0.0,0.0,0.0,0.0
1676104296.4926853,7293,1676104296,486633552,base_link,2.951996922492981e-05,1.322730332612991e-05,-2.5986069440841676e-05,-1.0,0.0,0.0,0.0,0.0,0.0,0.0,0.0,0.0
1676104296.5123575,7294,1676104296,501629560,base_link,2.9268598556518557e-05,1.336587071418762e-05,-2.733086347579956e-05,-1.0,0.0,0.0,0.0,0.0,0.0,0.0,0.0,0.0
1676104296.531991,7295,1676104296,526606560,base_link,2.8994107246398926e-05,1.2571969628334042e-05,-2.7350330352783205e-05,-1.0,0.0,0.0,0.0,0.0,0.0,0.0,0.0,0.0
1676104296.5521705,7296,1676104296,546593560,base_link,2.876589298248291e-05,1.2098755687475202e-05,-2.7912098169326783e-05,-1.0,0.0,0.0,0.0,0.0,0.0,0.0,0.0,0.0
1676104296.5927365,7297,1676104296,586549560,base_link,2.7003452181816102e-05,1.2432831525802609e-05,-3.0014395713806155e-05,-1.0,0.0,0.0,0.0,0.0,0.0,0.0,0.0,0.0
1676104296.6316264,7298,1676104296,626523568,base_link,2.8015077114105227e-05,1.1889763921499249e-05,-2.9821413755416872e-05,-1.0,0.0,0.0,0.0,0.0,0.0,0.0,0.0,0.0
1676104296.6499467,7299,1676104296,641510568,base_link,2.6996728777885438e-05,1.1794765293598172e-05,-2.98021137714386e-05,-1.0,0.0,0.0,0.0,0.0,0.0,0.0,0.0,0.0
1676104296.670544,7300,1676104296,661491568,base_link,2.6222497224807742e-05,1.1755961179733274e-05,-3.091914057731629e-05,-1.0,0.0,0.0,0.0,0.0,0.0,0.0,0.0,0.0
1676104296.6912313,7301,1676104296,686468568,base_link,2.5773668289184573e-05,1.0461556911468503e-05,-3.120008111000061e-05,-1.0,0.0,0.0,0.0,0.0,0.0,0.0,0.0,0.0
1676104296.7158337,7302,1676104296,706462832,base_link,2.5376045703887942e-05,1.1268804967403409e-05,-3.113139271736145e-05,-1.0,0.0,0.0,0.0,0.0,0.0,0.0,0.0,0.0
1676104296.7305555,7303,1676104296,721447832,base_link,2.573821544647217e-05,1.0549575090408322e-05,-3.119253814220429e-05,-1.0,0.0,0.0,0.0,0.0,0.0,0.0,0.0,0.0
1676104296.7517617,7304,1676104296,746423832,base_link,2.430696487426758e-05,1.0899502784013745e-05,-3.154126405715943e-05,-1.0,0.0,0.0,0.0,0.0,0.0,0.0,0.0,0.0
1676104296.7708478,7305,1676104296,761409832,base_link,2.4059858918190005e-05,1.0449826717376707e-05,-3.127481937408448e-05,-1.0,0.0,0.0,0.0,0.0,0.0,0.0,0.0,0.0
1676104296.7908604,7306,1676104296,781391832,base_link,2.413237690925598e-05,1.0899770259857175e-05,-3.242416083812714e-05,-1.0,0.0,0.0,0.0,0.0,0.0,0.0,0.0,0.0
1676104296.8120317,7307,1676104296,806380864,base_link,2.509041130542755e-05,1.0475162416696546e-05,-3.197856843471527e-05,-1.0,0.0,0.0,0.0,0.0,0.0,0.0,0.0,0.0
1676104296.832398,7308,1676104296,826361864,base_link,2.309437245130539e-05,1.0677047073841091e-05,-3.224310874938965e-05,-1.0,0.0,0.0,0.0,0.0,0.0,0.0,0.0,0.0
1676104296.85183,7309,1676104296,846343864,base_link,2.370894253253937e-05,1.0871364176273344e-05,-3.307342827320099e-05,-1.0,0.0,0.0,0.0,0.0,0.0,0.0,0.0,0.0
1676104296.86989,7310,1676104296,861329864,base_link,2.4401263892650606e-05,1.0492897033691404e-05,-3.286357223987579e-05,-1.0,0.0,0.0,0.0,0.0,0.0,0.0,0.0,0.0
1676104296.8909605,7311,1676104296,881310864,base_link,2.4301204085350036e-05,1.0171786695718763e-05,-3.294171094894409e-05,-1.0,0.0,0.0,0.0,0.0,0.0,0.0,0.0,0.0
1676104296.9120033,7312,1676104296,906299896,base_link,2.36137330532074e-05,1.1086962372064587e-05,-3.263752460479737e-05,-1.0,0.0,0.0,0.0,0.0,0.0,0.0,0.0,0.0
1676104296.932081,7313,1676104296,926282896,base_link,2.406899929046631e-05,1.1136905103921888e-05,-3.313589096069336e-05,-1.0,0.0,0.0,0.0,0.0,0.0,0.0,0.0,0.0
1676104296.9511242,7314,1676104296,941267896,base_link,2.3991775512695312e-05,1.0732991993427274e-05,-3.274480700492859e-05,-1.0,0.0,0.0,0.0,0.0,0.0,0.0,0.0,0.0
1676104296.9711971,7315,1676104296,966244896,base_link,2.4128305912017824e-05,1.0448850691318509e-05,-3.2861971855163575e-05,-1.0,0.0,0.0,0.0,0.0,0.0,0.0,0.0,0.0
1676104296.9900835,7316,1676104296,981230896,base_link,2.3978358507156372e-05,1.0699880123138425e-05,-3.191100955009461e-05,-1.0,0.0,0.0,0.0,0.0,0.0,0.0,0.0,0.0
1676104297.0126114,7317,1676104297,6220184,base_link,2.4521683156490326e-05,1.0428500175476072e-05,-3.2827603816986085e-05,-1.0,0.0,0.0,0.0,0.0,0.0,0.0,0.0,0.0
1676104297.0303388,7318,1676104297,21205184,base_link,2.3821932077407838e-05,1.136924177408218e-05,-3.215303421020508e-05,-1.0,0.0,0.0,0.0,0.0,0.0,0.0,0.0,0.0
1676104297.0517602,7319,1676104297,46182184,base_link,2.4881520867347718e-05,1.0730461776256558e-05,-3.2381683588027953e-05,-1.0,0.0,0.0,0.0,0.0,0.0,0.0,0.0,0.0
1676104297.0715,7320,1676104297,66164184,base_link,2.4905961751937868e-05,1.1435276269912717e-05,-3.162130117416382e-05,-1.0,0.0,0.0,0.0,0.0,0.0,0.0,0.0,0.0
1676104297.0928514,7321,1676104297,86145184,base_link,2.5145772099494935e-05,1.1130519211292264e-05,-3.220357298851013e-05,-1.0,0.0,0.0,0.0,0.0,0.0,0.0,0.0,0.0
1676104297.112399,7322,1676104297,106139728,base_link,2.45852530002594e-05,1.213738769292831e-05,-3.090846538543701e-05,-1.0,0.0,0.0,0.0,0.0,0.0,0.0,0.0,0.0
1676104297.1316307,7323,1676104297,126120728,base_link,2.5676119327545166e-05,1.1500184237956998e-05,-3.198395073413849e-05,-1.0,0.0,0.0,0.0,0.0,0.0,0.0,0.0,0.0
1676104297.15307,7324,1676104297,146102728,base_link,2.595350742340088e-05,1.2136256694793699e-05,-3.062426447868347e-05,-1.0,0.0,0.0,0.0,0.0,0.0,0.0,0.0,0.0
1676104297.1712215,7325,1676104297,166083728,base_link,2.5995293259620666e-05,1.1965430527925488e-05,-3.159856796264649e-05,-1.0,0.0,0.0,0.0,0.0,0.0,0.0,0.0,0.0
1676104297.1921985,7326,1676104297,186065728,base_link,2.6364225149154664e-05,1.2650264799594877e-05,-3.042089939117432e-05,-1.0,0.0,0.0,0.0,0.0,0.0,0.0,0.0,0.0
1676104297.2102203,7327,1676104297,201064016,base_link,2.6769956946372987e-05,1.2099117040634153e-05,-3.0022668838500976e-05,-1.0,0.0,0.0,0.0,0.0,0.0,0.0,0.0,0.0
1676104297.2314355,7328,1676104297,226042016,base_link,2.6385724544525148e-05,1.1906544119119642e-05,-2.9363423585891724e-05,-1.0,0.0,0.0,0.0,0.0,0.0,0.0,0.0,0.0
1676104297.2523737,7329,1676104297,246022016,base_link,2.6877355575561525e-05,1.380287855863571e-05,-2.9389518499374393e-05,-1.0,0.0,0.0,0.0,0.0,0.0,0.0,0.0,0.0
1676104297.273229,7330,1676104297,266004016,base_link,2.738289833068848e-05,1.232437193393707e-05,-2.9184478521347046e-05,-1.0,0.0,0.0,0.0,0.0,0.0,0.0,0.0,0.0
1676104297.3125477,7331,1676104297,305979816,base_link,2.6149731874465945e-05,1.3144978880882261e-05,-2.9121747612953188e-05,-1.0,0.0,0.0,0.0,0.0,0.0,0.0,0.0,0.0
1676104297.3304157,7332,1676104297,320964816,base_link,2.8572565317153932e-05,1.386359333992004e-05,-2.8517639636993414e-05,-1.0,0.0,0.0,0.0,0.0,0.0,0.0,0.0,0.0
1676104297.3511496,7333,1676104297,340946816,base_link,2.782910466194153e-05,1.3420444726943967e-05,-2.8378993272781375e-05,-1.0,0.0,0.0,0.0,0.0,0.0,0.0,0.0,0.0
1676104297.3711345,7334,1676104297,365924816,base_link,2.720891833305359e-05,1.4425182342529295e-05,-2.7867358922958377e-05,-1.0,0.0,0.0,0.0,0.0,0.0,0.0,0.0,0.0
1676104297.392172,7335,1676104297,385905816,base_link,2.7748602628707887e-05,1.3965737819671629e-05,-2.7293518185615545e-05,-1.0,0.0,0.0,0.0,0.0,0.0,0.0,0.0,0.0
1676104297.410203,7336,1676104297,400904872,base_link,2.8168174624443054e-05,1.4139625430107114e-05,-2.7263414859771732e-05,-1.0,0.0,0.0,0.0,0.0,0.0,0.0,0.0,0.0
1676104297.4314497,7337,1676104297,425881872,base_link,2.887794375419617e-05,1.365300118923187e-05,-2.7374756336212158e-05,-1.0,0.0,0.0,0.0,0.0,0.0,0.0,0.0,0.0
