Time,header.seq,header.stamp.secs,header.stamp.nsecs,header.frame_id,type_mask,orientation.x,orientation.y,orientation.z,orientation.w,body_rate.x,body_rate.y,body_rate.z,thrust
1676104290.212572,861,1676104290,211522340,base_footprint,7,0.19173822137035082,-0.24251134898776247,0.04895880581620973,0.9497514071644857,0.0,0.0,0.0,0.4242831766605377
1676104290.2186239,862,1676104290,217732191,base_footprint,7,0.19174640152394692,-0.24251092729905555,0.04896089455234485,0.9497497556976804,0.0,0.0,0.0,0.42428267002105713
1676104290.2294357,863,1676104290,228048563,base_footprint,7,0.19174640152394692,-0.24251092729905555,0.04896089455234485,0.9497497556976804,0.0,0.0,0.0,0.42428267002105713
1676104290.2407627,864,1676104290,239312648,base_footprint,7,0.1918171767146709,-0.2425072780406838,0.0489789664255191,0.949735464043751,0.0,0.0,0.0,0.4242808520793915
1676104290.257283,865,1676104290,253803014,base_footprint,7,0.19176439529840222,-0.2425099996501562,0.04896548911728429,0.9497461227301875,0.0,0.0,0.0,0.42428654432296753
1676104290.260715,866,1676104290,260101795,base_footprint,7,0.19169844120411123,-0.24251339939711455,0.048948648272135624,0.9497594372182359,0.0,0.0,0.0,0.424285888671875
1676104290.2683747,867,1676104290,267298698,base_footprint,7,0.19169844120411123,-0.24251339939711455,0.048948648272135624,0.9497594372182359,0.0,0.0,0.0,0.424285888671875
1676104290.2906585,868,1676104290,289778947,base_footprint,7,0.19170876679402063,-0.2425128672225286,0.048951284828100836,0.9497573530536639,0.0,0.0,0.0,0.42423561215400696
1676104290.29861,869,1676104290,297251224,base_footprint,7,0.19174493934475434,-0.242511002676087,0.04896052119670064,0.9497500508980574,0.0,0.0,0.0,0.42423683404922485
1676104290.305871,870,1676104290,302396297,base_footprint,7,0.19170205294416542,-0.24251321325363454,0.04894957050078001,0.9497587082212927,0.0,0.0,0.0,0.42423325777053833
1676104290.3136249,871,1676104290,312954187,base_footprint,7,0.19176161994035915,-0.24251014273654248,0.04896478045202948,0.9497466831018867,0.0,0.0,0.0,0.42422813177108765
1676104290.323617,872,1676104290,322119951,base_footprint,7,0.19182347558194668,-0.24250695319519516,0.0489805747903908,0.949734191845723,0.0,0.0,0.0,0.424228310585022
1676104290.3307333,873,1676104290,329532384,base_footprint,7,0.19183026624530994,-0.24250660297433854,0.04898230873142034,0.9497328202697007,0.0,0.0,0.0,0.42422717809677124
1676104290.339931,874,1676104290,337651252,base_footprint,7,0.19179734610175928,-0.24250830067351783,0.04897390283871925,0.9497394689984766,0.0,0.0,0.0,0.4242285490036011
1676104290.3498726,875,1676104290,348847627,base_footprint,7,0.19186079437790585,-0.24250502836069557,0.04899010384344868,0.9497266535829482,0.0,0.0,0.0,0.4242827296257019
1676104290.3590596,876,1676104290,357887983,base_footprint,7,0.19180511022472496,-0.24250790030328342,0.048975885344793905,0.9497379010215752,0.0,0.0,0.0,0.42428356409072876
1676104290.3718865,877,1676104290,368278503,base_footprint,7,0.19186638746041768,-0.24250473984625945,0.048991531991882796,0.949725523668852,0.0,0.0,0.0,0.42428281903266907
1676104290.3799274,878,1676104290,379308223,base_footprint,7,0.19171566824801273,-0.24251251150917955,0.04895304705862239,0.9497559599672982,0.0,0.0,0.0,0.4242805540561676
1676104290.389943,879,1676104290,389158964,base_footprint,7,0.19170439983442197,-0.24251309229659468,0.04895016976024702,0.9497582345151372,0.0,0.0,0.0,0.4242812693119049
1676104290.4008393,880,1676104290,400317192,base_footprint,7,0.1917642634274516,-0.242510006448945,0.0489654554451024,0.9497461493564021,0.0,0.0,0.0,0.42428040504455566
1676104290.4121978,881,1676104290,410437822,base_footprint,7,0.1917642634274516,-0.242510006448945,0.0489654554451024,0.9497461493564021,0.0,0.0,0.0,0.42428040504455566
1676104290.4204707,882,1676104290,419392347,base_footprint,7,0.19174128679606228,-0.24251119096659016,0.04895958854790026,0.9497507883034245,0.0,0.0,0.0,0.42430365085601807
1676104290.427556,883,1676104290,426932334,base_footprint,7,0.19174825868641157,-0.24251083155931638,0.04896136876377659,0.9497493807504773,0.0,0.0,0.0,0.42430323362350464
1676104290.4470558,884,1676104290,440276622,base_footprint,7,0.19168287722508134,-0.2425142014986983,0.048944674135828294,0.9497625785025965,0.0,0.0,0.0,0.42430269718170166
1676104290.4520783,885,1676104290,450808286,base_footprint,7,0.1917899354995865,-0.24250868279811663,0.04897201060132305,0.9497409655196782,0.0,0.0,0.0,0.42428553104400635
1676104290.4597175,886,1676104290,459121227,base_footprint,7,0.19166052559899874,-0.24251535328831206,0.04893896682868195,0.9497670892762613,0.0,0.0,0.0,0.42428770661354065
1676104290.470196,887,1676104290,467962026,base_footprint,7,0.1916428072819287,-0.24251626622204944,0.04893444259956048,0.9497706646145099,0.0,0.0,0.0,0.42428845167160034
1676104290.4825718,888,1676104290,480962276,base_footprint,7,0.1915580994800862,-0.24252062956558992,0.048912813146695606,0.9497877528525853,0.0,0.0,0.0,0.42425182461738586
1676104290.4934268,889,1676104290,492049455,base_footprint,7,0.19155474890023563,-0.2425208021144505,0.04891195760319936,0.9497884286086843,0.0,0.0,0.0,0.4242536425590515
1676104290.4996452,890,1676104290,498610496,base_footprint,7,0.19155529972047414,-0.2425207737484106,0.0489120982506973,0.9497883175182696,0.0,0.0,0.0,0.42425453662872314
1676104290.5102372,891,1676104290,507111787,base_footprint,7,0.1915697900554469,-0.24252002749730148,0.04891579824066838,0.9497853949620926,0.0,0.0,0.0,0.42425215244293213
1676104290.524559,892,1676104290,521368980,base_footprint,7,0.19152667117431796,-0.24252224794359986,0.04890478818272002,0.9497940909344882,0.0,0.0,0.0,0.4242258369922638
1676104290.5291824,893,1676104290,527548074,base_footprint,7,0.19152667117431796,-0.24252224794359986,0.04890478818272002,0.9497940909344882,0.0,0.0,0.0,0.4242258369922638
1676104290.53767,894,1676104290,537152528,base_footprint,7,0.19156380829422087,-0.24252033556465302,0.048914270846264644,0.949786601451611,0.0,0.0,0.0,0.424228310585022
1676104290.5505028,895,1676104290,549458980,base_footprint,7,0.1915070385333098,-0.2425232587721034,0.048899775146446355,0.9497980496597093,0.0,0.0,0.0,0.424202561378479
1676104290.560735,896,1676104290,559757709,base_footprint,7,0.19148271759485588,-0.2425245108380916,0.048893564991295636,0.9498029531474805,0.0,0.0,0.0,0.424201101064682
1676104290.5703332,897,1676104290,569607496,base_footprint,7,0.19162057985139755,-0.24251741136299687,0.04892876700474485,0.9497751493498872,0.0,0.0,0.0,0.4242008626461029
1676104290.5805345,898,1676104290,578975915,base_footprint,7,0.19147993294151175,-0.24252465418424413,0.04889285395256081,0.9498035145365069,0.0,0.0,0.0,0.42417702078819275
1676104290.5881307,899,1676104290,587295055,base_footprint,7,0.19147704991305983,-0.24252480259218595,0.04889211779453696,0.9498040957491065,0.0,0.0,0.0,0.42417797446250916
1676104290.6011143,900,1676104290,598690271,base_footprint,7,0.19147704991305983,-0.24252480259218595,0.04889211779453696,0.9498040957491065,0.0,0.0,0.0,0.42417797446250916
1676104290.6102946,901,1676104290,607659101,base_footprint,7,0.19155156409828783,-0.24252096612313448,0.0489111443897513,0.9497890709187413,0.0,0.0,0.0,0.42417535185813904
1676104290.616148,902,1676104290,615576028,base_footprint,7,0.1915739434377954,-0.24251981358760563,0.048916858773296816,0.9497845572238363,0.0,0.0,0.0,0.42415744066238403
1676104290.6295848,903,1676104290,628859758,base_footprint,7,0.1916039803284788,-0.2425182664681015,0.048924528450671426,0.9497784982128571,0.0,0.0,0.0,0.42415618896484375
1676104290.6403475,904,1676104290,638535261,base_footprint,7,0.19155196475415195,-0.2425209454905975,0.048911246693989385,0.9497889901151784,0.0,0.0,0.0,0.4241590201854706
1676104290.650571,905,1676104290,649731636,base_footprint,7,0.19152882562554782,-0.24252213701050526,0.048905338304436226,0.9497936564852836,0.0,0.0,0.0,0.4241196811199188
1676104290.6591299,906,1676104290,658008813,base_footprint,7,0.1915937424481013,-0.24251879382215769,0.048921914290626596,0.9497805634987045,0.0,0.0,0.0,0.42412030696868896
1676104290.6671746,907,1676104290,666417360,base_footprint,7,0.1915937424481013,-0.24251879382215769,0.048921914290626596,0.9497805634987045,0.0,0.0,0.0,0.42412030696868896
1676104290.6813986,908,1676104290,680041313,base_footprint,7,0.19147560951820788,-0.24252487673766443,0.04889175000134814,0.9498043861263313,0.0,0.0,0.0,0.42414069175720215
1676104290.690858,909,1676104290,689819812,base_footprint,7,0.1914463346420296,-0.24252638355958053,0.04888427489822127,0.9498102873191668,0.0,0.0,0.0,0.424140989780426
1676104290.6982388,910,1676104290,697423934,base_footprint,7,0.19144197864229662,-0.24252660774894794,0.048883162628880615,0.9498111653158794,0.0,0.0,0.0,0.424140989780426
1676104290.7062411,911,1676104290,705481529,base_footprint,7,0.19147935785209794,-0.24252468378796568,0.04889270710812501,0.9498036304740757,0.0,0.0,0.0,0.4241402745246887
1676104290.7173593,912,1676104290,715502738,base_footprint,7,0.19146411499710134,-0.24252546840654554,0.04888881496824528,0.9498067032894446,0.0,0.0,0.0,0.4241226315498352
1676104290.726777,913,1676104290,725788354,base_footprint,7,0.19146411499710134,-0.24252546840654554,0.04888881496824528,0.9498067032894446,0.0,0.0,0.0,0.4241226315498352
1676104290.741729,914,1676104290,740553140,base_footprint,7,0.19145912491193548,-0.24252572525464022,0.048887540790311976,0.9498077091880979,0.0,0.0,0.0,0.4241231381893158
1676104290.7558105,915,1676104290,748608350,base_footprint,7,0.19140152671382682,-0.24252868942672698,0.04887283355574804,0.949819317826713,0.0,0.0,0.0,0.42413297295570374
1676104290.761249,916,1676104290,760138034,base_footprint,7,0.19139106049741453,-0.24252922794925427,0.04887016109194141,0.9498214268518379,0.0,0.0,0.0,0.42413362860679626
1676104290.7702124,917,1676104290,769387722,base_footprint,7,0.19150557737902438,-0.24252333399844483,0.04889940205250391,0.9497983442699365,0.0,0.0,0.0,0.42413339018821716
1676104290.7807388,918,1676104290,779773235,base_footprint,7,0.19138673341844317,-0.2425294505832704,0.04886905620728359,0.9498222987573013,0.0,0.0,0.0,0.42410770058631897
1676104290.7901614,919,1676104290,789538621,base_footprint,7,0.1914379804020693,-0.24252681352090613,0.048882141710539465,0.9498119711841724,0.0,0.0,0.0,0.42410579323768616
1676104290.800612,920,1676104290,799984455,base_footprint,7,0.1913552635612463,-0.24253106959205795,0.048861020633486386,0.9498286393095294,0.0,0.0,0.0,0.4241097867488861
1676104290.8129995,921,1676104290,810691595,base_footprint,7,0.19142889852286987,-0.24252728090893805,0.04887982272605639,0.9498138016240378,0.0,0.0,0.0,0.4241061806678772
1676104290.8215237,922,1676104290,819319486,base_footprint,7,0.19141292159581963,-0.24252810308634518,0.04887574314680817,0.9498170215316942,0.0,0.0,0.0,0.4240720868110657
1676104290.8309667,923,1676104290,828980684,base_footprint,7,0.19140759697486648,-0.24252837707705444,0.04887438354786422,0.9498180945662665,0.0,0.0,0.0,0.42407211661338806
1676104290.8392382,924,1676104290,838541030,base_footprint,7,0.19139859455613775,-0.24252884029932956,0.04887208485297039,0.9498199086917064,0.0,0.0,0.0,0.4240712821483612
1676104290.850519,925,1676104290,849117755,base_footprint,7,0.19141051117981336,-0.2425282271208687,0.04887512766655419,0.9498175072902524,0.0,0.0,0.0,0.424103707075119
1676104290.860145,926,1676104290,859375476,base_footprint,7,0.19144768018509187,-0.24252631430771165,0.048884618471771876,0.9498100161068702,0.0,0.0,0.0,0.4241066873073578
1676104290.8673158,927,1676104290,866435289,base_footprint,7,0.19139256520393513,-0.2425291505288584,0.04887054530659526,0.9498211236489972,0.0,0.0,0.0,0.42410293221473694
1676104290.880226,928,1676104290,879391670,base_footprint,7,0.1914230248431158,-0.24252758317854192,0.04887832292938335,0.9498149854077362,0.0,0.0,0.0,0.4241054058074951
1676104290.8892176,929,1676104290,888552665,base_footprint,7,0.191398756865925,-0.24252883194782934,0.048872126297463306,0.9498198759845811,0.0,0.0,0.0,0.42406854033470154
1676104290.8994038,930,1676104290,897347211,base_footprint,7,0.19147393586680544,-0.24252496288948155,0.04889132264798359,0.9498047235241888,0.0,0.0,0.0,0.4240667223930359
1676104290.9148319,931,1676104290,912061214,base_footprint,7,0.19141690328949296,-0.24252789819388787,0.04887675984012044,0.9498162191078058,0.0,0.0,0.0,0.4240434765815735
1676104290.9201357,932,1676104290,918723106,base_footprint,7,0.1914490251500567,-0.2425262450850899,0.04888496189770997,0.9498097450091145,0.0,0.0,0.0,0.4240417182445526
1676104290.930041,933,1676104290,928914070,base_footprint,7,0.19144888561601803,-0.24252625226664767,0.04888492626882046,0.949809773134374,0.0,0.0,0.0,0.4240405559539795
1676104290.937209,934,1676104290,936210393,base_footprint,7,0.1913896103535126,-0.24252930256168637,0.048869790809411444,0.9498217190578013,0.0,0.0,0.0,0.4240421950817108
1676104290.9510705,935,1676104290,949809312,base_footprint,7,0.19143705523801138,-0.2425268611344215,0.04888190547737147,0.9498121576538094,0.0,0.0,0.0,0.4240427017211914
1676104290.9560041,936,1676104290,955286979,base_footprint,7,0.19141562980140855,-0.2425279637263083,0.04887643466522631,0.9498164757535618,0.0,0.0,0.0,0.4240449070930481
1676104290.97057,937,1676104290,969567298,base_footprint,7,0.19142885105234614,-0.24252728335189108,0.04887981060484166,0.9498138111914172,0.0,0.0,0.0,0.424042671918869
1676104290.9806983,938,1676104290,978667497,base_footprint,7,0.19141226498197497,-0.24252813687436078,0.048875575485767576,0.9498171538562864,0.0,0.0,0.0,0.42407944798469543
1676104290.9891453,939,1676104290,988179206,base_footprint,7,0.19139272218515113,-0.2425291424517998,0.048870585390480545,0.9498210920166723,0.0,0.0,0.0,0.4240819215774536
1676104291.0002425,940,1676104290,999459743,base_footprint,7,0.1914351501210373,-0.24252695918040343,0.04888141902114316,0.949812541632991,0.0,0.0,0.0,0.4240822196006775
1676104291.0117085,941,1676104291,10174751,base_footprint,7,0.19149243983076547,-0.24252401034761623,0.048896047485691346,0.949800993067941,0.0,0.0,0.0,0.42407989501953125
1676104291.0207052,942,1676104291,20079374,base_footprint,7,0.1913423957497987,-0.24253173151398455,0.04885773494178945,0.9498312316058646,0.0,0.0,0.0,0.4241172969341278
1676104291.0282414,943,1676104291,26934862,base_footprint,7,0.1913423957497987,-0.24253173151398455,0.04885773494178945,0.9498312316058646,0.0,0.0,0.0,0.4241172969341278
1676104291.038308,944,1676104291,37689685,base_footprint,7,0.1913939572281729,-0.24252907890564504,0.04887090074873852,0.9498208431497629,0.0,0.0,0.0,0.4241170287132263
1676104291.0500958,945,1676104291,48787355,base_footprint,7,0.19139475598545047,-0.24252903780729193,0.048871104704956356,0.949820682195569,0.0,0.0,0.0,0.4241407513618469
1676104291.06219,946,1676104291,60230493,base_footprint,7,0.19132491918384878,-0.242532630436679,0.048853272441863445,0.9498347520724223,0.0,0.0,0.0,0.4241426885128021
1676104291.0696058,947,1676104291,68614006,base_footprint,7,0.19135505292213012,-0.24253108042773494,0.04886096684848978,0.9498286817454794,0.0,0.0,0.0,0.42414090037345886
1676104291.0807884,948,1676104291,79528093,base_footprint,7,0.19131830917497683,-0.24253297040608843,0.048851584629498804,0.949836083500524,0.0,0.0,0.0,0.4241426885128021
1676104291.0896175,949,1676104291,87895870,base_footprint,7,0.19136646234229576,-0.24253049348757896,0.04886388015175489,0.9498263831015544,0.0,0.0,0.0,0.42414799332618713
1676104291.0985918,950,1676104291,97645044,base_footprint,7,0.19136607392486604,-0.24253051346971785,0.04886378097250216,0.949826461357952,0.0,0.0,0.0,0.42414772510528564
1676104291.1069095,951,1676104291,105938673,base_footprint,7,0.19135305501352243,-0.24253118320333839,0.04886045669866747,0.9498290842473598,0.0,0.0,0.0,0.4241464138031006
1676104291.1202357,952,1676104291,119621276,base_footprint,7,0.1914231170277283,-0.24252757843463865,0.04887834646797941,0.9498149668291055,0.0,0.0,0.0,0.4242038428783417
1676104291.1309948,953,1676104291,130404949,base_footprint,7,0.19135595195112515,-0.24253103417988608,0.0488611964082806,0.9498285006242257,0.0,0.0,0.0,0.4242037832736969
1676104291.1394238,954,1676104291,138230800,base_footprint,7,0.1914860511520707,-0.24252433923305264,0.04889441618819937,0.9498022810876866,0.0,0.0,0.0,0.42420199513435364
1676104291.148664,955,1676104291,147136211,base_footprint,7,0.19139440529201587,-0.24252905585149706,0.04887101515822101,0.949820752862403,0.0,0.0,0.0,0.4241565763950348
1676104291.1593525,956,1676104291,158363580,base_footprint,7,0.1914436511226162,-0.2425265216723655,0.04888358968321862,0.9498108282126648,0.0,0.0,0.0,0.4241587221622467
1676104291.1708417,957,1676104291,168362140,base_footprint,7,0.19135847410907772,-0.2425309044338318,0.04886184042093784,0.9498279924975004,0.0,0.0,0.0,0.4241584539413452
1676104291.1815362,958,1676104291,180449008,base_footprint,7,0.1913785565473952,-0.2425298712799508,0.04886696830932062,0.9498239463390159,0.0,0.0,0.0,0.42416509985923767
1676104291.190907,959,1676104291,190135478,base_footprint,7,0.19141751666379736,-0.24252786663009904,0.04887691646029375,0.9498160954939915,0.0,0.0,0.0,0.42416247725486755
1676104291.2002304,960,1676104291,199435234,base_footprint,7,0.19141091266879207,-0.24252820646127213,0.048875230183521357,0.9498174263807156,0.0,0.0,0.0,0.4241617023944855
1676104291.2111192,961,1676104291,210021972,base_footprint,7,0.19147782383887477,-0.24252476275349516,0.04889231541024143,0.9498039397281499,0.0,0.0,0.0,0.4241604804992676
1676104291.220819,962,1676104291,219954013,base_footprint,7,0.19130067199274978,-0.2425338774709909,0.048847081117504014,0.9498396358545523,0.0,0.0,0.0,0.42418718338012695
1676104291.2288108,963,1676104291,227768421,base_footprint,7,0.19137645902055825,-0.24252997919383668,0.04886643272278826,0.949824368964041,0.0,0.0,0.0,0.4241859018802643
1676104291.2374678,964,1676104291,236102342,base_footprint,7,0.19133646041302763,-0.242532036812885,0.04885621940149523,0.9498324272532498,0.0,0.0,0.0,0.42418810725212097
1676104291.2552571,965,1676104291,250968694,base_footprint,7,0.19142597226373426,-0.24252743150044337,0.04887907552942671,0.949814391388165,0.0,0.0,0.0,0.42417240142822266
1676104291.2609081,966,1676104291,260063409,base_footprint,7,0.19123623967885683,-0.24253719042911925,0.048830628846685875,0.9498526104499988,0.0,0.0,0.0,0.4241756498813629
1676104291.2688498,967,1676104291,267978668,base_footprint,7,0.19141517217873716,-0.24252798727500147,0.0488763178149742,0.9498165679777177,0.0,0.0,0.0,0.42417120933532715
1676104291.280962,968,1676104291,280169725,base_footprint,7,0.19125376114305018,-0.2425362896315749,0.048835102811015614,0.9498490826409338,0.0,0.0,0.0,0.4241368770599365
1676104291.2958324,969,1676104291,293405771,base_footprint,7,0.19132619405105095,-0.24253256486564095,0.04885359796890415,0.9498344952754274,0.0,0.0,0.0,0.42413440346717834
1676104291.301223,970,1676104291,299824237,base_footprint,7,0.19123522939905097,-0.24253724236608515,0.04883037087989927,0.9498528138516402,0.0,0.0,0.0,0.4241371750831604
1676104291.312492,971,1676104291,311654329,base_footprint,7,0.19130598241865146,-0.2425336043695731,0.04884843709185625,0.9498385663027274,0.0,0.0,0.0,0.42413580417633057
1676104291.3261013,972,1676104291,324309825,base_footprint,7,0.19135741359172118,-0.2425309589896891,0.048861569626398524,0.9498282061555516,0.0,0.0,0.0,0.424121618270874
1676104291.3301702,973,1676104291,328967094,base_footprint,7,0.19128505205860574,-0.24253468071792703,0.04884309269351034,0.9498427816244764,0.0,0.0,0.0,0.4241214096546173
1676104291.338357,974,1676104291,337439298,base_footprint,7,0.19124940765821055,-0.2425365134569865,0.04883399118383265,0.94984995921228,0.0,0.0,0.0,0.42412370443344116
1676104291.3501515,975,1676104291,349290609,base_footprint,7,0.1913560765304684,-0.2425310277712578,0.04886122821860945,0.9498284755260035,0.0,0.0,0.0,0.42412838339805603
1676104291.3600328,976,1676104291,359117984,base_footprint,7,0.19127098454546576,-0.2425354040740145,0.048839500667678365,0.9498456145164825,0.0,0.0,0.0,0.4241305887699127
1676104291.367823,977,1676104291,366395235,base_footprint,7,0.19133334410420896,-0.24253219710408253,0.048855423677214356,0.94983305500445,0.0,0.0,0.0,0.42412853240966797
1676104291.3789287,978,1676104291,378328323,base_footprint,7,0.19128271303606612,-0.24253480099506142,0.04884249544300128,0.9498432526679064,0.0,0.0,0.0,0.4241372048854828
1676104291.3931499,979,1676104291,391731739,base_footprint,7,0.19127028776882604,-0.24253543990105644,0.04883932275139252,0.9498457548265491,0.0,0.0,0.0,0.4241389036178589
1676104291.4000204,980,1676104291,399102210,base_footprint,7,0.19129161699047426,-0.24253434312805683,0.04884476899582633,0.9498414595154057,0.0,0.0,0.0,0.42414143681526184
1676104291.4099333,981,1676104291,407778739,base_footprint,7,0.19129161699047426,-0.24253434312805683,0.04884476899582633,0.9498414595154057,0.0,0.0,0.0,0.42414143681526184
1676104291.4193354,982,1676104291,418529748,base_footprint,7,0.19135224429159686,-0.24253122490784804,0.04886024968737342,0.9498292475754551,0.0,0.0,0.0,0.4241977035999298
1676104291.4283,983,1676104291,427179574,base_footprint,7,0.19133687681925876,-0.24253201539430985,0.04885632572746229,0.9498323433713121,0.0,0.0,0.0,0.4241969883441925
1676104291.437916,984,1676104291,437189102,base_footprint,7,0.19133151399101203,-0.24253229123695164,0.0488549563725946,0.94983342365864,0.0,0.0,0.0,0.4241972863674164
1676104291.451019,985,1676104291,450209617,base_footprint,7,0.19130226657314706,-0.24253379546668946,0.048847488280726194,0.9498393146996826,0.0,0.0,0.0,0.42418357729911804
1676104291.459499,986,1676104291,458261013,base_footprint,7,0.19132871494766562,-0.24253243520545845,0.04885424165948895,0.9498339874850031,0.0,0.0,0.0,0.4241822063922882
1676104291.4688215,987,1676104291,468148708,base_footprint,7,0.19132363631213403,-0.2425326964189592,0.04885294487093513,0.949835010479972,0.0,0.0,0.0,0.4241864085197449
1676104291.4818199,988,1676104291,480423927,base_footprint,7,0.19132498625913022,-0.24253262698676564,0.04885328956899468,0.9498347385614667,0.0,0.0,0.0,0.4241405427455902
1676104291.4880483,989,1676104291,487066268,base_footprint,7,0.1912656665535996,-0.24253567751246205,0.04883814276141823,0.9498466853882228,0.0,0.0,0.0,0.42414045333862305
1676104291.5006995,990,1676104291,499562025,base_footprint,7,0.1913093157877269,-0.24253343293902532,0.048849288240720115,0.9498378949262964,0.0,0.0,0.0,0.4241396188735962
1676104291.5147548,991,1676104291,512444972,base_footprint,7,0.1913364443552518,-0.2425320376388435,0.0488562153012719,0.9498324304879655,0.0,0.0,0.0,0.4241560399532318
1676104291.5201116,992,1676104291,519412040,base_footprint,7,0.19133707081785087,-0.24253200541563996,0.04885637526343552,0.9498323042916739,0.0,0.0,0.0,0.42415669560432434
1676104291.527949,993,1676104291,526869535,base_footprint,7,0.19133416579942064,-0.24253215483943696,0.04885563349044836,0.9498328894826847,0.0,0.0,0.0,0.42415863275527954
1676104291.5390117,994,1676104291,537977933,base_footprint,7,0.19133026287594546,-0.24253235558819736,0.04885463691046983,0.949833675678541,0.0,0.0,0.0,0.4241580367088318
1676104291.5508718,995,1676104291,550122022,base_footprint,7,0.19142483788664172,-0.24252748987725162,0.04887878587540052,0.949814620010273,0.0,0.0,0.0,0.4241306781768799
1676104291.5576103,996,1676104291,556853771,base_footprint,7,0.19129746768320938,-0.24253404225649583,0.04884626292294979,0.9498402812068868,0.0,0.0,0.0,0.4241319000720978
1676104291.5694118,997,1676104291,568699836,base_footprint,7,0.19140668437266,-0.24252842403631944,0.04887415052226351,0.9498182784736515,0.0,0.0,0.0,0.4241308569908142
1676104291.5807488,998,1676104291,579761266,base_footprint,7,0.19130541100328552,-0.24253363375636067,0.0488482911855589,0.9498386813907139,0.0,0.0,0.0,0.42413046956062317
1676104291.589109,999,1676104291,588365077,base_footprint,7,0.19136751591764534,-0.2425304392861712,0.04886414917370881,0.9498261708316401,0.0,0.0,0.0,0.4241292178630829
1676104291.6003509,1000,1676104291,599007844,base_footprint,7,0.19136560077382753,-0.2425305378109211,0.04886366015720695,0.9498265566858289,0.0,0.0,0.0,0.42412689328193665
1676104291.6175303,1001,1676104291,613747596,base_footprint,7,0.19122824228677246,-0.24253760155520737,0.04882858677722629,0.9498542205502367,0.0,0.0,0.0,0.4240930676460266
1676104291.625945,1002,1676104291,623766899,base_footprint,7,0.19130243146378612,-0.24253378698683709,0.04884753038421877,0.9498392814898895,0.0,0.0,0.0,0.4240936040878296
1676104291.6311119,1003,1676104291,630286931,base_footprint,7,0.19120547967693838,-0.2425387716265864,0.04882277452869926,0.9498588029210964,0.0,0.0,0.0,0.424094557762146
1676104291.6391282,1004,1676104291,638257503,base_footprint,7,0.1912335193765667,-0.2425373302751195,0.048829934239472815,0.949853158131318,0.0,0.0,0.0,0.42409446835517883
1676104291.651691,1005,1676104291,650565147,base_footprint,7,0.19116969074504206,-0.24254061099975974,0.0488136361140704,0.949866006490195,0.0,0.0,0.0,0.42408543825149536
1676104291.6599176,1006,1676104291,659286499,base_footprint,7,0.19122479063518963,-0.24253777899052584,0.04882770542587975,0.9498549154432555,0.0,0.0,0.0,0.42408493161201477
1676104291.669261,1007,1676104291,668520450,base_footprint,7,0.19117072536282706,-0.24254055783057804,0.04881390029536335,0.9498657982628055,0.0,0.0,0.0,0.42408403754234314
1676104291.6797032,1008,1676104291,677393198,base_footprint,7,0.191195881137674,-0.2425392649789433,0.04882032361924257,0.9498607350454985,0.0,0.0,0.0,0.42408615350723267
1676104291.686951,1009,1676104291,686070203,base_footprint,7,0.19111087938442234,-0.24254363283322983,0.04879861910826013,0.949877840949087,0.0,0.0,0.0,0.4240834712982178
1676104291.7018068,1010,1676104291,700176477,base_footprint,7,0.1912233930612244,-0.24253785083315074,0.04882734856665842,0.949855196801775,0.0,0.0,0.0,0.4240807890892029
1676104291.7138681,1011,1676104291,712395668,base_footprint,7,0.19120907145269575,-0.242538587007387,0.04882369165962174,0.9498580798937198,0.0,0.0,0.0,0.42408275604248047
1676104291.7209103,1012,1676104291,719299077,base_footprint,7,0.19115619157588784,-0.24254130469689064,0.04881018921028367,0.9498687232283147,0.0,0.0,0.0,0.42400771379470825
1676104291.726472,1013,1676104291,725763797,base_footprint,7,0.1911315941598006,-0.24254256858118417,0.04880390845880289,0.9498736730003203,0.0,0.0,0.0,0.424005925655365
1676104291.7407835,1014,1676104291,739855289,base_footprint,7,0.1910748575834495,-0.24254548322040895,0.048789421232393895,0.949885087652528,0.0,0.0,0.0,0.4240041673183441
1676104291.7567625,1015,1676104291,752222299,base_footprint,7,0.19116705061555767,-0.24254074667510037,0.04881296197833558,0.9498665378378875,0.0,0.0,0.0,0.4240000247955322
1676104291.767893,1016,1676104291,762961149,base_footprint,7,0.19113436884173593,-0.24254242601870485,0.04880461695141903,0.949873114680407,0.0,0.0,0.0,0.4239979684352875
1676104291.7701292,1017,1676104291,768712759,base_footprint,7,0.19113436884173593,-0.24254242601870485,0.04880461695141903,0.949873114680407,0.0,0.0,0.0,0.4239979684352875
1676104291.782267,1018,1676104291,778948783,base_footprint,7,0.1912996392359034,-0.24253393058207814,0.04884681741138671,0.9498398438544255,0.0,0.0,0.0,0.4239964783191681
1676104291.7911184,1019,1676104291,790451765,base_footprint,7,0.19117690277751345,-0.24254024036596938,0.04881547764829755,0.949864554970646,0.0,0.0,0.0,0.4239986538887024
1676104291.796171,1020,1676104291,795360565,base_footprint,7,0.19123541872464772,-0.2425372326331626,0.04883041922266089,0.9498527757344266,0.0,0.0,0.0,0.4239979386329651
1676104291.81578,1021,1676104291,813578844,base_footprint,7,0.19133172103836885,-0.24253228058740506,0.048855009240464466,0.9498333819516358,0.0,0.0,0.0,0.42397552728652954
1676104291.8264406,1022,1676104291,822368860,base_footprint,7,0.19122101378155862,-0.24253797313933587,0.04882674103681743,0.9498556757916117,0.0,0.0,0.0,0.42397698760032654
1676104291.8318496,1023,1676104291,831081390,base_footprint,7,0.19121764599803562,-0.2425381462565698,0.04882588110050242,0.949856353773641,0.0,0.0,0.0,0.4239772856235504
1676104291.8370066,1024,1676104291,836333274,base_footprint,7,0.19117676792913302,-0.24254024729610027,0.048815443215853016,0.9498645821112379,0.0,0.0,0.0,0.42397618293762207
1676104291.8503778,1025,1676104291,849626064,base_footprint,7,0.1911771827100707,-0.2425402259796531,0.04881554912681453,0.9498644986292658,0.0,0.0,0.0,0.42397263646125793
1676104291.8637464,1026,1676104291,862835168,base_footprint,7,0.1912061213114143,-0.2425387386464951,0.04882293836487906,0.9498586737605921,0.0,0.0,0.0,0.4239739179611206
1676104291.8720815,1027,1676104291,870853185,base_footprint,7,0.19121598212850935,-0.24253823178479475,0.04882545624486092,0.9498566887293135,0.0,0.0,0.0,0.42397427558898926
1676104291.8882313,1028,1676104291,881797075,base_footprint,7,0.191291841486967,-0.24253433158351337,0.04884482631919209,0.9498414143033096,0.0,0.0,0.0,0.4239158034324646
1676104291.893057,1029,1676104291,892378807,base_footprint,7,0.1912570159917829,-0.24253612228680108,0.048835933910344305,0.9498484272656902,0.0,0.0,0.0,0.42391863465309143
1676104291.9003532,1030,1676104291,899735689,base_footprint,7,0.19129759011907105,-0.24253403596013592,0.048846294185957935,0.9498402565483431,0.0,0.0,0.0,0.4239155650138855
1676104291.912099,1031,1676104291,910296678,base_footprint,7,0.19124492375355812,-0.24253674398212072,0.04883284625500413,0.949850862021866,0.0,0.0,0.0,0.4239158034324646
1676104291.9195938,1032,1676104291,918115854,base_footprint,7,0.19130641717348168,-0.2425335820109115,0.048848548102989865,0.9498384787391129,0.0,0.0,0.0,0.4239026606082916
1676104291.9277997,1033,1676104291,927235603,base_footprint,7,0.19126699303659972,-0.24253560930861304,0.04883848146813594,0.9498464182803047,0.0,0.0,0.0,0.42390236258506775
1676104291.9389813,1034,1676104291,938199520,base_footprint,7,0.1912160422003098,-0.24253822869692518,0.048825471583709854,0.9498566766362363,0.0,0.0,0.0,0.42390140891075134
1676104291.9505477,1035,1676104291,949845552,base_footprint,7,0.19132240707347853,-0.24253275964228416,0.048852630994775194,0.9498352580825774,0.0,0.0,0.0,0.4239301383495331
1676104291.9591987,1036,1676104291,957846164,base_footprint,7,0.191221721067585,-0.24253793678166702,0.04882692163659027,0.9498555334034418,0.0,0.0,0.0,0.4239290952682495
1676104291.9698195,1037,1676104291,969255208,base_footprint,7,0.1912971941052358,-0.24253405632544192,0.04884619306702441,0.9498403363053446,0.0,0.0,0.0,0.42392870783805847
1676104291.9778404,1038,1676104291,976866006,base_footprint,7,0.1912971941052358,-0.24253405632544192,0.04884619306702441,0.9498403363053446,0.0,0.0,0.0,0.42392870783805847
1676104291.9901721,1039,1676104291,989274263,base_footprint,7,0.19128648165732112,-0.24253460720439887,0.04884345772999289,0.9498424937221696,0.0,0.0,0.0,0.4238809645175934
1676104291.9972067,1040,1676104291,996413707,base_footprint,7,0.19119574718912108,-0.2425392718635413,0.048820289416561725,0.9498607620077693,0.0,0.0,0.0,0.4238806962966919
1676104292.0091963,1041,1676104292,7845878,base_footprint,7,0.19119574718912108,-0.2425392718635413,0.048820289416561725,0.9498607620077693,0.0,0.0,0.0,0.4238806962966919
1676104292.0182853,1042,1676104292,17007112,base_footprint,7,0.19128545608535735,-0.24253465994192266,0.048843195858477316,0.9498427002590497,0.0,0.0,0.0,0.42389169335365295
1676104292.0299659,1043,1676104292,29356002,base_footprint,7,0.19131927335234264,-0.24253292081677874,0.04885183082439978,0.9498358892930493,0.0,0.0,0.0,0.4238916039466858
1676104292.0389073,1044,1676104292,38076400,base_footprint,7,0.1913065407604962,-0.24253357565504322,0.04884857965993559,0.9498384538475155,0.0,0.0,0.0,0.42389029264450073
1676104292.0503676,1045,1676104292,49697399,base_footprint,7,0.19130455373885247,-0.24253367784364185,0.04884807229001157,0.9498388540504988,0.0,0.0,0.0,0.42382457852363586
1676104292.0584903,1046,1676104292,57774305,base_footprint,7,0.19120980966163795,-0.24253854906260455,0.0488238801553113,0.9498579312899095,0.0,0.0,0.0,0.42382189631462097
1676104292.0691,1047,1676104292,67649364,base_footprint,7,0.19133491638017983,-0.24253211623246332,0.04885582514518144,0.9498327382855235,0.0,0.0,0.0,0.4238223433494568
1676104292.0809531,1048,1676104292,80011844,base_footprint,7,0.19124017106319002,-0.24253698831984424,0.048831632693914565,0.9498518189259355,0.0,0.0,0.0,0.4238329529762268
1676104292.0904021,1049,1676104292,89378356,base_footprint,7,0.1913403581673148,-0.24253183632324968,0.04885721466156336,0.9498316420722096,0.0,0.0,0.0,0.42383190989494324
1676104292.1003754,1050,1676104292,98858833,base_footprint,7,0.19130168321947993,-0.24253382546683344,0.04884733932608009,0.9498394321897675,0.0,0.0,0.0,0.4238322377204895
1676104292.115357,1051,1676104292,112292528,base_footprint,7,0.1913184936953018,-0.24253296091590906,0.04885163174527307,0.9498360463339697,0.0,0.0,0.0,0.42383289337158203
1676104292.1218266,1052,1676104292,119345188,base_footprint,7,0.19126837767330584,-0.24253553811414674,0.04883883502393268,0.94984613946018,0.0,0.0,0.0,0.42384400963783264
1676104292.1290827,1053,1676104292,127519130,base_footprint,7,0.1913220264810092,-0.24253277921717786,0.04885253381356287,0.9498353347440736,0.0,0.0,0.0,0.42384395003318787
1676104292.1379726,1054,1676104292,137397050,base_footprint,7,0.19131200979177082,-0.2425332943878631,0.04884997613288847,0.949837352315974,0.0,0.0,0.0,0.4238436222076416
1676104292.147246,1055,1676104292,146182298,base_footprint,7,0.19127997957953868,-0.24253494155282712,0.04884179747696,0.949843803136725,0.0,0.0,0.0,0.4238417446613312
1676104292.158362,1056,1676104292,156159639,base_footprint,7,0.19127997957953868,-0.24253494155282712,0.04884179747696,0.949843803136725,0.0,0.0,0.0,0.4238417446613312
1676104292.1726801,1057,1676104292,168323755,base_footprint,7,0.19133087747972718,-0.2425323239760367,0.04885479384458025,0.9498335518752873,0.0,0.0,0.0,0.4238411486148834
1676104292.179692,1058,1676104292,178985357,base_footprint,7,0.1912306871818449,-0.2425374758711153,0.048829211061431274,0.9498537283314444,0.0,0.0,0.0,0.4238143861293793
1676104292.1880448,1059,1676104292,187426328,base_footprint,7,0.19134470898908718,-0.24253161252406388,0.04885832560875361,0.949830765603572,0.0,0.0,0.0,0.4238113462924957
1676104292.1994681,1060,1676104292,198397159,base_footprint,7,0.1912767283687269,-0.24253510873144662,0.048840967306545024,0.9498444578612556,0.0,0.0,0.0,0.4238128364086151
1676104292.2157333,1061,1676104292,212435722,base_footprint,7,0.1912650187234478,-0.2425357108218015,0.048837977343222636,0.9498468158381674,0.0,0.0,0.0,0.42381414771080017
1676104292.2205617,1062,1676104292,219999790,base_footprint,7,0.1912078391232052,-0.2425386503501901,0.048823376994242045,0.9498583279642394,0.0,0.0,0.0,0.423758864402771
1676104292.2309842,1063,1676104292,228277206,base_footprint,7,0.19120374621329184,-0.2425388607262561,0.048822331902761376,0.94985915186368,0.0,0.0,0.0,0.4237581491470337
1676104292.2371173,1064,1676104292,236612558,base_footprint,7,0.19125777378909212,-0.24253608332498935,0.04883612740776514,0.9498482746788703,0.0,0.0,0.0,0.42375749349594116
1676104292.2503421,1065,1676104292,248650312,base_footprint,7,0.19114241810204527,-0.24254201243749396,0.04880667226501082,0.9498714949651291,0.0,0.0,0.0,0.42374348640441895
1676104292.2589874,1066,1676104292,258249044,base_footprint,7,0.1911568456148702,-0.24254127108822188,0.04881035621385398,0.9498685916061016,0.0,0.0,0.0,0.42374321818351746
1676104292.2701623,1067,1676104292,267605781,base_footprint,7,0.19115138024278822,-0.2425415519300062,0.04880896067524638,0.9498696914716582,0.0,0.0,0.0,0.423745334148407
1676104292.2788749,1068,1676104292,276019811,base_footprint,7,0.19122718964488244,-0.2425376556675833,0.048828317993623735,0.9498544324714743,0.0,0.0,0.0,0.4237431585788727
1676104292.2902744,1069,1676104292,289789915,base_footprint,7,0.1910806234551173,-0.24254518706041922,0.04879089350114306,0.9498839277960175,0.0,0.0,0.0,0.4237125813961029
1676104292.2990139,1070,1676104292,298144578,base_footprint,7,0.1911227210384613,-0.24254302446553502,0.04880164277895289,0.9498754583881198,0.0,0.0,0.0,0.42371416091918945
1676104292.311171,1071,1676104292,309235095,base_footprint,7,0.19122431396602668,-0.24253780349387988,0.04882758371225989,0.9498550114061665,0.0,0.0,0.0,0.4237121343612671
1676104292.3207488,1072,1676104292,319155693,base_footprint,7,0.1911077486085401,-0.24254379367100404,0.04879781968993146,0.9498784708408551,0.0,0.0,0.0,0.42371365427970886
1676104292.3309898,1073,1676104292,329381942,base_footprint,7,0.19119099823777214,-0.24253951594371873,0.0488190768102005,0.9498617179032064,0.0,0.0,0.0,0.42371201515197754
1676104292.3379297,1074,1676104292,336964368,base_footprint,7,0.1912153370773412,-0.2425382649422833,0.04882529153625635,0.9498568185845617,0.0,0.0,0.0,0.4237123131752014
1676104292.3500707,1075,1676104292,348123311,base_footprint,7,0.19120702058294825,-0.2425386924236334,0.04882316798660024,0.9498584927371961,0.0,0.0,0.0,0.42372840642929077
1676104292.3588042,1076,1676104292,358313322,base_footprint,7,0.1911549142883515,-0.24254137033167583,0.04880986306523019,0.9498689802749636,0.0,0.0,0.0,0.4237307012081146
1676104292.3693411,1077,1676104292,368419408,base_footprint,7,0.1910567187192176,-0.2425464148499224,0.04878478961995215,0.9498887362093689,0.0,0.0,0.0,0.4237302839756012
1676104292.379885,1078,1676104292,379256486,base_footprint,7,0.1911548191219728,-0.24254137522188365,0.04880983876526422,0.9498689994265694,0.0,0.0,0.0,0.42371124029159546
1676104292.390253,1079,1676104292,389631509,base_footprint,7,0.1911634219021123,-0.2425409331502473,0.04881203541567288,0.9498672681337436,0.0,0.0,0.0,0.42371150851249695
1676104292.3995857,1080,1676104292,398162841,base_footprint,7,0.19113715658309763,-0.24254228278306672,0.04880532877865419,0.9498725537241902,0.0,0.0,0.0,0.42371195554733276
1676104292.409636,1081,1676104292,408600568,base_footprint,7,0.19114944456196062,-0.24254165139425116,0.04880846641478499,0.949870081005208,0.0,0.0,0.0,0.4237108528614044
1676104292.4184222,1082,1676104292,417609453,base_footprint,7,0.1912357647750272,-0.2425372148432467,0.048830507583829626,0.94985270606347,0.0,0.0,0.0,0.42366617918014526
1676104292.4293485,1083,1676104292,428550243,base_footprint,7,0.1911789531370098,-0.24254013499322322,0.04881600119103055,0.9498641422975305,0.0,0.0,0.0,0.42366620898246765
1676104292.439516,1084,1676104292,438288688,base_footprint,7,0.19122818195506042,-0.24253760465664304,0.04882857137201103,0.949854232696443,0.0,0.0,0.0,0.42366331815719604
1676104292.449312,1085,1676104292,448415756,base_footprint,7,0.19119908295504212,-0.2425391004125851,0.04882114117744074,0.9498600905514123,0.0,0.0,0.0,0.4236571192741394
1676104292.458853,1086,1676104292,457876920,base_footprint,7,0.19119670350250337,-0.24253922271147665,0.04882053360345805,0.9498605695126848,0.0,0.0,0.0,0.42365947365760803
1676104292.4682992,1087,1676104292,467558860,base_footprint,7,0.19119635014319517,-0.24253924087327214,0.04882044337601341,0.9498606406400399,0.0,0.0,0.0,0.42365843057632446
1676104292.4810047,1088,1676104292,478828191,base_footprint,7,0.1911916887063299,-0.24253948045634172,0.04881925311576859,0.9498615789233755,0.0,0.0,0.0,0.42367613315582275
1676104292.4894278,1089,1676104292,488172292,base_footprint,7,0.19120810449515863,-0.24253863670987771,0.048823444754826466,0.9498582745444474,0.0,0.0,0.0,0.4236772656440735
1676104292.4979603,1090,1676104292,496073246,base_footprint,7,0.19120810449515863,-0.24253863670987771,0.048823444754826466,0.9498582745444474,0.0,0.0,0.0,0.4236772656440735
1676104292.5170972,1091,1676104292,513170003,base_footprint,7,0.19124365215857403,-0.24253680935594943,0.04883252156349788,0.9498511180465266,0.0,0.0,0.0,0.4236205816268921
1676104292.5232458,1092,1676104292,521424055,base_footprint,7,0.19133577101656704,-0.2425320722730784,0.048856043369678505,0.949832566126621,0.0,0.0,0.0,0.42361727356910706
1676104292.5305336,1093,1676104292,529961109,base_footprint,7,0.19125274170755668,-0.242536342044216,0.04883484250639814,0.9498492879054703,0.0,0.0,0.0,0.4236196279525757
1676104292.5394456,1094,1676104292,537989854,base_footprint,7,0.19115736568565078,-0.2425412443636031,0.04881048900972627,0.949868486944013,0.0,0.0,0.0,0.42362180352211
1676104292.55177,1095,1676104292,550550460,base_footprint,7,0.19124699345681778,-0.24253663757586877,0.048833374737010805,0.9498504453012138,0.0,0.0,0.0,0.42357486486434937
1676104292.5590672,1096,1676104292,557167291,base_footprint,7,0.19124284160756552,-0.2425368510268614,0.04883231459584612,0.9498512812430427,0.0,0.0,0.0,0.42357170581817627
1676104292.5676441,1097,1676104292,566926240,base_footprint,7,0.19122722015966262,-0.24253765409893716,0.04882832578532634,0.9498544263281581,0.0,0.0,0.0,0.4235735237598419
1676104292.5806253,1098,1676104292,579787492,base_footprint,7,0.19121779327831684,-0.24253813868585414,0.048825918707332376,0.9498563241243158,0.0,0.0,0.0,0.42362532019615173
1676104292.5876005,1099,1676104292,586076736,base_footprint,7,0.19119205975931386,-0.2425394613856179,0.04881934786115038,0.9498615042363688,0.0,0.0,0.0,0.42362189292907715
1676104292.6002674,1100,1676104292,597882032,base_footprint,7,0.19124937358732952,-0.24253651520864944,0.04883398248410843,0.9498499660723478,0.0,0.0,0.0,0.42362406849861145
1676104292.6103678,1101,1676104292,608246803,base_footprint,7,0.19122464105938247,-0.24253778667953219,0.04882766723290578,0.9498549455558446,0.0,0.0,0.0,0.4236230254173279
1676104292.6191194,1102,1676104292,618518352,base_footprint,7,0.19119333023818288,-0.24253939608750444,0.04881967226766567,0.9498612485082331,0.0,0.0,0.0,0.4235529601573944
1676104292.6301875,1103,1676104292,627211570,base_footprint,7,0.1912075971349641,-0.24253866278854536,0.048823315204499645,0.9498583766767862,0.0,0.0,0.0,0.4235518276691437
1676104292.6395898,1104,1676104292,638151168,base_footprint,7,0.19118579593778964,-0.2425397833172557,0.0488177484449282,0.9498627650228322,0.0,0.0,0.0,0.42355409264564514
1676104292.6486988,1105,1676104292,647537708,base_footprint,7,0.19125862805165475,-0.2425360394032669,0.048836345536809114,0.949848102667466,0.0,0.0,0.0,0.4235297441482544
1676104292.6598184,1106,1676104292,658411979,base_footprint,7,0.19115841808873615,-0.2425411902840573,0.04881075773235198,0.9498682751513486,0.0,0.0,0.0,0.42353010177612305
1676104292.6681998,1107,1676104292,667584419,base_footprint,7,0.1911616689035513,-0.2425410232333805,0.048811587801652415,0.9498676209278825,0.0,0.0,0.0,0.4235319197177887
1676104292.6801195,1108,1676104292,679371833,base_footprint,7,0.19120638238571674,-0.24253872522721076,0.048823005028093024,0.9498586212064158,0.0,0.0,0.0,0.4235302209854126
1676104292.6883845,1109,1676104292,687820434,base_footprint,7,0.19115993979933255,-0.24254111208778859,0.04881114628885921,0.9498679689099437,0.0,0.0,0.0,0.42356759309768677
1676104292.6981263,1110,1676104292,695759534,base_footprint,7,0.19115993979933255,-0.24254111208778859,0.04881114628885921,0.9498679689099437,0.0,0.0,0.0,0.42356759309768677
1676104292.710207,1111,1676104292,706357002,base_footprint,7,0.19115770722688266,-0.2425412268129524,0.04881057621952059,0.9498684182100949,0.0,0.0,0.0,0.42356744408607483
1676104292.7199407,1112,1676104292,719082593,base_footprint,7,0.19115104359642357,-0.24254156922853068,0.04880887471531686,0.9498697592181701,0.0,0.0,0.0,0.4234764277935028
1676104292.726114,1113,1676104292,725389242,base_footprint,7,0.19122806587774152,-0.24253761062375637,0.04882854173260541,0.9498542560655525,0.0,0.0,0.0,0.42347562313079834
1676104292.7361352,1114,1676104292,735442638,base_footprint,7,0.19122806587774152,-0.24253761062375637,0.04882854173260541,0.9498542560655525,0.0,0.0,0.0,0.42347562313079834
1676104292.7486744,1115,1676104292,746180534,base_footprint,7,0.19118110645081263,-0.24254002432814972,0.04881655102231395,0.9498637088979814,0.0,0.0,0.0,0.4235146939754486
1676104292.7678123,1116,1676104292,766681909,base_footprint,7,0.19115946661249067,-0.2425411364035495,0.048811025464421905,0.9498680641381804,0.0,0.0,0.0,0.42351481318473816
1676104292.7722745,1117,1676104292,770841598,base_footprint,7,0.19111934883699885,-0.24254319771715352,0.04880078171455272,0.9498761368964417,0.0,0.0,0.0,0.42351648211479187
1676104292.7781284,1118,1676104292,777447223,base_footprint,7,0.19104444652229474,-0.2425470451095689,0.04878165601361227,0.9498912045061668,0.0,0.0,0.0,0.423522412776947
1676104292.790282,1119,1676104292,788862705,base_footprint,7,0.19103388892583958,-0.24254758727927211,0.04877896021664993,0.94989332781479,0.0,0.0,0.0,0.4235212206840515
1676104292.8006344,1120,1676104292,798383474,base_footprint,7,0.19099436111026383,-0.24254961689474722,0.04876886710827914,0.9499012764331187,0.0,0.0,0.0,0.42352044582366943
1676104292.8125453,1121,1676104292,811739683,base_footprint,7,0.1909938992087164,-0.24254964060919776,0.048768749165450605,0.9499013693064332,0.0,0.0,0.0,0.42350685596466064
1676104292.8208327,1122,1676104292,816630125,base_footprint,7,0.1910977004798973,-0.24254430985636116,0.048795253981459126,0.9498804923865326,0.0,0.0,0.0,0.4235093891620636
1676104292.8273926,1123,1676104292,826605558,base_footprint,7,0.1910063218470751,-0.2425490027987338,0.04877192118579576,0.9498988714382378,0.0,0.0,0.0,0.42351001501083374
1676104292.838994,1124,1676104292,837594270,base_footprint,7,0.19112925014838636,-0.2425426890142395,0.048803309934425006,0.9498741446543861,0.0,0.0,0.0,0.4235077500343323
1676104292.8519807,1125,1676104292,851234674,base_footprint,7,0.1910674958931358,-0.24254586133499917,0.04878754148424575,0.9498865684692634,0.0,0.0,0.0,0.42350834608078003
1676104292.861274,1126,1676104292,859716653,base_footprint,7,0.19116462030894582,-0.24254087156599283,0.048812341419176154,0.9498670269502584,0.0,0.0,0.0,0.4235059916973114
1676104292.8712075,1127,1676104292,870403766,base_footprint,7,0.19106657088759055,-0.24254590884449584,0.048787305291552695,0.9498867545315303,0.0,0.0,0.0,0.42350849509239197
1676104292.8827689,1128,1676104292,879831075,base_footprint,7,0.1910475840731688,-0.24254688397928956,0.04878245716188037,0.9498905734688557,0.0,0.0,0.0,0.4235304296016693
1676104292.8891296,1129,1676104292,888284921,base_footprint,7,0.19103144456005564,-0.24254771280160622,0.04877833606759449,0.9498938194000868,0.0,0.0,0.0,0.4235301613807678
1676104292.8985405,1130,1676104292,897353172,base_footprint,7,0.1910317769937241,-0.24254769573067098,0.04877842095184607,0.9498937525448866,0.0,0.0,0.0,0.4235292971134186
1676104292.914999,1131,1676104292,911596059,base_footprint,7,0.19106135408087327,-0.2425461767820427,0.04878597322210286,0.9498878038599977,0.0,0.0,0.0,0.42346322536468506
1676104292.9259677,1132,1676104292,920917034,base_footprint,7,0.19104998386099026,-0.2425467607352919,0.04878306992831323,0.9498900908062478,0.0,0.0,0.0,0.42346325516700745
1676104292.9319005,1133,1676104292,931286334,base_footprint,7,0.19105806803558012,-0.2425463455509043,0.04878513415698449,0.949888464812421,0.0,0.0,0.0,0.4234599769115448
1676104292.939166,1134,1676104292,937928199,base_footprint,7,0.19113072402094416,-0.24254261328826232,0.04880368627587555,0.9498738480874268,0.0,0.0,0.0,0.4234614074230194
1676104292.9490705,1135,1676104292,947631597,base_footprint,7,0.1911609206147301,-0.2425410616862031,0.04881139673214718,0.9498677715213392,0.0,0.0,0.0,0.4234166145324707
1676104292.956708,1136,1676104292,955519437,base_footprint,7,0.19105534855469705,-0.24254648521915192,0.04878443975951108,0.9498890117976044,0.0,0.0,0.0,0.42342060804367065
1676104292.9663522,1137,1676104292,965665340,base_footprint,7,0.19105534855469705,-0.24254648521915192,0.04878443975951108,0.9498890117976044,0.0,0.0,0.0,0.42342060804367065
1676104292.9781857,1138,1676104292,976283073,base_footprint,7,0.19106612873740875,-0.2425459315538239,0.0487871923920758,0.9498868434684661,0.0,0.0,0.0,0.4234350025653839
1676104292.9914417,1139,1676104292,990475416,base_footprint,7,0.19106612873740875,-0.2425459315538239,0.0487871923920758,0.9498868434684661,0.0,0.0,0.0,0.4234350025653839
1676104292.9981763,1140,1676104292,996008634,base_footprint,7,0.19105848657690036,-0.24254632405509877,0.04878524102812931,0.9498883806280245,0.0,0.0,0.0,0.4234349727630615
1676104293.0068972,1141,1676104293,6343126,base_footprint,7,0.1910593929868847,-0.24254627750274627,0.04878547247259613,0.9498881983142381,0.0,0.0,0.0,0.42343467473983765
1676104293.0175517,1142,1676104293,16405105,base_footprint,7,0.19114792536287378,-0.24254172945700153,0.048808078499571445,0.9498703867237127,0.0,0.0,0.0,0.4234122335910797
1676104293.030468,1143,1676104293,28688669,base_footprint,7,0.1912053346125349,-0.2425387790828987,0.048822737487675766,0.9498588321223816,0.0,0.0,0.0,0.42341047525405884
1676104293.0397065,1144,1676104293,39167165,base_footprint,7,0.1913006915635941,-0.24253387646452768,0.048847086114761004,0.949839631912923,0.0,0.0,0.0,0.4234083592891693
1676104293.05232,1145,1676104293,50496816,base_footprint,7,0.1911382778103229,-0.24254222517320093,0.048805615074968015,0.9498723281056723,0.0,0.0,0.0,0.42337745428085327
1676104293.0608115,1146,1676104293,57531833,base_footprint,7,0.1912671321826052,-0.24253560215410677,0.04883851699794431,0.9498463902609875,0.0,0.0,0.0,0.4233737885951996
1676104293.075479,1147,1676104293,70804834,base_footprint,7,0.19122841552010672,-0.24253759264990096,0.04882863101095868,0.9498541856742305,0.0,0.0,0.0,0.42337551712989807
1676104293.0823705,1148,1676104293,81236839,base_footprint,7,0.19122267023253073,-0.24253788799011877,0.04882716399819106,0.949855342320254,0.0,0.0,0.0,0.4233740568161011
1676104293.0906713,1149,1676104293,89910984,base_footprint,7,0.19122075316865528,-0.2425379865359708,0.048826674491418,0.9498557282570856,0.0,0.0,0.0,0.4233728349208832
1676104293.0975018,1150,1676104293,96879959,base_footprint,7,0.1913581072919909,-0.2425309233039222,0.048861746757158146,0.9498280663987632,0.0,0.0,0.0,0.42337220907211304
1676104293.1112812,1151,1676104293,108735084,base_footprint,7,0.19121992719734157,-0.24253802899435753,0.048826463586315885,0.9498558945376028,0.0,0.0,0.0,0.42337316274642944
1676104293.1193042,1152,1676104293,118445158,base_footprint,7,0.19125512618707927,-0.24253621944956993,0.04883545136398055,0.9498488077859291,0.0,0.0,0.0,0.4233175814151764
1676104293.128931,1153,1676104293,128254890,base_footprint,7,0.19122093846991736,-0.24253797701068322,0.04882672180659827,0.9498556909530365,0.0,0.0,0.0,0.4233167767524719
1676104293.1392746,1154,1676104293,138379335,base_footprint,7,0.19120990798233117,-0.24253854400879718,0.048823905260706006,0.9498579114975959,0.0,0.0,0.0,0.423315167427063
1676104293.1499178,1155,1676104293,148933410,base_footprint,7,0.19117819837199024,-0.24254017378249085,0.04881580846788038,0.9498642942086128,0.0,0.0,0.0,0.423300564289093
1676104293.1569858,1156,1676104293,155895233,base_footprint,7,0.1911983119034811,-0.24253914004319863,0.0488209442956538,0.9498602457574722,0.0,0.0,0.0,0.4232981503009796
1676104293.1702523,1157,1676104293,169551134,base_footprint,7,0.1912391931201321,-0.24253703859550638,0.048831382984055316,0.9498520158213841,0.0,0.0,0.0,0.42329639196395874
1676104293.1800158,1158,1676104293,179397583,base_footprint,7,0.19127134370774562,-0.2425353856064622,0.048839592376864936,0.9498455421916869,0.0,0.0,0.0,0.423279345035553
1676104293.1907022,1159,1676104293,189666509,base_footprint,7,0.19120984164372543,-0.24253854741868533,0.048823888321678964,0.9498579248518,0.0,0.0,0.0,0.4232763350009918
1676104293.1987333,1160,1676104293,198122024,base_footprint,7,0.1912291178024819,-0.2425375565479887,0.0488288103330896,0.9498540442876846,0.0,0.0,0.0,0.4232792258262634
1676104293.2101912,1161,1676104293,207958221,base_footprint,7,0.19120577825482482,-0.2425387562796605,0.04882285076815041,0.9498587428176639,0.0,0.0,0.0,0.4232797920703888
1676104293.2172918,1162,1676104293,215810537,base_footprint,7,0.19123735911866496,-0.2425371328800683,0.04883091468659718,0.9498523850696513,0.0,0.0,0.0,0.42327621579170227
1676104293.2274933,1163,1676104293,226087093,base_footprint,7,0.19125121853946178,-0.24253642035491935,0.04883445357773045,0.9498495945950376,0.0,0.0,0.0,0.4232742488384247
1676104293.2388585,1164,1676104293,237382411,base_footprint,7,0.1912260580601689,-0.24253771383776837,0.04882802905260896,0.9498546602843801,0.0,0.0,0.0,0.42327505350112915
1676104293.2519531,1165,1676104293,250721693,base_footprint,7,0.19118687311047236,-0.24253972795631187,0.04881802349227049,0.9498625482118065,0.0,0.0,0.0,0.42327940464019775
1676104293.258939,1166,1676104293,258019685,base_footprint,7,0.19119978437602664,-0.24253906436070904,0.04882132027962252,0.949859949360824,0.0,0.0,0.0,0.42327800393104553
1676104293.2687576,1167,1676104293,267976284,base_footprint,7,0.19116406203089423,-0.2425409002550795,0.048812198867385886,0.9498671393058266,0.0,0.0,0.0,0.42328131198883057
1676104293.2837753,1168,1676104293,282505512,base_footprint,7,0.19118173500789254,-0.24253999202452453,0.04881671151928633,0.9498635823867332,0.0,0.0,0.0,0.4232867956161499
1676104293.2920265,1169,1676104293,291287660,base_footprint,7,0.19117479347875016,-0.24254034876651456,0.048814939055898905,0.9498649795015833,0.0,0.0,0.0,0.42328473925590515
1676104293.2994885,1170,1676104293,298628807,base_footprint,7,0.19114885202995266,-0.2425416818410802,0.04880831511652369,0.9498702002446532,0.0,0.0,0.0,0.42328736186027527
1676104293.3095343,1171,1676104293,307590723,base_footprint,7,0.1912618327160698,-0.24253587463432902,0.04883716382197772,0.9498474573800134,0.0,0.0,0.0,0.42328736186027527
1676104293.3180258,1172,1676104293,316526651,base_footprint,7,0.19124459347710637,-0.24253676096197024,0.048832761921580405,0.9498509285203455,0.0,0.0,0.0,0.4232964813709259
1676104293.328896,1173,1676104293,328095197,base_footprint,7,0.19129666484694569,-0.2425340835428746,0.04884605792519579,0.9498404428974487,0.0,0.0,0.0,0.4232948124408722
1676104293.340276,1174,1676104293,339471340,base_footprint,7,0.19118296005355645,-0.2425399290650625,0.048817024324799736,0.9498633358174988,0.0,0.0,0.0,0.4232965409755707
1676104293.3509963,1175,1676104293,350044488,base_footprint,7,0.19127209391102734,-0.24253534703208815,0.0488397839352122,0.9498453911221959,0.0,0.0,0.0,0.4232844114303589
1676104293.3595994,1176,1676104293,358008146,base_footprint,7,0.19130229529662263,-0.2425337939895241,0.04884749561503363,0.9498393089146343,0.0,0.0,0.0,0.42328330874443054
1676104293.3661783,1177,1676104293,365546941,base_footprint,7,0.19128996174168456,-0.2425344282473996,0.048844346341420264,0.9498417928697658,0.0,0.0,0.0,0.42328178882598877
1676104293.3793643,1178,1676104293,378419399,base_footprint,7,0.1912918803466503,-0.24253432958518537,0.04884483624169828,0.9498414064772229,0.0,0.0,0.0,0.4232271611690521
1676104293.3915102,1179,1676104293,390388250,base_footprint,7,0.19128342323012582,-0.24253476447564937,0.04884267678531693,0.9498431096462988,0.0,0.0,0.0,0.42322927713394165
1676104293.3997154,1180,1676104293,398955345,base_footprint,7,0.19126817030881757,-0.24253554877633077,0.04883878207508585,0.9498461812166765,0.0,0.0,0.0,0.4232293963432312
1676104293.4066787,1181,1676104293,406152963,base_footprint,7,0.19126817030881757,-0.24253554877633077,0.04883878207508585,0.9498461812166765,0.0,0.0,0.0,0.4232293963432312
1676104293.4167817,1182,1676104293,416124105,base_footprint,7,0.1913134550543986,-0.2425332200579558,0.04885034516902451,0.9498370612164673,0.0,0.0,0.0,0.4232282340526581
1676104293.4292665,1183,1676104293,428639173,base_footprint,7,0.19131537308427826,-0.24253312141270997,0.048850834922458945,0.949836674890378,0.0,0.0,0.0,0.42322811484336853
1676104293.4409554,1184,1676104293,440414905,base_footprint,7,0.1913420037661722,-0.2425317516769473,0.04885763485193717,0.9498313105704257,0.0,0.0,0.0,0.4232284724712372
1676104293.4550307,1185,1676104293,451936483,base_footprint,7,0.19126682308876294,-0.24253561804685778,0.04883843807332879,0.9498464525020442,0.0,0.0,0.0,0.42321956157684326
1676104293.4606326,1186,1676104293,456833124,base_footprint,7,0.19135867973480097,-0.24253089385585666,0.04886189292580506,0.9498279510707927,0.0,0.0,0.0,0.4232184886932373
1676104293.4703066,1187,1676104293,469807863,base_footprint,7,0.1912955127685391,-0.2425341427889434,0.04884576375128205,0.9498406749238568,0.0,0.0,0.0,0.4232192039489746
1676104293.4778957,1188,1676104293,475415229,base_footprint,7,0.19132274967012258,-0.2425327420215832,0.04885271847406049,0.9498351890743204,0.0,0.0,0.0,0.4232200086116791
1676104293.488275,1189,1676104293,487733602,base_footprint,7,0.19134450264468622,-0.24253162313820342,0.048858272920377845,0.949830807171911,0.0,0.0,0.0,0.42319777607917786
1676104293.497768,1190,1676104293,496897935,base_footprint,7,0.19135037789372542,-0.24253132091689752,0.04885977311775516,0.9498296235773628,0.0,0.0,0.0,0.4231981337070465
1676104293.5124645,1191,1676104293,511377573,base_footprint,7,0.1912435756390862,-0.2425368132898699,0.048832502024864846,0.9498511334530076,0.0,0.0,0.0,0.42319920659065247
1676104293.521218,1192,1676104293,520451784,base_footprint,7,0.1913762441998892,-0.2425299902458943,0.04886637787006591,0.9498244122474062,0.0,0.0,0.0,0.4231663942337036
1676104293.5305781,1193,1676104293,529074192,base_footprint,7,0.19141686077659256,-0.24252790038156644,0.048876748984794764,0.9498162276754493,0.0,0.0,0.0,0.42316240072250366
1676104293.5391974,1194,1676104293,536927938,base_footprint,7,0.19132485302443286,-0.24253263383948498,0.04885325554859108,0.9498347653988906,0.0,0.0,0.0,0.42316681146621704
1676104293.5514462,1195,1676104293,550052165,base_footprint,7,0.19142178408478003,-0.2425276470288528,0.04887800611176612,0.9498152354658174,0.0,0.0,0.0,0.4231317341327667
1676104293.5573165,1196,1676104293,556588172,base_footprint,7,0.1914129534743715,-0.24252810144593656,0.04887575128673885,0.9498170151073334,0.0,0.0,0.0,0.42313456535339355
1676104293.570487,1197,1676104293,569681644,base_footprint,7,0.19144865597612537,-0.24252626408577457,0.048884867632129084,0.9498098194218259,0.0,0.0,0.0,0.42313292622566223
1676104293.5811408,1198,1676104293,579779863,base_footprint,7,0.1916047501793314,-0.2425182268118356,0.04892472502586718,0.9497783429063342,0.0,0.0,0.0,0.423084557056427
1676104293.5890005,1199,1676104293,587908029,base_footprint,7,0.19147757997530687,-0.24252477530666122,0.04889225314164948,0.9498039888903321,0.0,0.0,0.0,0.42308518290519714
1676104293.598378,1200,1676104293,597296237,base_footprint,7,0.1915162157023269,-0.24252278627935484,0.04890211846241455,0.9497961992281534,0.0,0.0,0.0,0.4230845868587494
1676104293.6121752,1201,1676104293,610014677,base_footprint,7,0.19150951051680815,-0.24252313150268107,0.04890040634746205,0.9497975512322606,0.0,0.0,0.0,0.4230859577655792
1676104293.620797,1202,1676104293,620046377,base_footprint,7,0.19149022421596065,-0.24252412440746168,0.0488954817463504,0.9498014397624944,0.0,0.0,0.0,0.42308491468429565
1676104293.6285815,1203,1676104293,627729177,base_footprint,7,0.19162450647242363,-0.2425172090764093,0.04892976963570155,0.9497743571314117,0.0,0.0,0.0,0.42308127880096436
1676104293.6399393,1204,1676104293,639134645,base_footprint,7,0.19149854059673166,-0.24252369627310003,0.048897605266994076,0.9497997630524594,0.0,0.0,0.0,0.4230840802192688
1676104293.6519554,1205,1676104293,649786472,base_footprint,7,0.1915620189217641,-0.2425204277173781,0.04891381394446375,0.9497869623509284,0.0,0.0,0.0,0.4230828285217285
