Time,header.seq,header.stamp.secs,header.stamp.nsecs,header.frame_id,orientation.x,orientation.y,orientation.z,orientation.w,orientation_covariance_0,orientation_covariance_1,orientation_covariance_2,orientation_covariance_3,orientation_covariance_4,orientation_covariance_5,orientation_covariance_6,orientation_covariance_7,orientation_covariance_8,angular_velocity.x,angular_velocity.y,angular_velocity.z,angular_velocity_covariance_0,angular_velocity_covariance_1,angular_velocity_covariance_2,angular_velocity_covariance_3,angular_velocity_covariance_4,angular_velocity_covariance_5,angular_velocity_covariance_6,angular_velocity_covariance_7,angular_velocity_covariance_8,linear_acceleration.x,linear_acceleration.y,linear_acceleration.z,linear_acceleration_covariance_0,linear_acceleration_covariance_1,linear_acceleration_covariance_2,linear_acceleration_covariance_3,linear_acceleration_covariance_4,linear_acceleration_covariance_5,linear_acceleration_covariance_6,linear_acceleration_covariance_7,linear_acceleration_covariance_8
1676104290.057551,7298,1676104289,657575360,base_link,0.03330128263093726,0.07299415459488677,0.01662360213651539,-0.9966376337520754,1.0,0.0,0.0,0.0,1.0,0.0,0.0,0.0,1.0,-0.0006074706325307488,0.0005121941212564707,-0.00015545915812253957,1.2184696791468346e-07,0.0,0.0,0.0,1.2184696791468346e-07,0.0,0.0,0.0,1.2184696791468346e-07,1.4466437101364136,-0.6396429538726794,9.683826446533203,8.999999999999999e-08,0.0,0.0,0.0,8.999999999999999e-08,0.0,0.0,0.0,8.999999999999999e-08
1676104290.0602393,7299,1676104289,677575360,base_link,0.03330261289084339,0.07299701794640748,0.016624571514031145,-0.9966374230178328,1.0,0.0,0.0,0.0,1.0,0.0,0.0,0.0,1.0,0.00150301621761173,-0.0005324452067725359,0.0005041890544816853,1.2184696791468346e-07,0.0,0.0,0.0,1.2184696791468346e-07,0.0,0.0,0.0,1.2184696791468346e-07,1.445481538772583,-0.632135748863219,9.675909996032715,8.999999999999999e-08,0.0,0.0,0.0,8.999999999999999e-08,0.0,0.0,0.0,8.999999999999999e-08
1676104290.0604885,7300,1676104289,697575360,base_link,0.033299916809627704,0.07299389776252865,0.016626510269062655,-0.9966376758989238,1.0,0.0,0.0,0.0,1.0,0.0,0.0,0.0,1.0,0.0016689366893842816,0.00039016641676425923,-0.0008198822615668178,1.2184696791468346e-07,0.0,0.0,0.0,1.2184696791468346e-07,0.0,0.0,0.0,1.2184696791468346e-07,1.4501290321350098,-0.6229366064071643,9.688586235046387,8.999999999999999e-08,0.0,0.0,0.0,8.999999999999999e-08,0.0,0.0,0.0,8.999999999999999e-08
1676104290.061284,7301,1676104289,717578688,base_link,0.03328929975507001,0.07298834096397029,0.016622969933787778,-0.996638518835894,1.0,0.0,0.0,0.0,1.0,0.0,0.0,0.0,1.0,0.00027012673672288656,0.0018290739972144367,0.0012319113593548534,1.2184696791468346e-07,0.0,0.0,0.0,1.2184696791468346e-07,0.0,0.0,0.0,1.2184696791468346e-07,1.4699103832244873,-0.6273120641708362,9.660943984985352,8.999999999999999e-08,0.0,0.0,0.0,8.999999999999999e-08,0.0,0.0,0.0,8.999999999999999e-08
1676104290.0625856,7302,1676104289,737578688,base_link,0.03327356976095234,0.07298759154032021,0.01662533015730434,-0.9966390245980762,1.0,0.0,0.0,0.0,1.0,0.0,0.0,0.0,1.0,-0.0012878472916781902,0.0004919319180771708,0.0002693277492653578,1.2184696791468346e-07,0.0,0.0,0.0,1.2184696791468346e-07,0.0,0.0,0.0,1.2184696791468346e-07,1.4322564601898193,-0.6472190618515002,9.672877311706543,8.999999999999999e-08,0.0,0.0,0.0,8.999999999999999e-08,0.0,0.0,0.0,8.999999999999999e-08
1676104290.0676334,7303,1676104289,757578688,base_link,0.033279403148204045,0.07299320102243921,0.016623728577060976,-0.996638434542197,1.0,0.0,0.0,0.0,1.0,0.0,0.0,0.0,1.0,-0.0016026496887207031,-0.0006824630545452237,0.00042564954492263507,1.2184696791468346e-07,0.0,0.0,0.0,1.2184696791468346e-07,0.0,0.0,0.0,1.2184696791468346e-07,1.4502078294754028,-0.6479470133781421,9.67564582824707,8.999999999999999e-08,0.0,0.0,0.0,8.999999999999999e-08,0.0,0.0,0.0,8.999999999999999e-08
1676104290.0676894,7304,1676104289,777578688,base_link,0.0332850995581981,0.07299158232003859,0.0166234335491214,-0.9966383923953486,1.0,0.0,0.0,0.0,1.0,0.0,0.0,0.0,1.0,0.002073095180094242,-0.0007864806684665383,-0.0005555732641369103,1.2184696791468346e-07,0.0,0.0,0.0,1.2184696791468346e-07,0.0,0.0,0.0,1.2184696791468346e-07,1.4286754131317139,-0.6575601696968066,9.679792404174805,8.999999999999999e-08,0.0,0.0,0.0,8.999999999999999e-08,0.0,0.0,0.0,8.999999999999999e-08
1676104290.0681925,7305,1676104289,797578688,base_link,0.033284439696601095,0.07299434952406113,0.016623222814878845,-0.996638181661106,1.0,0.0,0.0,0.0,1.0,0.0,0.0,0.0,1.0,0.002429263200610876,0.0009023197926580906,4.257951513864089e-05,1.2184696791468346e-07,0.0,0.0,0.0,1.2184696791468346e-07,0.0,0.0,0.0,1.2184696791468346e-07,1.430718183517456,-0.6310748457908618,9.680948257446289,8.999999999999999e-08,0.0,0.0,0.0,8.999999999999999e-08,0.0,0.0,0.0,8.999999999999999e-08
1676104290.068213,7306,1676104289,817582528,base_link,0.03328224410921148,0.07299361590547923,0.016619556039058382,-0.9966383923953486,1.0,0.0,0.0,0.0,1.0,0.0,0.0,0.0,1.0,0.003153489902615547,0.001679191365838051,0.0017957568634301422,1.2184696791468346e-07,0.0,0.0,0.0,1.2184696791468346e-07,0.0,0.0,0.0,1.2184696791468346e-07,1.426215410232544,-0.6035282611846912,9.662585258483887,8.999999999999999e-08,0.0,0.0,0.0,8.999999999999999e-08,0.0,0.0,0.0,8.999999999999999e-08
1676104290.0682423,7307,1676104289,837582528,base_link,0.033272227647245065,0.07299834293795754,0.01661829163360305,-0.9966383923953486,1.0,0.0,0.0,0.0,1.0,0.0,0.0,0.0,1.0,-0.0018426456954330206,-0.0008370576542802155,0.00014693770208396028,1.2184696791468346e-07,0.0,0.0,0.0,1.2184696791468346e-07,0.0,0.0,0.0,1.2184696791468346e-07,1.426814317703247,-0.6371167302131641,9.675677299499512,8.999999999999999e-08,0.0,0.0,0.0,8.999999999999999e-08,0.0,0.0,0.0,8.999999999999999e-08
1676104290.0700297,7308,1676104289,857582528,base_link,0.03328083350687538,0.07300026325374281,0.016620356829180095,-0.996637928780015,1.0,0.0,0.0,0.0,1.0,0.0,0.0,0.0,1.0,0.0009941133903339505,0.0014714624267071488,0.0011459997622296212,1.2184696791468346e-07,0.0,0.0,0.0,1.2184696791468346e-07,0.0,0.0,0.0,1.2184696791468346e-07,1.4478563070297241,-0.6166175603866565,9.669418334960938,8.999999999999999e-08,0.0,0.0,0.0,8.999999999999999e-08,0.0,0.0,0.0,8.999999999999999e-08
1676104290.070648,7309,1676104289,877582528,base_link,0.033281689614735765,0.07300061886777712,0.016619471745361363,-0.9966378866331664,1.0,0.0,0.0,0.0,1.0,0.0,0.0,0.0,1.0,0.002110350877046585,-0.0005544523010030387,0.0018984489142894745,1.2184696791468346e-07,0.0,0.0,0.0,1.2184696791468346e-07,0.0,0.0,0.0,1.2184696791468346e-07,1.447216510772705,-0.6365104913711536,9.675392150878906,8.999999999999999e-08,0.0,0.0,0.0,8.999999999999999e-08,0.0,0.0,0.0,8.999999999999999e-08
1676104290.070665,7310,1676104289,897582528,base_link,0.03327343410078369,0.07300181478460362,0.01661850236784561,-0.996638097367409,1.0,0.0,0.0,0.0,1.0,0.0,0.0,0.0,1.0,0.00025388842914253473,0.001324697397649288,-0.001505750115029514,1.2184696791468346e-07,0.0,0.0,0.0,1.2184696791468346e-07,0.0,0.0,0.0,1.2184696791468346e-07,1.447968602180481,-0.6266157031059253,9.66699504852295,8.999999999999999e-08,0.0,0.0,0.0,8.999999999999999e-08,0.0,0.0,0.0,8.999999999999999e-08
1676104290.070689,7311,1676104289,917586880,base_link,0.03327458391949463,0.07300350987816717,0.016627226765487342,-0.9966378023394694,1.0,0.0,0.0,0.0,1.0,0.0,0.0,0.0,1.0,-0.0008253981359302998,-0.0008250907412730157,-0.0002533821389079093,1.2184696791468346e-07,0.0,0.0,0.0,1.2184696791468346e-07,0.0,0.0,0.0,1.2184696791468346e-07,1.4594149589538574,-0.6336060166358936,9.691910743713379,8.999999999999999e-08,0.0,0.0,0.0,8.999999999999999e-08,0.0,0.0,0.0,8.999999999999999e-08
1676104290.0711086,7312,1676104289,937586880,base_link,0.033278385038394705,0.07300148946361668,0.016629460548458427,-0.9966377601926208,1.0,0.0,0.0,0.0,1.0,0.0,0.0,0.0,1.0,0.0010083022061735392,0.0012044276809319856,0.0011919083772227166,1.2184696791468346e-07,0.0,0.0,0.0,1.2184696791468346e-07,0.0,0.0,0.0,1.2184696791468346e-07,1.4417098760604858,-0.6450582742691028,9.676148414611816,8.999999999999999e-08,0.0,0.0,0.0,8.999999999999999e-08,0.0,0.0,0.0,8.999999999999999e-08
1676104290.0713592,7313,1676104289,957586880,base_link,0.033268076182666736,0.07300245225568736,0.01662646812221414,-0.9966381395142575,1.0,0.0,0.0,0.0,1.0,0.0,0.0,0.0,1.0,0.002507865196093917,0.0007507945410907269,0.0004096513439435511,1.2184696791468346e-07,0.0,0.0,0.0,1.2184696791468346e-07,0.0,0.0,0.0,1.2184696791468346e-07,1.4287246465682983,-0.6304151415824878,9.694613456726074,8.999999999999999e-08,0.0,0.0,0.0,8.999999999999999e-08,0.0,0.0,0.0,8.999999999999999e-08
1676104290.074016,7314,1676104289,977586880,base_link,0.033265211514057015,0.07300355729337174,0.016631820771975045,-0.9966380130737119,1.0,0.0,0.0,0.0,1.0,0.0,0.0,0.0,1.0,-0.0002389182336628437,-0.0008061107946559787,0.00016662789857946347,1.2184696791468346e-07,0.0,0.0,0.0,1.2184696791468346e-07,0.0,0.0,0.0,1.2184696791468346e-07,1.4457128047943115,-0.6351156234741199,9.693326950073242,8.999999999999999e-08,0.0,0.0,0.0,8.999999999999999e-08,0.0,0.0,0.0,8.999999999999999e-08
1676104290.0797305,7315,1676104289,997586880,base_link,0.033263550664807885,0.07301027576444219,0.016627058178093297,-0.9966376337520754,1.0,0.0,0.0,0.0,1.0,0.0,0.0,0.0,1.0,-0.0023574824444949627,0.0005699804751202464,-0.00017659252625890084,1.2184696791468346e-07,0.0,0.0,0.0,1.2184696791468346e-07,0.0,0.0,0.0,1.2184696791468346e-07,1.464707374572754,-0.6182808279991138,9.680190086364746,8.999999999999999e-08,0.0,0.0,0.0,8.999999999999999e-08,0.0,0.0,0.0,8.999999999999999e-08
1676104290.0833616,7316,1676104290,17591488,base_link,0.033265619811651964,0.07301365409776814,0.01663101998185334,-0.9966372965772873,1.0,0.0,0.0,0.0,1.0,0.0,0.0,0.0,1.0,-0.0010028164833784103,-0.0008016946958377957,0.0004288060299586506,1.2184696791468346e-07,0.0,0.0,0.0,1.2184696791468346e-07,0.0,0.0,0.0,1.2184696791468346e-07,1.4458134174346924,-0.6425705552101123,9.667089462280273,8.999999999999999e-08,0.0,0.0,0.0,8.999999999999999e-08,0.0,0.0,0.0,8.999999999999999e-08
1676104290.083803,7317,1676104290,37591488,base_link,0.03327334322164159,0.07301228432519154,0.016627732527669477,-0.9966372122835903,1.0,0.0,0.0,0.0,1.0,0.0,0.0,0.0,1.0,0.001420982414856553,-0.00020850036526098853,-0.0003924125339835882,1.2184696791468346e-07,0.0,0.0,0.0,1.2184696791468346e-07,0.0,0.0,0.0,1.2184696791468346e-07,1.4460585117340088,-0.6139945387840259,9.688626289367676,8.999999999999999e-08,0.0,0.0,0.0,8.999999999999999e-08,0.0,0.0,0.0,8.999999999999999e-08
1676104290.0844357,7318,1676104290,57591488,base_link,0.03326290265701203,0.07300730967997823,0.016630935688156316,-0.9966378866331664,1.0,0.0,0.0,0.0,1.0,0.0,0.0,0.0,1.0,-0.0005250935209915042,0.0007697930559515954,0.0007597723742946981,1.2184696791468346e-07,0.0,0.0,0.0,1.2184696791468346e-07,0.0,0.0,0.0,1.2184696791468346e-07,1.4410860538482666,-0.6363871097564685,9.686579704284668,8.999999999999999e-08,0.0,0.0,0.0,8.999999999999999e-08,0.0,0.0,0.0,8.999999999999999e-08
1676104290.085984,7319,1676104290,77591488,base_link,0.03326047394486659,0.07300574497822726,0.016628196143003093,-0.9966380973674089,1.0,0.0,0.0,0.0,1.0,0.0,0.0,0.0,1.0,-0.0024146423675119877,-0.00016691465862095367,-0.0008372508455067873,1.2184696791468346e-07,0.0,0.0,0.0,1.2184696791468346e-07,0.0,0.0,0.0,1.2184696791468346e-07,1.4485617876052856,-0.6217869520187366,9.686544418334961,8.999999999999999e-08,0.0,0.0,0.0,8.999999999999999e-08,0.0,0.0,0.0,8.999999999999999e-08
1676104290.1027482,7320,1676104290,97591488,base_link,0.033260239503021746,0.07300850823098276,0.016642694658890844,-0.9966376758989238,1.0,0.0,0.0,0.0,1.0,0.0,0.0,0.0,1.0,0.000637873075902462,0.0005483238492161036,0.00012581076589412982,1.2184696791468346e-07,0.0,0.0,0.0,1.2184696791468346e-07,0.0,0.0,0.0,1.2184696791468346e-07,1.4489712715148926,-0.6200274825096118,9.663067817687988,8.999999999999999e-08,0.0,0.0,0.0,8.999999999999999e-08,0.0,0.0,0.0,8.999999999999999e-08
1676104290.124142,7321,1676104290,117595584,base_link,0.033251875987770366,0.07300088755393638,0.016645602791438105,-0.9966383923953486,1.0,0.0,0.0,0.0,1.0,0.0,0.0,0.0,1.0,0.0013836314901709557,-0.0004436840536072852,-0.0013486887328326702,1.2184696791468346e-07,0.0,0.0,0.0,1.2184696791468346e-07,0.0,0.0,0.0,1.2184696791468346e-07,1.413794755935669,-0.6348742246627795,9.66553783416748,8.999999999999999e-08,0.0,0.0,0.0,8.999999999999999e-08,0.0,0.0,0.0,8.999999999999999e-08
1676104290.1438015,7322,1676104290,137595584,base_link,0.03324355330227848,0.07299711409390564,0.016648890245621967,-0.9966388981575307,1.0,0.0,0.0,0.0,1.0,0.0,0.0,0.0,1.0,0.0014897189103066921,0.00010780105367302884,-0.0009250223520211875,1.2184696791468346e-07,0.0,0.0,0.0,1.2184696791468346e-07,0.0,0.0,0.0,1.2184696791468346e-07,1.4543942213058472,-0.6343197226524341,9.674883842468262,8.999999999999999e-08,0.0,0.0,0.0,8.999999999999999e-08,0.0,0.0,0.0,8.999999999999999e-08
1676104290.1617036,7323,1676104290,157595584,base_link,0.03323983911125346,0.07299623427844297,0.016649691035743677,-0.9966391088917732,1.0,0.0,0.0,0.0,1.0,0.0,0.0,0.0,1.0,-0.002155967289581895,0.0018383165588602424,-8.723521023057424e-05,1.2184696791468346e-07,0.0,0.0,0.0,1.2184696791468346e-07,0.0,0.0,0.0,1.2184696791468346e-07,1.4360958337783813,-0.6298927068710315,9.680066108703613,8.999999999999999e-08,0.0,0.0,0.0,8.999999999999999e-08,0.0,0.0,0.0,8.999999999999999e-08
1676104290.187148,7324,1676104290,177595584,base_link,0.03324210845562797,0.07298923395032311,0.01665318922417004,-0.9966394882134099,1.0,0.0,0.0,0.0,1.0,0.0,0.0,0.0,1.0,0.00011486373841762543,0.0007782747270539404,0.0011654379777610302,1.2184696791468346e-07,0.0,0.0,0.0,1.2184696791468346e-07,0.0,0.0,0.0,1.2184696791468346e-07,1.4321234226226807,-0.6195582747459399,9.690958023071289,8.999999999999999e-08,0.0,0.0,0.0,8.999999999999999e-08,0.0,0.0,0.0,8.999999999999999e-08
1676104290.2025917,7325,1676104290,197595584,base_link,0.033247346518644465,0.07298925370665836,0.016648173749197276,-0.9966393617728644,1.0,0.0,0.0,0.0,1.0,0.0,0.0,0.0,1.0,0.002581306966021657,0.0003084547352045777,0.0022372989915311337,1.2184696791468346e-07,0.0,0.0,0.0,1.2184696791468346e-07,0.0,0.0,0.0,1.2184696791468346e-07,1.4490890502929688,-0.6310294866561877,9.682422637939453,8.999999999999999e-08,0.0,0.0,0.0,8.999999999999999e-08,0.0,0.0,0.0,8.999999999999999e-08
1676104290.2228234,7326,1676104290,217599936,base_link,0.033239305690201996,0.07298482960465373,0.016641388106586993,-0.996640078269289,1.0,0.0,0.0,0.0,1.0,0.0,0.0,0.0,1.0,0.0007040246855467558,0.0003444215981289744,-0.00022872084809932863,1.2184696791468346e-07,0.0,0.0,0.0,1.2184696791468346e-07,0.0,0.0,0.0,1.2184696791468346e-07,1.4469040632247925,-0.6314982175827014,9.674389839172363,8.999999999999999e-08,0.0,0.0,0.0,8.999999999999999e-08,0.0,0.0,0.0,8.999999999999999e-08
1676104290.2465122,7327,1676104290,242599936,base_link,0.033235526961815184,0.07299671106466675,0.016644928441861925,-0.9966393196260158,1.0,0.0,0.0,0.0,1.0,0.0,0.0,0.0,1.0,0.0016985083930194378,0.0002461477415636181,-0.0009744545677676797,1.2184696791468346e-07,0.0,0.0,0.0,1.2184696791468346e-07,0.0,0.0,0.0,1.2184696791468346e-07,1.450048565864563,-0.6235471963882434,9.682599067687988,8.999999999999999e-08,0.0,0.0,0.0,8.999999999999999e-08,0.0,0.0,0.0,8.999999999999999e-08
1676104290.2642295,7328,1676104290,256599936,base_link,0.033234676122310874,0.07300553819525175,0.01664606640677173,-0.9966386874232881,1.0,0.0,0.0,0.0,1.0,0.0,0.0,0.0,1.0,-0.0004742788150906563,-0.00011254067067056905,-0.0008684563217684627,1.2184696791468346e-07,0.0,0.0,0.0,1.2184696791468346e-07,0.0,0.0,0.0,1.2184696791468346e-07,1.4439829587936401,-0.5939177274703967,9.695075988769531,8.999999999999999e-08,0.0,0.0,0.0,8.999999999999999e-08,0.0,0.0,0.0,8.999999999999999e-08
1676104290.2839146,7329,1676104290,276599936,base_link,0.033239043589487816,0.07301180227061169,0.01664728866537855,-0.9966380552205605,1.0,0.0,0.0,0.0,1.0,0.0,0.0,0.0,1.0,0.0016593777108937502,0.0007371467072516681,0.0006719514494761824,1.2184696791468346e-07,0.0,0.0,0.0,1.2184696791468346e-07,0.0,0.0,0.0,1.2184696791468346e-07,1.4303536415100098,-0.6345615386962878,9.680153846740723,8.999999999999999e-08,0.0,0.0,0.0,8.999999999999999e-08,0.0,0.0,0.0,8.999999999999999e-08
1676104290.3040776,7330,1676104290,296599936,base_link,0.03324007882145437,0.07300687899187001,0.01665175623132072,-0.9966383081016515,1.0,0.0,0.0,0.0,1.0,0.0,0.0,0.0,1.0,0.0021167949307709932,-0.0008410307345911862,-0.0011186788324266672,1.2184696791468346e-07,0.0,0.0,0.0,1.2184696791468346e-07,0.0,0.0,0.0,1.2184696791468346e-07,1.448142170906067,-0.6186691522598254,9.666055679321289,8.999999999999999e-08,0.0,0.0,0.0,8.999999999999999e-08,0.0,0.0,0.0,8.999999999999999e-08
1676104290.3244014,7331,1676104290,317604032,base_link,0.03322766789165692,0.07301669789048404,0.016652852049381956,-0.9966379709268635,1.0,0.0,0.0,0.0,1.0,0.0,0.0,0.0,1.0,-0.0021329629234969616,-0.0009368954924866558,-0.0009908454958349464,1.2184696791468346e-07,0.0,0.0,0.0,1.2184696791468346e-07,0.0,0.0,0.0,1.2184696791468346e-07,1.453586220741272,-0.632408559322356,9.685094833374023,8.999999999999999e-08,0.0,0.0,0.0,8.999999999999999e-08,0.0,0.0,0.0,8.999999999999999e-08
1676104290.3427458,7332,1676104290,336604032,base_link,0.033232134140510065,0.0730253077013814,0.016651166175441514,-0.9966372122835903,1.0,0.0,0.0,0.0,1.0,0.0,0.0,0.0,1.0,-0.0025523260701447725,-0.0010480424389243126,0.00029695770354010176,1.2184696791468346e-07,0.0,0.0,0.0,1.2184696791468346e-07,0.0,0.0,0.0,1.2184696791468346e-07,1.4314830303192139,-0.6197556257247913,9.659224510192871,8.999999999999999e-08,0.0,0.0,0.0,8.999999999999999e-08,0.0,0.0,0.0,8.999999999999999e-08
1676104290.3634589,7333,1676104290,356604032,base_link,0.03323374230619855,0.07302800905095315,0.016653526398958136,-0.9966369594024992,1.0,0.0,0.0,0.0,1.0,0.0,0.0,0.0,1.0,0.001972275087609887,0.0011294815922155976,-1.4637131243944307e-05,1.2184696791468346e-07,0.0,0.0,0.0,1.2184696791468346e-07,0.0,0.0,0.0,1.2184696791468346e-07,1.443485975265503,-0.6315227746963489,9.670492172241211,8.999999999999999e-08,0.0,0.0,0.0,8.999999999999999e-08,0.0,0.0,0.0,8.999999999999999e-08
1676104290.3838155,7334,1676104290,376604032,base_link,0.03322739262005259,0.07303226193138569,0.016651334762835562,-0.9966368751088022,1.0,0.0,0.0,0.0,1.0,0.0,0.0,0.0,1.0,0.0023977376986294985,7.12506007403136e-05,0.0005374393658712506,1.2184696791468346e-07,0.0,0.0,0.0,1.2184696791468346e-07,0.0,0.0,0.0,1.2184696791468346e-07,1.4343549013137817,-0.6247630715370166,9.658035278320312,8.999999999999999e-08,0.0,0.0,0.0,8.999999999999999e-08,0.0,0.0,0.0,8.999999999999999e-08
1676104290.4050696,7335,1676104290,396604032,base_link,0.03322391155378339,0.0730277245597257,0.016655928769323265,-0.9966372544304387,1.0,0.0,0.0,0.0,1.0,0.0,0.0,0.0,1.0,-0.00027467147447168827,-0.0006638318300247193,-0.0006919213337823748,1.2184696791468346e-07,0.0,0.0,0.0,1.2184696791468346e-07,0.0,0.0,0.0,1.2184696791468346e-07,1.439862608909607,-0.633458614349364,9.658758163452148,8.999999999999999e-08,0.0,0.0,0.0,8.999999999999999e-08,0.0,0.0,0.0,8.999999999999999e-08
1676104290.4239063,7336,1676104290,416608640,base_link,0.03322555001251925,0.07303324052852456,0.016654664363867935,-0.9966368329619536,1.0,0.0,0.0,0.0,1.0,0.0,0.0,0.0,1.0,-0.0032177534885704517,-0.00017547170864418165,-0.001267280662432313,1.2184696791468346e-07,0.0,0.0,0.0,1.2184696791468346e-07,0.0,0.0,0.0,1.2184696791468346e-07,1.4401354789733887,-0.6255619525909412,9.68925666809082,8.999999999999999e-08,0.0,0.0,0.0,8.999999999999999e-08,0.0,0.0,0.0,8.999999999999999e-08
1676104290.442518,7337,1676104290,436608640,base_link,0.03323460631659303,0.07303301398921382,0.016658921195567552,-0.996636453640317,1.0,0.0,0.0,0.0,1.0,0.0,0.0,0.0,1.0,0.0005959465634077787,-0.0005813542520627379,0.00016003186465241023,1.2184696791468346e-07,0.0,0.0,0.0,1.2184696791468346e-07,0.0,0.0,0.0,1.2184696791468346e-07,1.4368137121200562,-0.6309546828269946,9.679389953613281,8.999999999999999e-08,0.0,0.0,0.0,8.999999999999999e-08,0.0,0.0,0.0,8.999999999999999e-08
1676104290.462763,7338,1676104290,456608640,base_link,0.03324063990137517,0.07303495669551235,0.016653442105261117,-0.996636200759226,1.0,0.0,0.0,0.0,1.0,0.0,0.0,0.0,1.0,0.0009377631358802319,-0.0014446256682276724,0.0009041855810210111,1.2184696791468346e-07,0.0,0.0,0.0,1.2184696791468346e-07,0.0,0.0,0.0,1.2184696791468346e-07,1.4467307329177856,-0.6531587839126575,9.674165725708008,8.999999999999999e-08,0.0,0.0,0.0,8.999999999999999e-08,0.0,0.0,0.0,8.999999999999999e-08
1676104290.4853528,7339,1676104290,482608640,base_link,0.03323765537766499,0.0730385734219502,0.016653821426897718,-0.9966359900249834,1.0,0.0,0.0,0.0,1.0,0.0,0.0,0.0,1.0,0.0019925313536077738,-0.0004612237098626793,-0.0002647066721692681,1.2184696791468346e-07,0.0,0.0,0.0,1.2184696791468346e-07,0.0,0.0,0.0,1.2184696791468346e-07,1.4369240999221802,-0.6473336815834033,9.696255683898926,8.999999999999999e-08,0.0,0.0,0.0,8.999999999999999e-08,0.0,0.0,0.0,8.999999999999999e-08
1676104290.506175,7340,1676104290,501608640,base_link,0.03323107651803024,0.07303656486120086,0.016661829328114816,-0.9966362429060746,1.0,0.0,0.0,0.0,1.0,0.0,0.0,0.0,1.0,0.0010947163682430983,0.001143120811320841,-0.0010286988690495493,1.2184696791468346e-07,0.0,0.0,0.0,1.2184696791468346e-07,0.0,0.0,0.0,1.2184696791468346e-07,1.456974744796753,-0.6330057978630054,9.657243728637695,8.999999999999999e-08,0.0,0.0,0.0,8.999999999999999e-08,0.0,0.0,0.0,8.999999999999999e-08
1676104290.5229297,7341,1676104290,516612992,base_link,0.03324178840299709,0.07304400773123007,0.016660859950599065,-0.9966353578222558,1.0,0.0,0.0,0.0,1.0,0.0,0.0,0.0,1.0,0.00043180910870432854,-6.305752322077737e-06,0.00011958743561990559,1.2184696791468346e-07,0.0,0.0,0.0,1.2184696791468346e-07,0.0,0.0,0.0,1.2184696791468346e-07,1.418282389640808,-0.6399028897285449,9.685617446899414,8.999999999999999e-08,0.0,0.0,0.0,8.999999999999999e-08,0.0,0.0,0.0,8.999999999999999e-08
1676104290.5451672,7342,1676104290,541612992,base_link,0.0332453945927228,0.07305193924128421,0.01665976413253778,-0.9966346834726796,1.0,0.0,0.0,0.0,1.0,0.0,0.0,0.0,1.0,-0.001895622001029551,0.0003812029026448727,0.00039892960921861226,1.2184696791468346e-07,0.0,0.0,0.0,1.2184696791468346e-07,0.0,0.0,0.0,1.2184696791468346e-07,1.4454971551895142,-0.6334280371665942,9.700400352478027,8.999999999999999e-08,0.0,0.0,0.0,8.999999999999999e-08,0.0,0.0,0.0,8.999999999999999e-08
1676104290.566092,7343,1676104290,561612992,base_link,0.03323661356025336,0.0730513109898236,0.016656055209868806,-0.9966351049411647,1.0,0.0,0.0,0.0,1.0,0.0,0.0,0.0,1.0,0.0017844210378825665,8.892850019037608e-06,-0.0009362765122205019,1.2184696791468346e-07,0.0,0.0,0.0,1.2184696791468346e-07,0.0,0.0,0.0,1.2184696791468346e-07,1.4371051788330078,-0.6255804896354663,9.695303916931152,8.999999999999999e-08,0.0,0.0,0.0,8.999999999999999e-08,0.0,0.0,0.0,8.999999999999999e-08
1676104290.582623,7344,1676104290,576612992,base_link,0.03323224872725445,0.07305519113406464,0.016652093406108768,-0.9966350206474677,1.0,0.0,0.0,0.0,1.0,0.0,0.0,0.0,1.0,0.0007947708945721388,0.0003328461898490787,0.0005738745676353574,1.2184696791468346e-07,0.0,0.0,0.0,1.2184696791468346e-07,0.0,0.0,0.0,1.2184696791468346e-07,1.4255082607269287,-0.6282571554183948,9.67931079864502,8.999999999999999e-08,0.0,0.0,0.0,8.999999999999999e-08,0.0,0.0,0.0,8.999999999999999e-08
1676104290.609765,7345,1676104290,601612992,base_link,0.033222544415384817,0.07305594977733783,0.016646698609499407,-0.9966353578222558,1.0,0.0,0.0,0.0,1.0,0.0,0.0,0.0,1.0,0.0014809323474764824,-0.00014311267295852304,2.9313523555174487e-05,1.2184696791468346e-07,0.0,0.0,0.0,1.2184696791468346e-07,0.0,0.0,0.0,1.2184696791468346e-07,1.4410203695297241,-0.6150809526443469,9.684005737304688,8.999999999999999e-08,0.0,0.0,0.0,8.999999999999999e-08,0.0,0.0,0.0,8.999999999999999e-08
1676104290.6266801,7346,1676104290,621617600,base_link,0.033229314252926884,0.07305137157591833,0.016650829000653435,-0.9966354421159528,1.0,0.0,0.0,0.0,1.0,0.0,0.0,0.0,1.0,-0.0017200972652062774,-0.00044318340951576834,-0.0005909204483032225,1.2184696791468346e-07,0.0,0.0,0.0,1.2184696791468346e-07,0.0,0.0,0.0,1.2184696791468346e-07,1.4535967111587524,-0.6414946913719165,9.689729690551758,8.999999999999999e-08,0.0,0.0,0.0,8.999999999999999e-08,0.0,0.0,0.0,8.999999999999999e-08
1676104290.6425478,7347,1676104290,636617600,base_link,0.03322541962070667,0.07304997677865042,0.016652430580896854,-0.9966356107033468,1.0,0.0,0.0,0.0,1.0,0.0,0.0,0.0,1.0,-0.001991896890103817,-0.001059875008650124,0.00021217422909103348,1.2184696791468346e-07,0.0,0.0,0.0,1.2184696791468346e-07,0.0,0.0,0.0,1.2184696791468346e-07,1.436639666557312,-0.6348797082900989,9.68083381652832,8.999999999999999e-08,0.0,0.0,0.0,8.999999999999999e-08,0.0,0.0,0.0,8.999999999999999e-08
1676104290.6633208,7348,1676104290,656617600,base_link,0.03323033367982523,0.07305629485466002,0.01665542300714114,-0.9966348942069221,1.0,0.0,0.0,0.0,1.0,0.0,0.0,0.0,1.0,-0.002149751177057624,-0.0006272101891227068,-0.0005687124212272464,1.2184696791468346e-07,0.0,0.0,0.0,1.2184696791468346e-07,0.0,0.0,0.0,1.2184696791468346e-07,1.431267499923706,-0.6191248893737781,9.6649169921875,8.999999999999999e-08,0.0,0.0,0.0,8.999999999999999e-08,0.0,0.0,0.0,8.999999999999999e-08
1676104290.6856596,7349,1676104290,681617600,base_link,0.03323304424902009,0.073055881288709,0.016648131602348782,-0.9966350206474677,1.0,0.0,0.0,0.0,1.0,0.0,0.0,0.0,1.0,0.0007854374125599861,-0.0011599165154621005,0.000611386843957007,1.2184696791468346e-07,0.0,0.0,0.0,1.2184696791468346e-07,0.0,0.0,0.0,1.2184696791468346e-07,1.4462636709213257,-0.6247741580009448,9.65847110748291,8.999999999999999e-08,0.0,0.0,0.0,8.999999999999999e-08,0.0,0.0,0.0,8.999999999999999e-08
1676104290.7020664,7350,1676104290,696617600,base_link,0.033238801245108876,0.0730530429618796,0.016651250469138547,-0.9966349363537707,1.0,0.0,0.0,0.0,1.0,0.0,0.0,0.0,1.0,0.0018176191952079535,0.0009190192213281989,0.0002586782502476125,1.2184696791468346e-07,0.0,0.0,0.0,1.2184696791468346e-07,0.0,0.0,0.0,1.2184696791468346e-07,1.4379595518112183,-0.6288594603538501,9.681916236877441,8.999999999999999e-08,0.0,0.0,0.0,8.999999999999999e-08,0.0,0.0,0.0,8.999999999999999e-08
1676104290.722822,7351,1676104290,716622208,base_link,0.03323161257325974,0.07304774562985739,0.01665546515398965,-0.9966355264096498,1.0,0.0,0.0,0.0,1.0,0.0,0.0,0.0,1.0,-0.0003193881129845977,-0.0020172016229480505,0.0010123832616955044,1.2184696791468346e-07,0.0,0.0,0.0,1.2184696791468346e-07,0.0,0.0,0.0,1.2184696791468346e-07,1.4419000148773193,-0.6255371570587146,9.678322792053223,8.999999999999999e-08,0.0,0.0,0.0,8.999999999999999e-08,0.0,0.0,0.0,8.999999999999999e-08
1676104290.7459755,7352,1676104290,741622208,base_link,0.033228142043702676,0.07305090005805062,0.016651208322290032,-0.9966354842628014,1.0,0.0,0.0,0.0,1.0,0.0,0.0,0.0,1.0,0.002796037821099162,-0.00013514870079234242,-9.66464285738766e-05,1.2184696791468346e-07,0.0,0.0,0.0,1.2184696791468346e-07,0.0,0.0,0.0,1.2184696791468346e-07,1.4448323249816895,-0.6383177638053882,9.65927791595459,8.999999999999999e-08,0.0,0.0,0.0,8.999999999999999e-08,0.0,0.0,0.0,8.999999999999999e-08
1676104290.7644594,7353,1676104290,756622208,base_link,0.033229760746103294,0.07305263203010662,0.01664939600780406,-0.9966353578222558,1.0,0.0,0.0,0.0,1.0,0.0,0.0,0.0,1.0,-0.0006755577633157372,0.0010025344090536237,0.00032690950320102264,1.2184696791468346e-07,0.0,0.0,0.0,1.2184696791468346e-07,0.0,0.0,0.0,1.2184696791468346e-07,1.443045735359192,-0.6319622993469226,9.681417465209961,8.999999999999999e-08,0.0,0.0,0.0,8.999999999999999e-08,0.0,0.0,0.0,8.999999999999999e-08
1676104290.7855334,7354,1676104290,781622208,base_link,0.03323182067332427,0.07304874925168754,0.016639955113737635,-0.9966356949970439,1.0,0.0,0.0,0.0,1.0,0.0,0.0,0.0,1.0,-0.0025442757178097963,-0.0019897448364645243,0.0004959609359502795,1.2184696791468346e-07,0.0,0.0,0.0,1.2184696791468346e-07,0.0,0.0,0.0,1.2184696791468346e-07,1.4389386177062988,-0.6308290362358081,9.689253807067871,8.999999999999999e-08,0.0,0.0,0.0,8.999999999999999e-08,0.0,0.0,0.0,8.999999999999999e-08
1676104290.8034453,7355,1676104290,796622208,base_link,0.033219532232805306,0.07304720298918281,0.01664265251204234,-0.996636200759226,1.0,0.0,0.0,0.0,1.0,0.0,0.0,0.0,1.0,0.0008275886066257954,-0.001231252565048635,-0.00028302898863330467,1.2184696791468346e-07,0.0,0.0,0.0,1.2184696791468346e-07,0.0,0.0,0.0,1.2184696791468346e-07,1.44798743724823,-0.6135291457176196,9.673982620239258,8.999999999999999e-08,0.0,0.0,0.0,8.999999999999999e-08,0.0,0.0,0.0,8.999999999999999e-08
1676104290.822526,7356,1676104290,816626816,base_link,0.03321833895015684,0.07304963960386235,0.016640039407434654,-0.996636116465529,1.0,0.0,0.0,0.0,1.0,0.0,0.0,0.0,1.0,-0.0009544580243527889,-0.0014160238206386566,0.0008409835863858464,1.2184696791468346e-07,0.0,0.0,0.0,1.2184696791468346e-07,0.0,0.0,0.0,1.2184696791468346e-07,1.4363888502120972,-0.6166440844535815,9.696866035461426,8.999999999999999e-08,0.0,0.0,0.0,8.999999999999999e-08,0.0,0.0,0.0,8.999999999999999e-08
1676104290.8463469,7357,1676104290,841626816,base_link,0.03321640678057042,0.0730427314719736,0.016634307436037204,-0.9966367065214081,1.0,0.0,0.0,0.0,1.0,0.0,0.0,0.0,1.0,0.0010591237805783749,0.0020941668190062046,-0.000816988409496844,1.2184696791468346e-07,0.0,0.0,0.0,1.2184696791468346e-07,0.0,0.0,0.0,1.2184696791468346e-07,1.453879952430725,-0.6296724081039416,9.683327674865723,8.999999999999999e-08,0.0,0.0,0.0,8.999999999999999e-08,0.0,0.0,0.0,8.999999999999999e-08
1676104290.8629818,7358,1676104290,856626816,base_link,0.03322678807619426,0.07304941964999667,0.01663439172973423,-0.9966359478781349,1.0,0.0,0.0,0.0,1.0,0.0,0.0,0.0,1.0,0.0020244864281266928,3.9219507016241584e-05,0.0002738159673754126,1.2184696791468346e-07,0.0,0.0,0.0,1.2184696791468346e-07,0.0,0.0,0.0,1.2184696791468346e-07,1.424961805343628,-0.6236612200736987,9.697503089904785,8.999999999999999e-08,0.0,0.0,0.0,8.999999999999999e-08,0.0,0.0,0.0,8.999999999999999e-08
1676104290.8852046,7359,1676104290,881626816,base_link,0.03322243246281846,0.07305797941151143,0.016632242240460168,-0.9966354842628014,1.0,0.0,0.0,0.0,1.0,0.0,0.0,0.0,1.0,-0.00020034518092870712,-0.0003722856054082512,0.0007072973530739546,1.2184696791468346e-07,0.0,0.0,0.0,1.2184696791468346e-07,0.0,0.0,0.0,1.2184696791468346e-07,1.4426252841949463,-0.6148539781570422,9.68188190460205,8.999999999999999e-08,0.0,0.0,0.0,8.999999999999999e-08,0.0,0.0,0.0,8.999999999999999e-08
1676104290.9025,7360,1676104290,896626816,base_link,0.03321213019253558,0.07305395175330061,0.016634602463976786,-0.9966360743186805,1.0,0.0,0.0,0.0,1.0,0.0,0.0,0.0,1.0,-0.001662763999775052,-0.00030527234775945555,-0.0007348186336457729,1.2184696791468346e-07,0.0,0.0,0.0,1.2184696791468346e-07,0.0,0.0,0.0,1.2184696791468346e-07,1.4394662380218506,-0.6331992149353015,9.685711860656738,8.999999999999999e-08,0.0,0.0,0.0,8.999999999999999e-08,0.0,0.0,0.0,8.999999999999999e-08
1676104290.9242277,7361,1676104290,916631424,base_link,0.0332193834017465,0.07305413746285186,0.016633338058521453,-0.9966358214375894,1.0,0.0,0.0,0.0,1.0,0.0,0.0,0.0,1.0,-0.0006751380860805511,0.0008718392346054317,0.00046628384734503914,1.2184696791468346e-07,0.0,0.0,0.0,1.2184696791468346e-07,0.0,0.0,0.0,1.2184696791468346e-07,1.4633855819702148,-0.6382250189781177,9.680495262145996,8.999999999999999e-08,0.0,0.0,0.0,8.999999999999999e-08,0.0,0.0,0.0,8.999999999999999e-08
1676104290.944734,7362,1676104290,941631424,base_link,0.03322036990141946,0.07305131757526868,0.016632031506217608,-0.9966360321718319,1.0,0.0,0.0,0.0,1.0,0.0,0.0,0.0,1.0,-0.001072161947377026,0.0006226564291864632,-0.0005894100759178401,1.2184696791468346e-07,0.0,0.0,0.0,1.2184696791468346e-07,0.0,0.0,0.0,1.2184696791468346e-07,1.4400376081466675,-0.6450203657150256,9.676801681518555,8.999999999999999e-08,0.0,0.0,0.0,8.999999999999999e-08,0.0,0.0,0.0,8.999999999999999e-08
1676104290.9617004,7363,1676104290,956631424,base_link,0.033214369243862715,0.07304894154668388,0.01662983987009503,-0.996636453640317,1.0,0.0,0.0,0.0,1.0,0.0,0.0,0.0,1.0,0.0029743092600256205,-0.0003206333494745193,0.0018560774624347687,1.2184696791468346e-07,0.0,0.0,0.0,1.2184696791468346e-07,0.0,0.0,0.0,1.2184696791468346e-07,1.4261133670806885,-0.6285393238067615,9.663348197937012,8.999999999999999e-08,0.0,0.0,0.0,8.999999999999999e-08,0.0,0.0,0.0,8.999999999999999e-08
1676104290.9827857,7364,1676104290,976631424,base_link,0.03320985031144894,0.07305204855967254,0.016633970261249117,-0.996636285052923,1.0,0.0,0.0,0.0,1.0,0.0,0.0,0.0,1.0,-0.001993307378143072,0.000767648103646934,-0.00041057076305150997,1.2184696791468346e-07,0.0,0.0,0.0,1.2184696791468346e-07,0.0,0.0,0.0,1.2184696791468346e-07,1.4364020824432373,-0.6306078433990466,9.662205696105957,8.999999999999999e-08,0.0,0.0,0.0,8.999999999999999e-08,0.0,0.0,0.0,8.999999999999999e-08
1676104291.009797,7365,1676104291,1631424,base_link,0.03321930305931653,0.07305383848364524,0.016631567890883988,-0.9966359057312865,1.0,0.0,0.0,0.0,1.0,0.0,0.0,0.0,1.0,0.002236907137557864,0.00025567959528416406,0.0007983840769156814,1.2184696791468346e-07,0.0,0.0,0.0,1.2184696791468346e-07,0.0,0.0,0.0,1.2184696791468346e-07,1.4481604099273682,-0.6275012493133533,9.652373313903809,8.999999999999999e-08,0.0,0.0,0.0,8.999999999999999e-08,0.0,0.0,0.0,8.999999999999999e-08
1676104291.0216472,7366,1676104291,16635776,base_link,0.033226456169762233,0.0730562527078115,0.0166308513944593,-0.9966354421159528,1.0,0.0,0.0,0.0,1.0,0.0,0.0,0.0,1.0,0.002361074322834611,0.002017159480601549,0.0006215332541614769,1.2184696791468346e-07,0.0,0.0,0.0,1.2184696791468346e-07,0.0,0.0,0.0,1.2184696791468346e-07,1.4508590698242188,-0.6342455148696887,9.674304962158203,8.999999999999999e-08,0.0,0.0,0.0,8.999999999999999e-08,0.0,0.0,0.0,8.999999999999999e-08
1676104291.043526,7367,1676104291,36635776,base_link,0.03322018155769017,0.07305436136798457,0.016630261338580147,-0.9966358635844379,1.0,0.0,0.0,0.0,1.0,0.0,0.0,0.0,1.0,0.0021644083317369223,-7.043662481009959e-05,9.713039617054166e-05,1.2184696791468346e-07,0.0,0.0,0.0,1.2184696791468346e-07,0.0,0.0,0.0,1.2184696791468346e-07,1.4575796127319336,-0.6162890195846545,9.679203033447266,8.999999999999999e-08,0.0,0.0,0.0,8.999999999999999e-08,0.0,0.0,0.0,8.999999999999999e-08
1676104291.0613356,7368,1676104291,56635776,base_link,0.03321366723541721,0.07305090796058472,0.016626678856456703,-0.9966363271997715,1.0,0.0,0.0,0.0,1.0,0.0,0.0,0.0,1.0,-0.0024354064371436834,8.857285138219587e-05,-0.0006419307319447398,1.2184696791468346e-07,0.0,0.0,0.0,1.2184696791468346e-07,0.0,0.0,0.0,1.2184696791468346e-07,1.4530822038650513,-0.6475495696067798,9.657203674316406,8.999999999999999e-08,0.0,0.0,0.0,8.999999999999999e-08,0.0,0.0,0.0,8.999999999999999e-08
1676104291.082304,7369,1676104291,76635776,base_link,0.03322186479745258,0.0730526465180858,0.016629376254761415,-0.9966359057312864,1.0,0.0,0.0,0.0,1.0,0.0,0.0,0.0,1.0,-0.0005722973728552461,-0.0015428292099386451,0.0016108623240143063,1.2184696791468346e-07,0.0,0.0,0.0,1.2184696791468346e-07,0.0,0.0,0.0,1.2184696791468346e-07,1.4435882568359375,-0.6243651509284961,9.663926124572754,8.999999999999999e-08,0.0,0.0,0.0,8.999999999999999e-08,0.0,0.0,0.0,8.999999999999999e-08
1676104291.103284,7370,1676104291,96635776,base_link,0.03322741632765487,0.07305544006388866,0.01662355998966689,-0.9966356528501954,1.0,0.0,0.0,0.0,1.0,0.0,0.0,0.0,1.0,0.0015648719854652882,0.001204472384415567,8.257824811153099e-05,1.2184696791468346e-07,0.0,0.0,0.0,1.2184696791468346e-07,0.0,0.0,0.0,1.2184696791468346e-07,1.4273123741149902,-0.6256135702133166,9.68172550201416,8.999999999999999e-08,0.0,0.0,0.0,8.999999999999999e-08,0.0,0.0,0.0,8.999999999999999e-08
1676104291.1246514,7371,1676104291,121639872,base_link,0.03322754540237844,0.0730526557377089,0.01662060971027117,-0.9966359057312865,1.0,0.0,0.0,0.0,1.0,0.0,0.0,0.0,1.0,-0.001872682711109519,0.00010797346476465477,0.0011581367580220103,1.2184696791468346e-07,0.0,0.0,0.0,1.2184696791468346e-07,0.0,0.0,0.0,1.2184696791468346e-07,1.4363561868667603,-0.6260026693344104,9.667269706726074,8.999999999999999e-08,0.0,0.0,0.0,8.999999999999999e-08,0.0,0.0,0.0,8.999999999999999e-08
1676104291.1448069,7372,1676104291,141639872,base_link,0.03321569818667983,0.07305272290924872,0.016619471745361367,-0.996636285052923,1.0,0.0,0.0,0.0,1.0,0.0,0.0,0.0,1.0,0.0007945236284285784,-0.0005229619564488532,-0.0015006405301392078,1.2184696791468346e-07,0.0,0.0,0.0,1.2184696791468346e-07,0.0,0.0,0.0,1.2184696791468346e-07,1.462343692779541,-0.6300659775733936,9.67218017578125,8.999999999999999e-08,0.0,0.0,0.0,8.999999999999999e-08,0.0,0.0,0.0,8.999999999999999e-08
1676104291.1622388,7373,1676104291,156639872,base_link,0.0332131298630987,0.07305151908988812,0.016623728577060928,-0.9966364114934685,1.0,0.0,0.0,0.0,1.0,0.0,0.0,0.0,1.0,-0.0012049453798681498,0.0006320540560409427,0.0003881262673530727,1.2184696791468346e-07,0.0,0.0,0.0,1.2184696791468346e-07,0.0,0.0,0.0,1.2184696791468346e-07,1.4345293045043945,-0.6290034055709827,9.675368309020996,8.999999999999999e-08,0.0,0.0,0.0,8.999999999999999e-08,0.0,0.0,0.0,8.999999999999999e-08
1676104291.1837494,7374,1676104291,176639872,base_link,0.03321481178577208,0.07305256617565582,0.016621284059847342,-0.9966363271997716,1.0,0.0,0.0,0.0,1.0,0.0,0.0,0.0,1.0,0.0016561008524149656,0.0008553540101274849,0.0006271270103752612,1.2184696791468346e-07,0.0,0.0,0.0,1.2184696791468346e-07,0.0,0.0,0.0,1.2184696791468346e-07,1.4320522546768188,-0.6311419606208789,9.687259674072266,8.999999999999999e-08,0.0,0.0,0.0,8.999999999999999e-08,0.0,0.0,0.0,8.999999999999999e-08
1676104291.2079597,7375,1676104291,201639872,base_link,0.033219062032026604,0.07305453258955666,0.01662204270312049,-0.9966359900249835,1.0,0.0,0.0,0.0,1.0,0.0,0.0,0.0,1.0,-0.00332877435721457,0.0002473209751769902,0.0014180324506014585,1.2184696791468346e-07,0.0,0.0,0.0,1.2184696791468346e-07,0.0,0.0,0.0,1.2184696791468346e-07,1.4314078092575073,-0.6466488838195789,9.672239303588867,8.999999999999999e-08,0.0,0.0,0.0,8.999999999999999e-08,0.0,0.0,0.0,8.999999999999999e-08
1676104291.222861,7376,1676104291,216644480,base_link,0.03321222765712276,0.07305933337901985,0.016611084522507667,-0.9966360743186804,1.0,0.0,0.0,0.0,1.0,0.0,0.0,0.0,1.0,-0.0003210941795259714,-0.0009753984049893916,0.00033570404048077773,1.2184696791468346e-07,0.0,0.0,0.0,1.2184696791468346e-07,0.0,0.0,0.0,1.2184696791468346e-07,1.4316484928131104,-0.6304975748062122,9.67268180847168,8.999999999999999e-08,0.0,0.0,0.0,8.999999999999999e-08,0.0,0.0,0.0,8.999999999999999e-08
1676104291.244444,7377,1676104291,236644480,base_link,0.0332162566324226,0.07306211111975452,0.01661188531262938,-0.9966356949970439,1.0,0.0,0.0,0.0,1.0,0.0,0.0,0.0,1.0,-0.0018185288645327091,0.0006223624804988503,-0.00042395992204546934,1.2184696791468346e-07,0.0,0.0,0.0,1.2184696791468346e-07,0.0,0.0,0.0,1.2184696791468346e-07,1.4164198637008667,-0.6277456283569324,9.682955741882324,8.999999999999999e-08,0.0,0.0,0.0,8.999999999999999e-08,0.0,0.0,0.0,8.999999999999999e-08
1676104291.2636573,7378,1676104291,261644480,base_link,0.03321346045244171,0.0730655500391752,0.01661264395590258,-0.9966355264096498,1.0,0.0,0.0,0.0,1.0,0.0,0.0,0.0,1.0,0.000861473148688674,-0.001414122059941292,-0.001116283470764756,1.2184696791468346e-07,0.0,0.0,0.0,1.2184696791468346e-07,0.0,0.0,0.0,1.2184696791468346e-07,1.4424206018447876,-0.6359612941741931,9.673463821411133,8.999999999999999e-08,0.0,0.0,0.0,8.999999999999999e-08,0.0,0.0,0.0,8.999999999999999e-08
1676104291.282727,7379,1676104291,276644480,base_link,0.03321985887088126,0.0730723646577438,0.016613866214509405,-0.9966348099132251,1.0,0.0,0.0,0.0,1.0,0.0,0.0,0.0,1.0,0.002159523544833064,0.00017996877431869512,0.0004768560465890914,1.2184696791468346e-07,0.0,0.0,0.0,1.2184696791468346e-07,0.0,0.0,0.0,1.2184696791468346e-07,1.459128737449646,-0.6513335108757007,9.678071022033691,8.999999999999999e-08,0.0,0.0,0.0,8.999999999999999e-08,0.0,0.0,0.0,8.999999999999999e-08
1676104291.304426,7380,1676104291,301644480,base_link,0.033221601379649385,0.07306605975262438,0.016608724298991052,-0.9966353156754073,1.0,0.0,0.0,0.0,1.0,0.0,0.0,0.0,1.0,0.0007664947770535946,0.00012289953883737337,0.0009229016723111272,1.2184696791468346e-07,0.0,0.0,0.0,1.2184696791468346e-07,0.0,0.0,0.0,1.2184696791468346e-07,1.4437466859817505,-0.6366345286369312,9.676575660705566,8.999999999999999e-08,0.0,0.0,0.0,8.999999999999999e-08,0.0,0.0,0.0,8.999999999999999e-08
1676104291.3221807,7381,1676104291,316648832,base_link,0.03321980223605358,0.07306935510934233,0.01660358238347276,-0.9966352313817103,1.0,0.0,0.0,0.0,1.0,0.0,0.0,0.0,1.0,-0.0013896897435188293,0.0001284414902329445,-0.00010365506750531496,1.2184696791468346e-07,0.0,0.0,0.0,1.2184696791468346e-07,0.0,0.0,0.0,1.2184696791468346e-07,1.460403561592102,-0.6158015131950366,9.684048652648926,8.999999999999999e-08,0.0,0.0,0.0,8.999999999999999e-08,0.0,0.0,0.0,8.999999999999999e-08
1676104291.3447866,7382,1676104291,340648832,base_link,0.03322483483318358,0.07307480654077941,0.01660231797801743,-0.9966346413258311,1.0,0.0,0.0,0.0,1.0,0.0,0.0,0.0,1.0,0.0010075985919684172,-6.571877747774123e-05,0.00013557568308897316,1.2184696791468346e-07,0.0,0.0,0.0,1.2184696791468346e-07,0.0,0.0,0.0,1.2184696791468346e-07,1.432665228843689,-0.6233629584312427,9.692463874816895,8.999999999999999e-08,0.0,0.0,0.0,8.999999999999999e-08,0.0,0.0,0.0,8.999999999999999e-08
1676104291.3619986,7383,1676104291,355648832,base_link,0.03322767184292397,0.07307840746214905,0.016602444418562963,-0.9966342620041945,1.0,0.0,0.0,0.0,1.0,0.0,0.0,0.0,1.0,0.000948428176343441,0.002299840562045574,-0.00043810255010612336,1.2184696791468346e-07,0.0,0.0,0.0,1.2184696791468346e-07,0.0,0.0,0.0,1.2184696791468346e-07,1.4205842018127441,-0.6400347352027881,9.673728942871094,8.999999999999999e-08,0.0,0.0,0.0,8.999999999999999e-08,0.0,0.0,0.0,8.999999999999999e-08
1676104291.3832917,7384,1676104291,375648832,base_link,0.03322182133351505,0.07306967516197321,0.01660324520868467,-0.9966350627943162,1.0,0.0,0.0,0.0,1.0,0.0,0.0,0.0,1.0,-0.0006607142277061939,-0.0016897858586162329,0.0007115795742720368,1.2184696791468346e-07,0.0,0.0,0.0,1.2184696791468346e-07,0.0,0.0,0.0,1.2184696791468346e-07,1.444113850593567,-0.6207781434059131,9.679312705993652,8.999999999999999e-08,0.0,0.0,0.0,8.999999999999999e-08,0.0,0.0,0.0,8.999999999999999e-08
1676104291.407312,7385,1676104291,400648832,base_link,0.03322557767138858,0.07307537025487824,0.016602233684320407,-0.9966345570321341,1.0,0.0,0.0,0.0,1.0,0.0,0.0,0.0,1.0,0.002338825026527047,1.6202800907194655e-05,0.00034013009280897677,1.2184696791468346e-07,0.0,0.0,0.0,1.2184696791468346e-07,0.0,0.0,0.0,1.2184696791468346e-07,1.4304753541946411,-0.6379314661025989,9.680840492248535,8.999999999999999e-08,0.0,0.0,0.0,8.999999999999999e-08,0.0,0.0,0.0,8.999999999999999e-08
1676104291.4220061,7386,1676104291,415653440,base_link,0.03323198794362929,0.07307951776818952,0.016605015376322137,-0.996634051269952,1.0,0.0,0.0,0.0,1.0,0.0,0.0,0.0,1.0,-0.0009311664616689086,-0.0006734233465977013,0.00014653734979219743,1.2184696791468346e-07,0.0,0.0,0.0,1.2184696791468346e-07,0.0,0.0,0.0,1.2184696791468346e-07,1.445357322692871,-0.6219496726989734,9.675679206848145,8.999999999999999e-08,0.0,0.0,0.0,8.999999999999999e-08,0.0,0.0,0.0,8.999999999999999e-08
1676104291.4444046,7387,1676104291,440653440,base_link,0.033237314251609855,0.07308678283120158,0.01660712271874764,-0.9966332926266788,1.0,0.0,0.0,0.0,1.0,0.0,0.0,0.0,1.0,-0.0022266018204391003,0.000383556354790926,0.0001677282562013715,1.2184696791468346e-07,0.0,0.0,0.0,1.2184696791468346e-07,0.0,0.0,0.0,1.2184696791468346e-07,1.4395091533660889,-0.6477736830711353,9.67951488494873,8.999999999999999e-08,0.0,0.0,0.0,8.999999999999999e-08,0.0,0.0,0.0,8.999999999999999e-08
1676104291.4643397,7388,1676104291,460653440,base_link,0.03323577984290626,0.07308360732958409,0.0166018122158353,-0.9966336298014669,1.0,0.0,0.0,0.0,1.0,0.0,0.0,0.0,1.0,0.0012519259471446276,0.0018064392497763038,0.0008801162475720046,1.2184696791468346e-07,0.0,0.0,0.0,1.2184696791468346e-07,0.0,0.0,0.0,1.2184696791468346e-07,1.4396846294403076,-0.6295685768127429,9.679179191589355,8.999999999999999e-08,0.0,0.0,0.0,8.999999999999999e-08,0.0,0.0,0.0,8.999999999999999e-08
1676104291.4824383,7389,1676104291,475653440,base_link,0.03322932347254999,0.073087229324378,0.016608808592688082,-0.9966334612140728,1.0,0.0,0.0,0.0,1.0,0.0,0.0,0.0,1.0,-0.0031579406931996346,-0.001820602104999125,0.0006062535103410485,1.2184696791468346e-07,0.0,0.0,0.0,1.2184696791468346e-07,0.0,0.0,0.0,1.2184696791468346e-07,1.439139485359192,-0.6556943058967578,9.695406913757324,8.999999999999999e-08,0.0,0.0,0.0,8.999999999999999e-08,0.0,0.0,0.0,8.999999999999999e-08
1676104291.5075939,7390,1676104291,501653440,base_link,0.033230282313353614,0.07308955793775822,0.016604383173594476,-0.9966333347735272,1.0,0.0,0.0,0.0,1.0,0.0,0.0,0.0,1.0,0.0003872206434607506,8.175265975296507e-05,0.0007214416982606053,1.2184696791468346e-07,0.0,0.0,0.0,1.2184696791468346e-07,0.0,0.0,0.0,1.2184696791468346e-07,1.4536782503128052,-0.6413519382476794,9.676078796386719,8.999999999999999e-08,0.0,0.0,0.0,8.999999999999999e-08,0.0,0.0,0.0,8.999999999999999e-08
1676104291.5227256,7391,1676104291,515658048,base_link,0.033241912209364594,0.07309161523080115,0.016603919558260856,-0.9966327868644966,1.0,0.0,0.0,0.0,1.0,0.0,0.0,0.0,1.0,0.0031158418860286474,0.0015365219442173839,5.068295286037009e-05,1.2184696791468346e-07,0.0,0.0,0.0,1.2184696791468346e-07,0.0,0.0,0.0,1.2184696791468346e-07,1.447116732597351,-0.6184047460556018,9.662459373474121,8.999999999999999e-08,0.0,0.0,0.0,8.999999999999999e-08,0.0,0.0,0.0,8.999999999999999e-08
1676104291.5464256,7392,1676104291,540658048,base_link,0.03323484866097197,0.07309266231656886,0.016601390747350193,-0.9966330397455877,1.0,0.0,0.0,0.0,1.0,0.0,0.0,0.0,1.0,-0.0019503039075061679,0.0008318651234731078,-0.0003768648602999748,1.2184696791468346e-07,0.0,0.0,0.0,1.2184696791468346e-07,0.0,0.0,0.0,1.2184696791468346e-07,1.4401077032089233,-0.6405371427535999,9.69511604309082,8.999999999999999e-08,0.0,0.0,0.0,8.999999999999999e-08,0.0,0.0,0.0,8.999999999999999e-08
1676104291.5615525,7393,1676104291,555658048,base_link,0.03322751379224205,0.07309051414438382,0.016600337076137412,-0.9966334190672242,1.0,0.0,0.0,0.0,1.0,0.0,0.0,0.0,1.0,-0.002904413966462016,0.000316714053042233,-0.00013879817561246457,1.2184696791468346e-07,0.0,0.0,0.0,1.2184696791468346e-07,0.0,0.0,0.0,1.2184696791468346e-07,1.4417883157730103,-0.6427572965621936,9.682289123535156,8.999999999999999e-08,0.0,0.0,0.0,8.999999999999999e-08,0.0,0.0,0.0,8.999999999999999e-08
1676104291.5836623,7394,1676104291,580658048,base_link,0.033234122944924165,0.07309137552060026,0.016598103293166327,-0.9966332083329817,1.0,0.0,0.0,0.0,1.0,0.0,0.0,0.0,1.0,0.001779115991666913,0.0008432593895122409,0.00028215968632139255,1.2184696791468346e-07,0.0,0.0,0.0,1.2184696791468346e-07,0.0,0.0,0.0,1.2184696791468346e-07,1.4405401945114136,-0.6145915389060962,9.68354320526123,8.999999999999999e-08,0.0,0.0,0.0,8.999999999999999e-08,0.0,0.0,0.0,8.999999999999999e-08
1676104291.606441,7395,1676104291,600658048,base_link,0.03324583713463217,0.07309711012617577,0.016593509286678625,-0.996632491836557,1.0,0.0,0.0,0.0,1.0,0.0,0.0,0.0,1.0,-0.0027209261897951365,-0.0007459917105734348,-5.123787559568873e-05,1.2184696791468346e-07,0.0,0.0,0.0,1.2184696791468346e-07,0.0,0.0,0.0,1.2184696791468346e-07,1.4477133750915527,-0.6459727287292468,9.663993835449219,8.999999999999999e-08,0.0,0.0,0.0,8.999999999999999e-08,0.0,0.0,0.0,8.999999999999999e-08
1676104291.62174,7396,1676104291,615662656,base_link,0.033238233579742996,0.07310084670771407,0.016591907706435205,-0.996632491836557,1.0,0.0,0.0,0.0,1.0,0.0,0.0,0.0,1.0,0.00022969325073063374,9.3264621682465e-05,-0.0007003526552580297,1.2184696791468346e-07,0.0,0.0,0.0,1.2184696791468346e-07,0.0,0.0,0.0,1.2184696791468346e-07,1.4581458568572998,-0.6450555324554431,9.693292617797852,8.999999999999999e-08,0.0,0.0,0.0,8.999999999999999e-08,0.0,0.0,0.0,8.999999999999999e-08
1676104291.6442652,7397,1676104291,640662656,base_link,0.03323646736337259,0.07310203340491744,0.01659013753879774,-0.996632491836557,1.0,0.0,0.0,0.0,1.0,0.0,0.0,0.0,1.0,0.0021906786132603884,0.000807769363746047,-0.0003204536042176188,1.2184696791468346e-07,0.0,0.0,0.0,1.2184696791468346e-07,0.0,0.0,0.0,1.2184696791468346e-07,1.4307724237442017,-0.658412694931029,9.681246757507324,8.999999999999999e-08,0.0,0.0,0.0,8.999999999999999e-08,0.0,0.0,0.0,8.999999999999999e-08
1676104291.6645284,7398,1676104291,660662656,base_link,0.03323885129449149,0.07310361127755857,0.016590053245100718,-0.996632323249163,1.0,0.0,0.0,0.0,1.0,0.0,0.0,0.0,1.0,0.0011972945649176836,0.0003691985039040448,0.0011830575531348586,1.2184696791468346e-07,0.0,0.0,0.0,1.2184696791468346e-07,0.0,0.0,0.0,1.2184696791468346e-07,1.4439592361450195,-0.6078933477401721,9.66850757598877,8.999999999999999e-08,0.0,0.0,0.0,8.999999999999999e-08,0.0,0.0,0.0,8.999999999999999e-08
1676104291.6821578,7399,1676104291,675662656,base_link,0.033246482508249985,0.0731084555309593,0.016590179685646255,-0.9966316067527383,1.0,0.0,0.0,0.0,1.0,0.0,0.0,0.0,1.0,0.0030302784871309996,0.00036040414124727255,0.0005027037113904953,1.2184696791468346e-07,0.0,0.0,0.0,1.2184696791468346e-07,0.0,0.0,0.0,1.2184696791468346e-07,1.4606231451034546,-0.6431652903556812,9.679088592529297,8.999999999999999e-08,0.0,0.0,0.0,8.999999999999999e-08,0.0,0.0,0.0,8.999999999999999e-08
1676104291.7034233,7400,1676104291,700662656,base_link,0.033244429166474104,0.07311380686363116,0.016588367371160335,-0.9966313960184957,1.0,0.0,0.0,0.0,1.0,0.0,0.0,0.0,1.0,-0.001907252473756671,-0.001532221329398453,0.0020769708789885044,1.2184696791468346e-07,0.0,0.0,0.0,1.2184696791468346e-07,0.0,0.0,0.0,1.2184696791468346e-07,1.4492851495742798,-0.6186574101448047,9.683418273925781,8.999999999999999e-08,0.0,0.0,0.0,8.999999999999999e-08,0.0,0.0,0.0,8.999999999999999e-08
1676104291.7238092,7401,1676104291,720667264,base_link,0.03324512327238551,0.0731193294178751,0.016592582056011388,-0.9966308902563136,1.0,0.0,0.0,0.0,1.0,0.0,0.0,0.0,1.0,-0.00025132426526397467,-2.1206564269960008e-05,-0.0006706531858071685,1.2184696791468346e-07,0.0,0.0,0.0,1.2184696791468346e-07,0.0,0.0,0.0,1.2184696791468346e-07,1.4594844579696655,-0.6381006240844714,9.680230140686035,8.999999999999999e-08,0.0,0.0,0.0,8.999999999999999e-08,0.0,0.0,0.0,8.999999999999999e-08
1676104291.7449672,7402,1676104291,735667264,base_link,0.03324977786496794,0.07311697182853653,0.016598440467954428,-0.9966307638157681,1.0,0.0,0.0,0.0,1.0,0.0,0.0,0.0,1.0,-0.001562048913910985,-0.00012644805246964083,0.0010164231061935425,1.2184696791468346e-07,0.0,0.0,0.0,1.2184696791468346e-07,0.0,0.0,0.0,1.2184696791468346e-07,1.4357860088348389,-0.63936549425125,9.67570686340332,8.999999999999999e-08,0.0,0.0,0.0,8.999999999999999e-08,0.0,0.0,0.0,8.999999999999999e-08
1676104291.7631593,7403,1676104291,760667264,base_link,0.03324894678179886,0.07312512592663437,0.016604425320442946,-0.9966300894661919,1.0,0.0,0.0,0.0,1.0,0.0,0.0,0.0,1.0,-0.00010633456986397505,-0.001765677006915212,-0.001486781286075711,1.2184696791468346e-07,0.0,0.0,0.0,1.2184696791468346e-07,0.0,0.0,0.0,1.2184696791468346e-07,1.4401826858520508,-0.6384835839271533,9.681142807006836,8.999999999999999e-08,0.0,0.0,0.0,8.999999999999999e-08,0.0,0.0,0.0,8.999999999999999e-08
1676104291.7823308,7404,1676104291,775667264,base_link,0.03324387335490936,0.07312411967062617,0.016607038425050628,-0.996630342347283,1.0,0.0,0.0,0.0,1.0,0.0,0.0,0.0,1.0,0.002014118479564786,0.0010386629728600385,0.0013685084413737056,1.2184696791468346e-07,0.0,0.0,0.0,1.2184696791468346e-07,0.0,0.0,0.0,1.2184696791468346e-07,1.4411790370941162,-0.6245857477188098,9.67834758758545,8.999999999999999e-08,0.0,0.0,0.0,8.999999999999999e-08,0.0,0.0,0.0,8.999999999999999e-08
1676104291.804363,7405,1676104291,795667264,base_link,0.03323888158753885,0.07312164090909813,0.016606574809717008,-0.9966306373752225,1.0,0.0,0.0,0.0,1.0,0.0,0.0,0.0,1.0,-0.0009040649747475982,-0.00014420831575989704,0.0015668636187911034,1.2184696791468346e-07,0.0,0.0,0.0,1.2184696791468346e-07,0.0,0.0,0.0,1.2184696791468346e-07,1.4218131303787231,-0.615615129470824,9.665912628173828,8.999999999999999e-08,0.0,0.0,0.0,8.999999999999999e-08,0.0,0.0,0.0,8.999999999999999e-08
1676104291.8230286,7406,1676104291,820671872,base_link,0.033234419289952764,0.07312669326256337,0.0166027394465025,-0.996630510934677,1.0,0.0,0.0,0.0,1.0,0.0,0.0,0.0,1.0,0.0029908076394349337,-0.0016549827996641397,-0.0003248479333706198,1.2184696791468346e-07,0.0,0.0,0.0,1.2184696791468346e-07,0.0,0.0,0.0,1.2184696791468346e-07,1.438545823097229,-0.6321597099304187,9.69489574432373,8.999999999999999e-08,0.0,0.0,0.0,8.999999999999999e-08,0.0,0.0,0.0,8.999999999999999e-08
1676104291.8455768,7407,1676104291,840671872,base_link,0.03323796489358374,0.07313145058808904,0.01660341379607868,-0.9966300051724949,1.0,0.0,0.0,0.0,1.0,0.0,0.0,0.0,1.0,-9.294971823692322e-05,1.3782642781734406e-05,-0.000494192005135119,1.2184696791468346e-07,0.0,0.0,0.0,1.2184696791468346e-07,0.0,0.0,0.0,1.2184696791468346e-07,1.4310675859451294,-0.6223822236061084,9.67884349822998,8.999999999999999e-08,0.0,0.0,0.0,8.999999999999999e-08,0.0,0.0,0.0,8.999999999999999e-08
1676104291.8617976,7408,1676104291,855671872,base_link,0.03324324642053776,0.07313535707411038,0.01659924125807614,-0.9966296258508583,1.0,0.0,0.0,0.0,1.0,0.0,0.0,0.0,1.0,0.0009941994212567806,0.0001648099860176445,0.0005701720947399735,1.2184696791468346e-07,0.0,0.0,0.0,1.2184696791468346e-07,0.0,0.0,0.0,1.2184696791468346e-07,1.4547507762908936,-0.6407120823860156,9.69198989868164,8.999999999999999e-08,0.0,0.0,0.0,8.999999999999999e-08,0.0,0.0,0.0,8.999999999999999e-08
1676104291.8834417,7409,1676104291,880671872,base_link,0.033245393275633785,0.07313637123265268,0.016600589957228497,-0.9966294572634643,1.0,0.0,0.0,0.0,1.0,0.0,0.0,0.0,1.0,0.0007522820960730314,-7.327063940465386e-06,0.0005256948061287403,1.2184696791468346e-07,0.0,0.0,0.0,1.2184696791468346e-07,0.0,0.0,0.0,1.2184696791468346e-07,1.4212408065795898,-0.6175620555877673,9.672199249267578,8.999999999999999e-08,0.0,0.0,0.0,8.999999999999999e-08,0.0,0.0,0.0,8.999999999999999e-08
1676104291.9054644,7410,1676104291,900671872,base_link,0.03323720888448858,0.07314271169917554,0.01659822973371188,-0.9966292886760703,1.0,0.0,0.0,0.0,1.0,0.0,0.0,0.0,1.0,0.0024262925144284964,-0.0009298386867158115,-3.4826894989237074e-05,1.2184696791468346e-07,0.0,0.0,0.0,1.2184696791468346e-07,0.0,0.0,0.0,1.2184696791468346e-07,1.4377896785736084,-0.6260860562324512,9.665678024291992,8.999999999999999e-08,0.0,0.0,0.0,8.999999999999999e-08,0.0,0.0,0.0,8.999999999999999e-08
1676104291.922069,7411,1676104291,915676736,base_link,0.03324168698714285,0.07314317531450916,0.016605478991655726,-0.9966290357949791,1.0,0.0,0.0,0.0,1.0,0.0,0.0,0.0,1.0,0.001982596004381776,0.0004080986836925148,-0.0010602165712043643,1.2184696791468346e-07,0.0,0.0,0.0,1.2184696791468346e-07,0.0,0.0,0.0,1.2184696791468346e-07,1.436851143836975,-0.6343122124671924,9.672042846679688,8.999999999999999e-08,0.0,0.0,0.0,8.999999999999999e-08,0.0,0.0,0.0,8.999999999999999e-08
1676104291.9448926,7412,1676104291,940676736,base_link,0.03324970147380501,0.07314292638468514,0.016601475041047174,-0.9966288250607366,1.0,0.0,0.0,0.0,1.0,0.0,0.0,0.0,1.0,-0.002769630867987871,-0.0005601216107606886,0.0014288068050518632,1.2184696791468346e-07,0.0,0.0,0.0,1.2184696791468346e-07,0.0,0.0,0.0,1.2184696791468346e-07,1.4537060260772705,-0.6481342315673816,9.666650772094727,8.999999999999999e-08,0.0,0.0,0.0,8.999999999999999e-08,0.0,0.0,0.0,8.999999999999999e-08
1676104291.9642234,7413,1676104291,960676736,base_link,0.033245091662249135,0.07314665111242229,0.016598946230136566,-0.9966287407670396,1.0,0.0,0.0,0.0,1.0,0.0,0.0,0.0,1.0,0.00043327128514647484,0.0004360803868621587,-0.00039204896893352276,1.2184696791468346e-07,0.0,0.0,0.0,1.2184696791468346e-07,0.0,0.0,0.0,1.2184696791468346e-07,1.426680088043213,-0.6282806396484363,9.692843437194824,8.999999999999999e-08,0.0,0.0,0.0,8.999999999999999e-08,0.0,0.0,0.0,8.999999999999999e-08
1676104291.982547,7414,1676104291,975676736,base_link,0.033246756462765314,0.07315701923715597,0.016595237307467595,-0.9966279821237664,1.0,0.0,0.0,0.0,1.0,0.0,0.0,0.0,1.0,-0.002867734059691429,-0.0023426925763487816,-0.000562728499062359,1.2184696791468346e-07,0.0,0.0,0.0,1.2184696791468346e-07,0.0,0.0,0.0,1.2184696791468346e-07,1.4531461000442505,-0.6383287906646716,9.677217483520508,8.999999999999999e-08,0.0,0.0,0.0,8.999999999999999e-08,0.0,0.0,0.0,8.999999999999999e-08
1676104292.0064478,7415,1676104292,676736,base_link,0.033244746584926946,0.07315757504872071,0.016592708496556932,-0.9966280664174634,1.0,0.0,0.0,0.0,1.0,0.0,0.0,0.0,1.0,0.00019960617646574974,-0.0003199352067895232,0.0012416326208040118,1.2184696791468346e-07,0.0,0.0,0.0,1.2184696791468346e-07,0.0,0.0,0.0,1.2184696791468346e-07,1.431376338005066,-0.6336454153060901,9.681706428527832,8.999999999999999e-08,0.0,0.0,0.0,8.999999999999999e-08,0.0,0.0,0.0,8.999999999999999e-08
1676104292.0234623,7416,1676104292,20681344,base_link,0.033249866109932004,0.07316489938073849,0.016592287028071823,-0.9966273920678872,1.0,0.0,0.0,0.0,1.0,0.0,0.0,0.0,1.0,-0.0014518756652250886,-0.004112836439162493,0.0004414436116348957,1.2184696791468346e-07,0.0,0.0,0.0,1.2184696791468346e-07,0.0,0.0,0.0,1.2184696791468346e-07,1.455100655555725,-0.6299177408218372,9.6712646484375,8.999999999999999e-08,0.0,0.0,0.0,8.999999999999999e-08,0.0,0.0,0.0,8.999999999999999e-08
1676104292.0454426,7417,1676104292,35681344,base_link,0.0332401973594658,0.07316674989080593,0.01659135979740458,-0.9966275606552812,1.0,0.0,0.0,0.0,1.0,0.0,0.0,0.0,1.0,0.00045487494207918644,-0.0005204073386266826,0.0007730133365839721,1.2184696791468346e-07,0.0,0.0,0.0,1.2184696791468346e-07,0.0,0.0,0.0,1.2184696791468346e-07,1.4602171182632446,-0.6417308449745166,9.681670188903809,8.999999999999999e-08,0.0,0.0,0.0,8.999999999999999e-08,0.0,0.0,0.0,8.999999999999999e-08
1676104292.063169,7418,1676104292,60681344,base_link,0.033236795318537564,0.07316770741452053,0.016590432566737336,-0.9966276449489783,1.0,0.0,0.0,0.0,1.0,0.0,0.0,0.0,1.0,0.001996957464143634,-0.0002897283993661405,-0.0007155152270570397,1.2184696791468346e-07,0.0,0.0,0.0,1.2184696791468346e-07,0.0,0.0,0.0,1.2184696791468346e-07,1.4518970251083374,-0.6208192706108081,9.716458320617676,8.999999999999999e-08,0.0,0.0,0.0,8.999999999999999e-08,0.0,0.0,0.0,8.999999999999999e-08
1676104292.0853996,7419,1676104292,80681344,base_link,0.03324384042768397,0.07317427573744315,0.016597428943590176,-0.996626802012008,1.0,0.0,0.0,0.0,1.0,0.0,0.0,0.0,1.0,-0.00016387831419706345,-0.0002720371121540666,-0.00035766314249485726,1.2184696791468346e-07,0.0,0.0,0.0,1.2184696791468346e-07,0.0,0.0,0.0,1.2184696791468346e-07,1.4356012344360352,-0.6345943808555591,9.673760414123535,8.999999999999999e-08,0.0,0.0,0.0,8.999999999999999e-08,0.0,0.0,0.0,8.999999999999999e-08
1676104292.1077683,7420,1676104292,100681344,base_link,0.03325000440427868,0.07317127277448675,0.016596164538134846,-0.996626802012008,1.0,0.0,0.0,0.0,1.0,0.0,0.0,0.0,1.0,-0.001874491455964744,-0.0010244521545246243,-0.0005733787547796964,1.2184696791468346e-07,0.0,0.0,0.0,1.2184696791468346e-07,0.0,0.0,0.0,1.2184696791468346e-07,1.4631949663162231,-0.6164291501045215,9.695307731628418,8.999999999999999e-08,0.0,0.0,0.0,8.999999999999999e-08,0.0,0.0,0.0,8.999999999999999e-08
