Time,header.seq,header.stamp.secs,header.stamp.nsecs,header.frame_id,pose.position.x,pose.position.y,pose.position.z,pose.orientation.x,pose.orientation.y,pose.orientation.z,pose.orientation.w
1676104290.058758,242,1676104289,702578688,map,-0.3584167957305908,-0.6245870590209961,0.13834689557552338,0.033299916809627704,0.07299389776252865,0.016626510269062655,-0.9966376758989238
1676104290.058838,243,1676104289,732578688,map,-0.35840341448783875,-0.6246473789215088,0.13831670582294464,0.03328929975507001,0.07298834096397029,0.016622969933787778,-0.996638518835894
1676104290.0589035,244,1676104289,762578688,map,-0.3583887815475464,-0.6247182488441467,0.1382901519536972,0.033279403148204045,0.07299320102243921,0.016623728577060976,-0.996638434542197
1676104290.0589588,245,1676104289,802582528,map,-0.3583807945251465,-0.6248158812522888,0.13825523853302002,0.033284439696601095,0.07299434952406113,0.016623222814878845,-0.996638181661106
1676104290.0590224,246,1676104289,832582528,map,-0.35838422179222107,-0.6248821020126343,0.1382288932800293,0.03328224410921148,0.07299361590547923,0.016619556039058382,-0.9966383923953486
1676104290.0590968,247,1676104289,872582528,map,-0.35838907957077026,-0.6249712109565735,0.1381874829530716,0.03328083350687538,0.07300026325374281,0.016620356829180095,-0.996637928780015
1676104290.0591817,248,1676104289,902582528,map,-0.35839271545410156,-0.6250356435775757,0.13815507292747498,0.03327343410078369,0.07300181478460362,0.01661850236784561,-0.996638097367409
1676104290.0592437,249,1676104289,932586880,map,-0.3583911061286926,-0.6251031160354614,0.13812902569770813,0.03327458391949463,0.07300350987816717,0.016627226765487342,-0.9966378023394694
1676104290.0593529,250,1676104289,972586880,map,-0.35840120911598206,-0.6251928806304932,0.13810418546199799,0.033268076182666736,0.07300245225568736,0.01662646812221414,-0.9966381395142575
1676104290.0594268,251,1676104290,2586880,map,-0.3584067225456238,-0.6252540946006775,0.1380910724401474,0.033263550664807885,0.07301027576444219,0.016627058178093297,-0.9966376337520754
1676104290.0594876,252,1676104290,32591488,map,-0.35841163992881775,-0.6253095865249634,0.13807427883148193,0.033265619811651964,0.07301365409776814,0.01663101998185334,-0.9966372965772873
1676104290.0788412,253,1676104290,72591488,map,-0.3584170937538147,-0.6253831386566162,0.13806229829788208,0.03326290265701203,0.07300730967997823,0.016630935688156316,-0.9966378866331664
1676104290.1093907,254,1676104290,102591488,map,-0.3584175109863281,-0.6254293322563171,0.13805431127548218,0.033260239503021746,0.07300850823098276,0.016642694658890844,-0.9966376758989238
1676104290.1412125,255,1676104290,132595584,map,-0.35842058062553406,-0.6254751086235046,0.1380421221256256,0.033251875987770366,0.07300088755393638,0.016645602791438105,-0.9966383923953486
1676104290.176164,256,1676104290,172595584,map,-0.35842227935791016,-0.6255377531051636,0.13802486658096313,0.03323983911125346,0.07299623427844297,0.016649691035743677,-0.9966391088917732
1676104290.207615,257,1676104290,202595584,map,-0.3584177792072296,-0.6255784034729004,0.13801227509975433,0.033247346518644465,0.07298925370665836,0.016648173749197276,-0.9966393617728644
1676104290.2411368,258,1676104290,232599936,map,-0.35840970277786255,-0.6256211400032043,0.13799726963043213,0.033239305690201996,0.07298482960465373,0.016641388106586993,-0.996640078269289
1676104290.2760923,259,1676104290,272599936,map,-0.3584029972553253,-0.6256746053695679,0.1379866898059845,0.033234676122310874,0.07300553819525175,0.01664606640677173,-0.9966386874232881
1676104290.3094654,260,1676104290,302599936,map,-0.358395516872406,-0.6257070899009705,0.13798083364963531,0.03324007882145437,0.07300687899187001,0.01665175623132072,-0.9966383081016515
1676104290.3420596,261,1676104290,332604032,map,-0.3583891987800598,-0.6257339119911194,0.13797220587730408,0.03322766789165692,0.07301669789048404,0.016652852049381956,-0.9966379709268635
1676104290.375061,262,1676104290,372604032,map,-0.358384907245636,-0.6257693767547607,0.1379576474428177,0.03323374230619855,0.07302800905095315,0.016653526398958136,-0.9966369594024992
1676104290.4086795,263,1676104290,402604032,map,-0.3583838939666748,-0.6257993578910828,0.13794490694999695,0.03322391155378339,0.0730277245597257,0.016655928769323265,-0.9966372544304387
1676104290.441755,264,1676104290,432608640,map,-0.35838353633880615,-0.6258280873298645,0.13793405890464783,0.03322555001251925,0.07303324052852456,0.016654664363867935,-0.9966368329619536
1676104290.4782658,265,1676104290,472608640,map,-0.35838475823402405,-0.6258788704872131,0.13792303204536438,0.03324063990137517,0.07303495669551235,0.016653442105261117,-0.996636200759226
1676104290.5104017,266,1676104290,502608640,map,-0.3583838939666748,-0.6259180307388306,0.13792096078395844,0.03323107651803024,0.07303656486120086,0.016661829328114816,-0.9966362429060746
1676104290.540744,267,1676104290,531612992,map,-0.3583868145942688,-0.6259632110595703,0.13792423903942108,0.03324178840299709,0.07304400773123007,0.016660859950599065,-0.9966353578222558
1676104290.5750504,268,1676104290,571612992,map,-0.3583959639072418,-0.6260216236114502,0.1379345804452896,0.03323661356025336,0.0730513109898236,0.016656055209868806,-0.9966351049411647
1676104290.6102114,269,1676104290,602612992,map,-0.3584023714065552,-0.626060962677002,0.13794542849063873,0.033222544415384817,0.07305594977733783,0.016646698609499407,-0.9966353578222558
1676104290.6418748,270,1676104290,631617600,map,-0.35840702056884766,-0.6261037588119507,0.13796162605285645,0.033229314252926884,0.07305137157591833,0.016650829000653435,-0.9966354421159528
1676104290.67536,271,1676104290,671617600,map,-0.35842302441596985,-0.6261592507362366,0.13798299431800842,0.03323033367982523,0.07305629485466002,0.01665542300714114,-0.9966348942069221
1676104290.7082448,272,1676104290,701617600,map,-0.358431875705719,-0.6262003183364868,0.13800007104873657,0.033238801245108876,0.0730530429618796,0.016651250469138547,-0.9966349363537707
1676104290.7414515,273,1676104290,731622208,map,-0.35843178629875183,-0.6262552738189697,0.13801544904708862,0.03323161257325974,0.07304774562985739,0.01665546515398965,-0.9966355264096498
1676104290.7762835,274,1676104290,771622208,map,-0.3584238588809967,-0.6263296604156494,0.1380372792482376,0.033229760746103294,0.07305263203010662,0.01664939600780406,-0.9966353578222558
1676104290.8080595,275,1676104290,801622208,map,-0.35841482877731323,-0.6263816356658936,0.13805732131004333,0.033219532232805306,0.07304720298918281,0.01664265251204234,-0.996636200759226
1676104290.8408144,276,1676104290,831626816,map,-0.358408123254776,-0.626430332660675,0.13807937502861023,0.03321833895015684,0.07304963960386235,0.016640039407434654,-0.996636116465529
1676104290.8757815,277,1676104290,861626816,map,-0.3584061861038208,-0.6264714002609253,0.13810555636882782,0.03322678807619426,0.07304941964999667,0.01663439172973423,-0.9966359478781349
1676104290.9081342,278,1676104290,896626816,map,-0.3583858907222748,-0.626534640789032,0.138132706284523,0.03321213019253558,0.07305395175330061,0.016634602463976786,-0.9966360743186805
1676104290.9412465,279,1676104290,936631424,map,-0.35837477445602417,-0.6265780925750732,0.1381751447916031,0.0332193834017465,0.07305413746285186,0.016633338058521453,-0.9966358214375894
1676104290.974641,280,1676104290,966631424,map,-0.3583672046661377,-0.6266058087348938,0.13820476830005646,0.033214369243862715,0.07304894154668388,0.01662983987009503,-0.996636453640317
1676104291.010404,281,1676104291,6635776,map,-0.3583444654941559,-0.6266409754753113,0.1382366567850113,0.03321930305931653,0.07305383848364524,0.016631567890883988,-0.9966359057312865
1676104291.0427938,282,1676104291,36635776,map,-0.3583228290081024,-0.6266673803329468,0.13825492560863495,0.033226456169762233,0.0730562527078115,0.0166308513944593,-0.9966354421159528
1676104291.076163,283,1676104291,66635776,map,-0.3582983911037445,-0.6266922354698181,0.13827000558376312,0.03321366723541721,0.07305090796058472,0.016626678856456703,-0.9966363271997715
1676104291.1088183,284,1676104291,106635776,map,-0.35827070474624634,-0.6267144680023193,0.1382833570241928,0.03322741632765487,0.07305544006388866,0.01662355998966689,-0.9966356528501954
1676104291.1444104,285,1676104291,136639872,map,-0.358248233795166,-0.6267291903495789,0.13829119503498077,0.03322754540237844,0.0730526557377089,0.01662060971027117,-0.9966359057312865
1676104291.174698,286,1676104291,166639872,map,-0.35822969675064087,-0.626741886138916,0.13830067217350006,0.0332131298630987,0.07305151908988812,0.016623728577060928,-0.9966364114934685
1676104291.2103133,287,1676104291,206644480,map,-0.3582116961479187,-0.6267573237419128,0.13830924034118652,0.033219062032026604,0.07305453258955666,0.01662204270312049,-0.9966359900249835
1676104291.243191,288,1676104291,236644480,map,-0.35820654034614563,-0.6267702579498291,0.1383151262998581,0.03321222765712276,0.07305933337901985,0.016611084522507667,-0.9966360743186804
1676104291.2757068,289,1676104291,266644480,map,-0.35820627212524414,-0.626786470413208,0.13832253217697144,0.03321346045244171,0.0730655500391752,0.01661264395590258,-0.9966355264096498
1676104291.3094866,290,1676104291,306644480,map,-0.35820242762565613,-0.6268086433410645,0.13833682239055634,0.033221601379649385,0.07306605975262438,0.016608724298991052,-0.9966353156754073
1676104291.340743,291,1676104291,336648832,map,-0.35819968581199646,-0.6268206238746643,0.1383495032787323,0.03321980223605358,0.07306935510934233,0.01660358238347276,-0.9966352313817103
1676104291.3742177,292,1676104291,366648832,map,-0.35819828510284424,-0.6268330812454224,0.1383582055568695,0.03322767184292397,0.07307840746214905,0.016602444418562963,-0.9966342620041945
1676104291.4100997,293,1676104291,406653440,map,-0.3581916093826294,-0.6268519759178162,0.13836082816123962,0.03322557767138858,0.07307537025487824,0.016602233684320407,-0.9966345570321341
1676104291.4443374,294,1676104291,436653440,map,-0.35819244384765625,-0.626859724521637,0.13835987448692322,0.03323198794362929,0.07307951776818952,0.016605015376322137,-0.996634051269952
1676104291.4760818,295,1676104291,466653440,map,-0.3581986129283905,-0.6268653869628906,0.1383601874113083,0.03323577984290626,0.07308360732958409,0.0166018122158353,-0.9966336298014669
1676104291.5098083,296,1676104291,506658048,map,-0.3582122325897217,-0.6268792748451233,0.13836762309074402,0.033230282313353614,0.07308955793775822,0.016604383173594476,-0.9966333347735272
1676104291.540841,297,1676104291,535658048,map,-0.3582238256931305,-0.6268846392631531,0.13837160170078278,0.033241912209364594,0.07309161523080115,0.016603919558260856,-0.9966327868644966
1676104291.5748222,298,1676104291,566658048,map,-0.35823726654052734,-0.6268913745880127,0.13837715983390808,0.03322751379224205,0.07309051414438382,0.016600337076137412,-0.9966334190672242
1676104291.609736,299,1676104291,605662656,map,-0.35825875401496887,-0.626908540725708,0.13838739693164825,0.03324583713463217,0.07309711012617577,0.016593509286678625,-0.996632491836557
1676104291.6430311,300,1676104291,635662656,map,-0.3582715690135956,-0.6269308924674988,0.1383984088897705,0.033238233579742996,0.07310084670771407,0.016591907706435205,-0.996632491836557
1676104291.675932,301,1676104291,666662656,map,-0.3582859933376312,-0.626953125,0.1384051889181137,0.03323885129449149,0.07310361127755857,0.016590053245100718,-0.996632323249163
1676104291.7093046,302,1676104291,705662656,map,-0.35831230878829956,-0.6269835233688354,0.13843034207820892,0.033244429166474104,0.07311380686363116,0.016588367371160335,-0.9966313960184957
1676104291.7435203,303,1676104291,735667264,map,-0.3583346903324127,-0.6270050406455994,0.13845281302928925,0.03324512327238551,0.0731193294178751,0.016592582056011388,-0.9966308902563136
1676104291.7756019,304,1676104291,765667264,map,-0.35835883021354675,-0.6270230412483215,0.13847745954990387,0.03324894678179886,0.07312512592663437,0.016604425320442946,-0.9966300894661919
1676104291.8094625,305,1676104291,805667264,map,-0.35839393734931946,-0.6270393133163452,0.13850675523281097,0.03323888158753885,0.07312164090909813,0.016606574809717008,-0.9966306373752225
1676104291.8408694,306,1676104291,835671872,map,-0.35842472314834595,-0.6270482540130615,0.1385347545146942,0.033234419289952764,0.07312669326256337,0.0166027394465025,-0.996630510934677
1676104291.8749518,307,1676104291,865671872,map,-0.35845452547073364,-0.627059280872345,0.13856323063373566,0.03324324642053776,0.07313535707411038,0.01659924125807614,-0.9966296258508583
1676104291.9101593,308,1676104291,905676736,map,-0.3585076928138733,-0.6270694136619568,0.13860858976840973,0.03323720888448858,0.07314271169917554,0.01659822973371188,-0.9966292886760703
1676104291.944674,309,1676104291,935676736,map,-0.35855185985565186,-0.6270726919174194,0.13864289224147797,0.03324168698714285,0.07314317531450916,0.016605478991655726,-0.9966290357949791
1676104291.9769132,310,1676104291,965676736,map,-0.358598917722702,-0.6270725727081299,0.1386783868074417,0.033245091662249135,0.07314665111242229,0.016598946230136566,-0.9966287407670396
1676104292.0101447,311,1676104292,5681344,map,-0.35866600275039673,-0.627079427242279,0.13872835040092468,0.033244746584926946,0.07315757504872071,0.016592708496556932,-0.9966280664174634
1676104292.0451534,312,1676104292,35681344,map,-0.35871511697769165,-0.6270808577537537,0.13876751065254211,0.033249866109932004,0.07316489938073849,0.016592287028071823,-0.9966273920678872
1676104292.0762737,313,1676104292,65681344,map,-0.3587677776813507,-0.6270791292190552,0.1388116329908371,0.033236795318537564,0.07316770741452053,0.016590432566737336,-0.9966276449489783
1676104292.1103642,314,1676104292,105681344,map,-0.3588428199291229,-0.6270731091499329,0.13886599242687225,0.03325000440427868,0.07317127277448675,0.016596164538134846,-0.996626802012008
1676104292.143096,315,1676104292,135685184,map,-0.35891202092170715,-0.6270645260810852,0.1389007419347763,0.03324697509954196,0.07317065637682728,0.01659350928667865,-0.9966270127462507
1676104292.1757421,316,1676104292,165685184,map,-0.3589833974838257,-0.6270663142204285,0.13893906772136688,0.03325408342896113,0.07318583319355824,0.016586386469280283,-0.9966257904876438
1676104292.208843,317,1676104292,205685184,map,-0.3590770363807678,-0.6270619630813599,0.1390012949705124,0.033265900351612365,0.07319571136117799,0.016578842183396864,-0.9966248211101281
1676104292.2419133,318,1676104292,235689792,map,-0.3591506779193878,-0.6270642280578613,0.13904696702957153,0.03325680453486811,0.07319632512465943,0.016585838560249644,-0.9966249054038251
1676104292.2775145,319,1676104292,265689792,map,-0.3592359125614166,-0.6270681023597717,0.13909687101840973,0.0332624627492807,0.07320776799403014,0.016585754266552625,-0.9966238938794608
1676104292.3097775,320,1676104292,305689792,map,-0.359345942735672,-0.6270776987075806,0.13916334509849548,0.033264875656357946,0.07321301527666975,0.01657976941406411,-0.9966235567046727
1676104292.3419874,321,1676104292,335694912,map,-0.35943081974983215,-0.6270835399627686,0.1392122209072113,0.03326622040424325,0.07321674922403,0.01658158172855003,-0.9966231773830361
1676104292.3758643,322,1676104292,365694912,map,-0.35952073335647583,-0.62708580493927,0.1392568200826645,0.03326494414498678,0.07321600243455795,0.016578800036548356,-0.9966233459704302
1676104292.4080904,323,1676104292,405694912,map,-0.35964810848236084,-0.6270833611488342,0.1393202245235443,0.03326560795785082,0.0732120300940858,0.016577451337396003,-0.9966235988515213
1676104292.4407747,324,1676104292,435699776,map,-0.35974839329719543,-0.6270809769630432,0.13937006890773773,0.033266900022175486,0.07320377326304471,0.016583478336733026,-0.9966240624668549
1676104292.4739323,325,1676104292,465699776,map,-0.3598509728908539,-0.6270800232887268,0.13941630721092224,0.03326348481035708,0.07320416443848246,0.016578505008608777,-0.9966242310542489
1676104292.5100145,326,1676104292,505704640,map,-0.3599913418292999,-0.6270694136619568,0.13947679102420807,0.033275421588108776,0.07321321679128918,0.016586723644068383,-0.996623093089339
1676104292.5429473,327,1676104292,535704640,map,-0.36009451746940613,-0.6270618438720703,0.13952921330928802,0.033271561200202984,0.07321419012007198,0.016586723644068383,-0.996623093089339
1676104292.5767329,328,1676104292,564704640,map,-0.36019986867904663,-0.6270559430122375,0.13957875967025757,0.03327603930285727,0.0732146537354056,0.016588156636917758,-0.996622924501945
1676104292.6093972,329,1676104292,605704640,map,-0.3603428304195404,-0.6270444393157959,0.13964419066905975,0.03328672748022182,0.07321241600116749,0.016590053245100756,-0.9966227137677025
1676104292.6419768,330,1676104292,635708992,map,-0.36045342683792114,-0.6270332932472229,0.13969667255878448,0.03328455823461253,0.07321339459830634,0.016586681497219872,-0.9966227137677025
1676104292.6765423,331,1676104292,664708992,map,-0.360559344291687,-0.6270236372947693,0.13974685966968536,0.03328154868621105,0.07321078807914375,0.016579895854609644,-0.9966231773830362
1676104292.707687,332,1676104292,705708992,map,-0.36069175601005554,-0.6270102858543396,0.13981539011001587,0.033281431465288634,0.07321488817725044,0.016577409190547492,-0.9966228823550966
1676104292.7409234,333,1676104292,734713856,map,-0.3607913851737976,-0.6270085573196411,0.13986606895923615,0.03328324641395263,0.07321750918439222,0.01657837856806325,-0.996622671620854
1676104292.7754314,334,1676104292,764713856,map,-0.3608928322792053,-0.6270202398300171,0.13991287350654602,0.033294331035110994,0.07321537023183029,0.01657555472921301,-0.9966224608866114
1676104292.808707,335,1676104292,804713856,map,-0.36102619767189026,-0.6270460486412048,0.13997483253479004,0.033293514439921096,0.07321164550409313,0.01657606049139514,-0.9966227137677025
1676104292.842035,336,1676104292,834719488,map,-0.36111927032470703,-0.627056360244751,0.14001743495464325,0.033300251350237765,0.07321973374774018,0.016575048967030877,-0.9966219551244293
1676104292.8758042,337,1676104292,864719488,map,-0.36120927333831787,-0.6270702481269836,0.14005498588085175,0.03328935112154163,0.07321045617271173,0.016578968623942404,-0.9966229245019451
1676104292.9081378,338,1676104292,904719488,map,-0.3613201379776001,-0.6270841360092163,0.1401069164276123,0.03329562968488074,0.07321163760155905,0.016575849757152587,-0.996622671620854
1676104292.9419231,339,1676104292,934724096,map,-0.361398309469223,-0.6270922422409058,0.1401514708995819,0.03329531094933887,0.0732127149803741,0.016579474386124535,-0.996622587327157
1676104292.9738307,340,1676104292,964724096,map,-0.3614710867404938,-0.62710040807724,0.140194371342659,0.03329376600392315,0.07320763233386149,0.016575512582364497,-0.9966230087956421
1676104293.0096312,341,1676104293,4728704,map,-0.36156904697418213,-0.6271216869354248,0.14025269448757172,0.03329758819624748,0.07320945781923761,0.01657521755442492,-0.9966227980613995
1676104293.0430317,342,1676104293,34728704,map,-0.36164164543151855,-0.6271235346794128,0.14029839634895325,0.03329160992920401,0.07321310747290086,0.016574332470606187,-0.996622755914551
1676104293.0764558,343,1676104293,64728704,map,-0.3617109954357147,-0.6271251440048218,0.140342578291893,0.03329114763095941,0.07321550852617696,0.016571424338058926,-0.9966226294740055
1676104293.1091435,344,1676104293,104728704,map,-0.361790269613266,-0.6271096467971802,0.14040756225585938,0.03329719175245367,0.07322201362882681,0.016574753939091302,-0.9966219129775808
1676104293.1405597,345,1676104293,134731520,map,-0.36184433102607727,-0.6270977854728699,0.14045743644237518,0.03329049435480749,0.07322697246897193,0.01657306806515086,-0.9966218286838837
1676104293.1758828,346,1676104293,164731520,map,-0.361899197101593,-0.6270955204963684,0.14051134884357452,0.03329463396558467,0.07323590891794525,0.016572056540786598,-0.9966209857469135
1676104293.2096324,347,1676104293,204731520,map,-0.3619581460952759,-0.6270825862884521,0.14057858288288116,0.03330673801364139,0.07323377259956136,0.016578083540123623,-0.996620606425277
1676104293.241794,348,1676104293,234735872,map,-0.3619886040687561,-0.6270665526390076,0.14062565565109253,0.03330840676542462,0.07322695139554768,0.016576060491395147,-0.9966211121874591
1676104293.2756379,349,1676104293,264735872,map,-0.3620101511478424,-0.6270592212677002,0.140671506524086,0.03331816376085489,0.07322292637151488,0.016572983771453838,-0.9966211543343076
1676104293.3079653,350,1676104293,304735872,map,-0.36202266812324524,-0.6270413994789124,0.14072266221046448,0.03330890330798364,0.07321908969121138,0.016576566253577278,-0.9966217022433382
1676104293.3408983,351,1676104293,334740480,map,-0.3620256781578064,-0.6270229816436768,0.140762597322464,0.03331425859192255,0.07322224807067167,0.016572182981332128,-0.9966213650685501
1676104293.3744242,352,1676104293,364740480,map,-0.36202871799468994,-0.6270010471343994,0.14080210030078888,0.03330803271214409,0.07322590299269097,0.016591781265889716,-0.9966209857469136
1676104293.4097395,353,1676104293,404745344,map,-0.3620312213897705,-0.6269641518592834,0.14085730910301208,0.033317575022064755,0.0732288677600659,0.016595448041710127,-0.9966203535441859
1676104293.4443848,354,1676104293,434745344,map,-0.3620319366455078,-0.6269385814666748,0.1408993899822235,0.03332291976929154,0.07322921283738809,0.01659637527237737,-0.9966201006630948
1676104293.476455,355,1676104293,464745344,map,-0.36202776432037354,-0.6269121766090393,0.14093604683876038,0.033325328725101744,0.07323369489130942,0.016601685775289768,-0.9966196791946097
1676104293.5100298,356,1676104293,504749696,map,-0.3620201349258423,-0.6268743276596069,0.14098697900772095,0.033330441664661724,0.0732317956489484,0.01659388860831522,-0.9966197213414583
1676104293.5409532,357,1676104293,534749696,map,-0.36200541257858276,-0.6268349885940552,0.14102661609649658,0.0333296975093677,0.07322863068404303,0.016593846461466707,-0.9966200163693978
1676104293.5736942,358,1676104293,564749696,map,-0.3619820773601532,-0.6267871260643005,0.14107365906238556,0.03333790297393716,0.07323242653458704,0.01659506872007353,-0.9966193841666702
1676104293.6110907,359,1676104293,604755840,map,-0.3619418740272522,-0.6267226934432983,0.14113563299179077,0.033345272086981494,0.0732342875813666,0.016602697299654034,-0.9966189205513365
1676104293.6430771,360,1676104293,634755840,map,-0.3619116246700287,-0.6266694068908691,0.14117860794067383,0.03334158028646974,0.07323366986661811,0.01660547899165571,-0.9966190048450335
1676104293.6758342,361,1676104293,663755840,map,-0.3618791401386261,-0.6266122460365295,0.14122378826141357,0.03336379167563498,0.07323169950145023,0.0166061954880804,-0.9966184569360029
1676104293.709261,362,1676104293,704755840,map,-0.3618311882019043,-0.6265329718589783,0.14128027856349945,0.0333558325067115,0.07322091385949848,0.016608302830505947,-0.9966194684603672
1676104293.7422144,363,1676104293,734759936,map,-0.3617907762527466,-0.6264749765396118,0.1413198709487915,0.03335942025719099,0.073220708393612,0.01660876644583957,-0.9966193420198216
1676104293.7749374,364,1676104293,763759936,map,-0.3617497980594635,-0.6264150142669678,0.14135713875293732,0.03336887959050366,0.07322090068860833,0.01661820733990605,-0.9966188362576395
1676104293.8097236,365,1676104293,803759936,map,-0.36168578267097473,-0.6263359189033508,0.14140674471855164,0.03337471956320045,0.0732132589381377,0.0166201460949375,-0.9966191734324276
1676104293.8484693,366,1676104293,843765312,map,-0.36161085963249207,-0.6262646317481995,0.14145389199256897,0.03337471956320045,0.0732132589381377,0.0166201460949375,-0.9966191734324276
1676104293.8740804,367,1676104293,863765312,map,-0.36157336831092834,-0.6262326240539551,0.14147256314754486,0.03343557566118313,0.07311928595393757,0.017746815649330724,-0.9966045906228428
1676104293.9102411,368,1676104293,903770176,map,-0.36159834265708923,-0.6262781023979187,0.1415368914604187,0.03319171531278811,0.0732726148717312,0.016854777600597694,-0.9966170239431535
1676104293.9434085,369,1676104293,933770176,map,-0.36160850524902344,-0.6263624429702759,0.14160384237766266,0.032717395996735524,0.07385595754816934,0.016027940726510932,-0.996603284070539
1676104293.9811196,370,1676104293,973770176,map,-0.3607032895088196,-0.6269172430038452,0.14184914529323578,0.03019877540379841,0.070879630082938,0.017142598429078577,-0.9968803153058011
1676104294.009654,371,1676104294,3770176,map,-0.3588426113128662,-0.6275449991226196,0.14217068254947662,0.02813509843040001,0.06586776788531241,0.01726056745806056,-0.9972822698000494
1676104294.0420673,372,1676104294,33777088,map,-0.35637590289115906,-0.6281170845031738,0.14254091680049896,0.023901431692412507,0.049978811660122274,0.017080769002313066,-0.9983181550427502
1676104294.0759149,373,1676104294,63777088,map,-0.3539520502090454,-0.6286740899085999,0.1428793966770172,0.02022613759875397,0.033391249688895314,0.016780430559824453,-0.9990967759221405
1676104294.1086116,374,1676104294,103777088,map,-0.3513568937778473,-0.6295292377471924,0.1432228684425354,0.0186056205787407,0.026740779595077653,0.016708907357901485,-0.9993296372601632
1676104294.1409838,375,1676104294,133781952,map,-0.3499588668346405,-0.6301966905593872,0.1433926373720169,0.014717971893765803,0.018042523206839217,0.016576018344546632,-0.9995914956299614
1676104294.174933,376,1676104294,163781952,map,-0.34896934032440186,-0.6308099627494812,0.14351506531238556,0.011629782576683382,0.014596921041122575,0.01664020799482871,-0.9996873797103236
1676104294.2110734,377,1676104294,203787328,map,-0.3479963541030884,-0.6315078139305115,0.1436397135257721,0.009600292459691764,0.014259420438140097,0.016553638367987327,-0.9997151966303408
1676104294.244051,378,1676104294,233787328,map,-0.34731680154800415,-0.6319222450256348,0.14372527599334717,0.00910883106546026,0.014523670806227403,0.016732551739916064,-0.9997130471410668
1676104294.2769496,379,1676104294,273787328,map,-0.3462643027305603,-0.6324194669723511,0.14384230971336365,0.008556694343713514,0.014307641701192624,0.01670237459638228,-0.999721560804466
1676104294.3144224,380,1676104294,303787328,map,-0.34532979130744934,-0.6328103542327881,0.1439266949892044,0.008114813283762888,0.01366486439509228,0.016810818437600804,-0.9997323925445333
1676104294.3422494,381,1676104294,333793984,map,-0.3444032073020935,-0.6332390308380127,0.14402522146701813,0.0075042985670170015,0.011488958760551848,0.01685077364998911,-0.9997639183872195
1676104294.3767717,382,1676104294,373793984,map,-0.3432895839214325,-0.6338256001472473,0.144126757979393,0.00625325497975715,0.009354289372103896,0.0170567874455104,-0.9997912295450545
1676104294.4107995,383,1676104294,403800128,map,-0.3425666093826294,-0.6342547535896301,0.14419656991958618,0.005945887974052883,0.008404407984194099,0.016971566517821376,-0.9998030306626375
1676104294.4432378,384,1676104294,433800128,map,-0.34193867444992065,-0.6346527338027954,0.1442590057849884,0.004596457425710096,0.006991981891398319,0.016854440425809563,-0.9998229661219832
1676104294.476632,385,1676104294,473800128,map,-0.3411937654018402,-0.6351572871208191,0.14435766637325287,0.004072217719456324,0.005896588673640787,0.016777859602065313,-0.9998336292746565
1676104294.5105379,386,1676104294,503806016,map,-0.340717077255249,-0.6354981660842896,0.14440801739692688,0.003450997456234478,0.005498859483273671,0.016880782206128864,-0.9998364952603552
1676104294.544772,387,1676104294,533806016,map,-0.3403507471084595,-0.6358105540275574,0.1444632112979889,0.002988572441812822,0.00485433176587111,0.016871720633699024,-0.999841426441631
1676104294.5771198,388,1676104294,573806016,map,-0.33997535705566406,-0.6361261606216431,0.14451363682746887,0.002861742943430112,0.004548846551098404,0.01689979043480733,-0.9998427751407833
1676104294.6105566,389,1676104294,603812160,map,-0.33976808190345764,-0.6363207697868347,0.1445508748292923,0.0029320657010331107,0.004423624889131935,0.017126877654583993,-0.9998392348055084
1676104294.6427875,390,1676104294,633812160,map,-0.3396221995353699,-0.6365147233009338,0.144583061337471,0.0026644342008056952,0.004113839296404038,0.01734827504981171,-0.9998375067847195
1676104294.6759489,391,1676104294,663812160,map,-0.3395664691925049,-0.6366823315620422,0.14461243152618408,0.002651724579914851,0.003935083687043986,0.017245816061081755,-0.9998400777424786
1676104294.7098026,392,1676104294,703812160,map,-0.3396192193031311,-0.6368393301963806,0.14462856948375702,0.0025470627186466336,0.003889879916086068,0.01732576863270691,-0.9998391083649628
1676104294.7415652,393,1676104294,733817792,map,-0.33972257375717163,-0.6369073390960693,0.14463795721530914,0.0024084661000410984,0.003912134110644328,0.01722845155949525,-0.9998410892668429
1676104294.7763667,394,1676104294,762817792,map,-0.3398521840572357,-0.6369459629058838,0.14466223120689392,0.002159451159145974,0.0036400533190848548,0.017251800913570262,-0.9998422693786012
1676104294.8096447,395,1676104294,803824704,map,-0.3401077389717102,-0.6369209885597229,0.14466267824172974,0.0023184632748844496,0.0035522094497795636,0.017219432133913932,-0.9998427751407833
1676104294.8424609,396,1676104294,832824704,map,-0.3403546214103699,-0.6368072032928467,0.14466728270053864,0.0021332558638206597,0.0033288588115411603,0.01770011694118066,-0.999835568029688
1676104294.8768103,397,1676104294,872824704,map,-0.34080973267555237,-0.6366013884544373,0.14466942846775055,0.002524475382885398,0.0032877501996061323,0.017800173559545537,-0.9998330392187773
1676104294.9088335,398,1676104294,902824704,map,-0.3412074148654938,-0.6364099383354187,0.14466245472431183,0.002774969126632229,0.0034662514461499755,0.017894961821846536,-0.999830046792533
1676104294.9419332,399,1676104294,932832128,map,-0.34163305163383484,-0.6361998319625854,0.14467087388038635,0.0031350436681111074,0.0037109123994510567,0.01798229009196108,-0.9998265064572581
1676104294.9759073,400,1676104294,962832128,map,-0.3420489728450775,-0.6359781622886658,0.14466838538646698,0.003062854451315875,0.0038126952893460164,0.017844090575693857,-0.9998289088276232
1676104295.0111759,401,1676104295,2839040,map,-0.34259113669395447,-0.6357075572013855,0.1446547508239746,0.003366621420569675,0.0036725917768496057,0.01777564409371217,-0.9998295831771994
1676104295.0453858,402,1676104295,32839040,map,-0.3430095911026001,-0.6354973912239075,0.1446525901556015,0.0030373545995705064,0.0036795168662594247,0.017828791269684452,-0.999829709617745
1676104295.0777452,403,1676104295,72839040,map,-0.3435972332954407,-0.6352018117904663,0.14464977383613586,0.0029661682431633527,0.003486713802840562,0.017817664501677526,-0.9998308054358063
1676104295.1098158,404,1676104295,102846208,map,-0.3440517485141754,-0.6349552273750305,0.14464494585990906,0.003094101441561925,0.003564023244344392,0.01795662266121795,-0.9998276444221679
1676104295.1431448,405,1676104295,132846208,map,-0.34448620676994324,-0.6347032189369202,0.1446399986743927,0.002834962366673328,0.003473588455149538,0.018168789896621806,-0.9998249470238632
1676104295.1767766,406,1676104295,172846208,map,-0.3450582027435303,-0.6343464255332947,0.14462490379810333,0.003125388880846426,0.003388768755991757,0.01820183302585437,-0.999823766912105
1676104295.2102842,407,1676104295,202846208,map,-0.3454691171646118,-0.6340919137001038,0.14460156857967377,0.003317617137807399,0.0033998404326346368,0.018447717740066916,-0.9998186249965866
1676104295.2418709,408,1676104295,232853120,map,-0.34587734937667847,-0.6338304877281189,0.14458495378494263,0.003290396592866955,0.0033300968842197055,0.018444978194913697,-0.9998189200245261
1676104295.2789972,409,1676104295,272853120,map,-0.3463955819606781,-0.6335214972496033,0.14454902708530426,0.003342386389407055,0.0033346062551974746,0.018471910031112156,-0.9998182878217985
1676104295.3096988,410,1676104295,302861056,map,-0.34675008058547974,-0.633338451385498,0.14452756941318512,0.003331760484692867,0.003287845932941541,0.01849791463664337,-0.9998179927938589
1676104295.3419394,411,1676104295,332861056,map,-0.3470754027366638,-0.6331723928451538,0.1444975733757019,0.0029923683849646552,0.0031595996506506518,0.01843170193763276,-0.9998207323390121
1676104295.3754215,412,1676104295,362861056,map,-0.3473811745643616,-0.6329970955848694,0.14445823431015015,0.003020020671427289,0.0029459875660238577,0.018455093438556287,-0.9998207744858606
1676104295.4115722,413,1676104295,402869504,map,-0.3477930426597595,-0.632722020149231,0.14438940584659576,0.002858352380726852,0.0029504494288676757,0.018608465820287433,-0.9998184564091925
1676104295.4463067,414,1676104295,432869504,map,-0.348109632730484,-0.6325253844261169,0.1443217247724533,0.0031703830700146787,0.0031015388477296808,0.018694782566037765,-0.9998154218360997
1676104295.4780009,415,1676104295,472869504,map,-0.34850624203681946,-0.6323044300079346,0.1442326307296753,0.0030297520942366477,0.003273567250014804,0.01893253293848773,-0.9998108278296121
1676104295.5104237,416,1676104295,502877696,map,-0.3488576412200928,-0.6325664520263672,0.14429190754890442,0.0031402793130344865,0.0033604130642489734,0.01889013320888577,-0.9998109964170061
1676104295.5435357,417,1676104295,532877696,map,-0.3513120412826538,-0.6365398168563843,0.14622724056243896,-0.020450934565367906,0.015502431922672215,0.012218034208520199,-0.9995960474896005
1676104295.5764067,418,1676104295,572877696,map,-0.36023634672164917,-0.6467775702476501,0.160079225897789,-0.1039170961619824,0.09611176257702365,0.006783198093040368,-0.9899080043034924
1676104295.609996,419,1676104295,602886656,map,-0.3712405562400818,-0.6583391427993774,0.1859162449836731,-0.11718396029332441,0.13926918155045934,0.0050952168101791005,-0.9832833626545501
1676104295.6423643,420,1676104295,632886656,map,-0.38841164112091064,-0.67558753490448,0.22428232431411743,-0.1204361606140283,0.17793244354232465,0.0030591868523147927,-0.976640092098566
1676104295.6755042,421,1676104295,662886656,map,-0.4114047884941101,-0.6971253752708435,0.27027809619903564,-0.10629099073330593,0.1992858203364712,0.002311375319186015,-0.9741571791059407
1676104295.7116268,422,1676104295,702897152,map,-0.44742682576179504,-0.7295220494270325,0.33410319685935974,-0.07420477408606847,0.18984030065340685,0.0037720586480280574,-0.9789995569719028
1676104295.744973,423,1676104295,732897152,map,-0.4770021140575409,-0.7555198073387146,0.3795299232006073,-0.056332102678728214,0.17708519442266848,0.004535043046620797,-0.9825716288237466
1676104295.7773974,424,1676104295,772897152,map,-0.5187942981719971,-0.7915812134742737,0.43398451805114746,-0.020845894493760883,0.1420460800067047,0.005896765575159262,-0.9896230073138618
1676104295.8105714,425,1676104295,802906368,map,-0.5523114800453186,-0.8198316693305969,0.47042396664619446,-0.004249888006308061,0.12228666804728185,0.0062909229024331464,-0.9924658122459216
1676104295.8434803,426,1676104295,831906368,map,-0.5872563123703003,-0.8485846519470215,0.5032018423080444,0.024653862256720293,0.08398010339544282,0.006664217539694161,-0.9961401323522527
1676104295.8765411,427,1676104295,871906368,map,-0.6361037492752075,-0.8872705698013306,0.5435659289360046,0.04975272904999252,0.048137372714016045,0.00631250208887073,-0.9975809223685977
1676104295.9101512,428,1676104295,902915840,map,-0.6739965081214905,-0.9159438014030457,0.5729473233222961,0.06386989136206263,0.026671401601889414,0.005732308572269733,-0.9975853056408428
1676104295.9425576,429,1676104295,932915840,map,-0.7124305963516235,-0.9437615871429443,0.6024619340896606,0.08453147637019642,-0.00644451918929687,0.004520460237036041,-0.9963897259891343
1676104295.9772084,430,1676104295,971915840,map,-0.7636339068412781,-0.9789618253707886,0.6427483558654785,0.09849387380817327,-0.034241398380019994,0.003188830558334318,-0.9945433147027205
1676104296.011828,431,1676104296,1925568,map,-0.8015208840370178,-1.0035579204559326,0.6731863617897034,0.10651726135789286,-0.05280762515556536,0.0021409334638079545,-0.9929052774353446
1676104296.0466876,432,1676104296,31925568,map,-0.8383334875106812,-1.0264605283737183,0.7030678987503052,0.1138074438916707,-0.07530200933513292,0.00079139137448911,-0.9906446890686144
1676104296.0778317,433,1676104296,72925568,map,-0.8852770328521729,-1.054046869277954,0.7409665584564209,0.11932049336273007,-0.09814706648956774,-0.001155666586168657,-0.9879921771575811
1676104296.111506,434,1676104296,101935552,map,-0.9185784459114075,-1.0723673105239868,0.767433226108551,0.12041648462121891,-0.10414388407328024,-0.0018568637048443823,-0.9872439441559673
1676104296.1443532,435,1676104296,131935552,map,-0.9499271512031555,-1.0887168645858765,0.7918806076049805,0.1214709207334373,-0.11812217515368499,-0.0033933692141575253,-0.9855356480921238
1676104296.1768348,436,1676104296,171935552,map,-0.9884552955627441,-1.1073030233383179,0.8212863802909851,0.11753211301835975,-0.12695827807833437,-0.004355118150327612,-0.9849106524755558
1676104296.2099726,437,1676104296,196946048,map,-1.0094085931777954,-1.1167069673538208,0.8374960422515869,0.11539650454544341,-0.12824833647642517,-0.004690396330231817,-0.9849944825572439
1676104296.2435195,438,1676104296,236946048,map,-1.0405359268188477,-1.1288689374923706,0.861926257610321,0.1094120017440302,-0.1305931638809831,-0.005521532182866612,-0.9853649533556547
1676104296.276337,439,1676104296,266946048,map,-1.0605323314666748,-1.1353473663330078,0.8787105679512024,0.10158595759283977,-0.12754755489933395,-0.005593266119032146,-0.986600614660297
1676104296.311966,440,1676104296,306956544,map,-1.082527756690979,-1.1405171155929565,0.8994420766830444,0.09481558926390397,-0.12282022080764932,-0.005490849277150683,-0.9878740395412052
1676104296.345542,441,1676104296,336956544,map,-1.0952513217926025,-1.1417479515075684,0.9137722849845886,0.08591822359003824,-0.11559007382539722,-0.005294908578423527,-0.9895600399221864
1676104296.3777597,442,1676104296,366956544,map,-1.104886770248413,-1.140869140625,0.9271414875984192,0.07326421447798737,-0.10294119082379646,-0.004539847787350855,-0.9919752650761032
1676104296.412112,443,1676104296,406967552,map,-1.1128405332565308,-1.1363842487335205,0.9435072541236877,0.06643309278401213,-0.09454849151400017,-0.004275966368824192,-0.9932919747704321
1676104296.4451585,444,1676104296,436967552,map,-1.115782618522644,-1.1313360929489136,0.9549842476844788,0.05187976491977618,-0.07632609082607258,-0.0036500013747403585,-0.9957256180971481
1676104296.4777434,445,1676104296,466967552,map,-1.1162354946136475,-1.1249116659164429,0.9655904769897461,0.03871522247063424,-0.057313537485875456,-0.0028099725370697042,-0.9976013635901254
1676104296.5108209,446,1676104296,496978560,map,-1.114213466644287,-1.117209792137146,0.9752485752105713,0.03286016515334363,-0.04793014357460519,-0.0025730651015900396,-0.9983067753936522
1676104296.543153,447,1676104296,536978560,map,-1.1078602075576782,-1.1051336526870728,0.9865217208862305,0.022406111885900845,-0.030255163606566556,-0.002131534716589823,-0.9992887969639561
1676104296.5809264,448,1676104296,566978560,map,-1.1011357307434082,-1.095342993736267,0.9939980506896973,0.014030253575966224,-0.014608356131436163,-0.0018563157958136993,-0.9997931261532375
1676104296.6107264,449,1676104296,596989568,map,-1.0931458473205566,-1.085180640220642,1.000797986984253,0.007863150993945673,-0.0026684705847311273,-0.0017383046199831822,-0.9999640737707977
1676104296.6432562,450,1676104296,636989568,map,-1.0803616046905518,-1.0709906816482544,1.0089329481124878,-0.0006512866889601791,0.014506985428664774,-0.001636351393435424,-0.9998932249184508
1676104296.6763308,451,1676104296,666989568,map,-1.0700111389160156,-1.0603796243667603,1.0145084857940674,-0.006592397334197902,0.028079033243712897,-0.001639259525982683,-0.999582644791774
1676104296.7128408,452,1676104296,707000832,map,-1.0544729232788086,-1.0460388660430908,1.0208892822265625,-0.010182546891330338,0.037119045584908264,-0.001654390244598093,-0.9992576504429066
1676104296.7454224,453,1676104296,737000832,map,-1.0420061349868774,-1.0354238748550415,1.0248823165893555,-0.014459441807910834,0.048235581127219256,-0.0016015802434139294,-0.9987300983400956
1676104296.7795098,454,1676104296,767000832,map,-1.0290113687515259,-1.025050401687622,1.028159499168396,-0.0175774761974589,0.058126840611778745,-0.0017101505251779765,-0.9981530236902846
1676104296.8114166,455,1676104296,807012864,map,-1.011596441268921,-1.0119959115982056,1.031657099723816,-0.018352517228903766,0.06171698555909962,-0.001693165345228058,-0.9979235341001428
1676104296.8455842,456,1676104296,837012864,map,-0.9987760782241821,-1.0029581785202026,1.033596396446228,-0.019980187688634996,0.06857253266887592,-0.0017841603911631018,-0.9974444508731194
1676104296.879871,457,1676104296,867012864,map,-0.9863179922103882,-0.9946526288986206,1.0350884199142456,-0.01997465591476794,0.07167637410718795,-0.00188733587631776,-0.9972261301978329
1676104296.911614,458,1676104296,907024896,map,-0.9708223342895508,-0.9849931597709656,1.0368386507034302,-0.019302598073481416,0.07211409547075391,-0.0019010336020837825,-0.9972077963187308
1676104296.944299,459,1676104296,936024896,map,-0.9603788256645203,-0.9790872931480408,1.0378639698028564,-0.01781704020148384,0.0721242923739155,-0.0018674004169721183,-0.9972347703017777
1676104296.976714,460,1676104296,966024896,map,-0.9509320855140686,-0.9740976095199585,1.0388561487197876,-0.014526588323033768,0.06939196486851489,-0.0017701254906089562,-0.9974821723025367
1676104297.0120764,461,1676104297,7037184,map,-0.9404086470603943,-0.9694148302078247,1.0400280952453613,-0.012909924776208958,0.06738856710811018,-0.0016613023277538067,-0.997641908858393
1676104297.046131,462,1676104297,37037184,map,-0.934103786945343,-0.9671941995620728,1.040897011756897,-0.00844994263260812,0.061176545740267534,-0.0013704047793316268,-0.9980902670328519
1676104297.0778353,463,1676104297,67037184,map,-0.9293608665466309,-0.9662285447120667,1.0417354106903076,-0.002761055851016793,0.052729174065418515,-0.0011928822534037365,-0.9986043742909877
1676104297.111725,464,1676104297,106049728,map,-0.9255277514457703,-0.9668554663658142,1.0427675247192383,0.00018490876112948402,0.048063433641565526,-0.0010006504773455685,-0.9988438105373781
1676104297.1434286,465,1676104297,136049728,map,-0.924124002456665,-0.9683975577354431,1.0434904098510742,0.006348548181059651,0.038186198520848036,-0.0007834256201203901,-0.9992501904507202
1676104297.1774328,466,1676104297,166049728,map,-0.9244462251663208,-0.9711513519287109,1.0441503524780273,0.013031696241180174,0.02772942184259249,-0.0005841131735123588,-0.999530424846469
1676104297.2127569,467,1676104297,206062016,map,-0.9271361827850342,-0.9763563275337219,1.0450541973114014,0.018947292773068027,0.017780061075204308,-0.0005332840742082631,-0.9996622601886112
1676104297.2457964,468,1676104297,236062016,map,-0.9305814504623413,-0.9811626076698303,1.0457897186279297,0.02315120330093942,0.010722819439857515,-0.0005645148889547848,-0.9996743563341338
1676104297.279297,469,1676104297,266062016,map,-0.9350511431694031,-0.9865651726722717,1.0466017723083496,0.02984181793869145,0.0004201355910248419,-0.0005916574593958239,-0.9995544064032718
1676104297.311901,470,1676104297,306074816,map,-0.9425252676010132,-0.9946296811103821,1.0477956533432007,0.03324480321975463,-0.004608153340807877,-0.0007079406144374293,-0.9994363530805929
1676104297.3447497,471,1676104297,336074816,map,-0.9491757154464722,-1.001266360282898,1.0487148761749268,0.038389424038922496,-0.012936433826833302,-0.000746378540279334,-0.9991788358361913
1676104297.3775275,472,1676104297,366074816,map,-0.9563080072402954,-1.0080828666687012,1.049609899520874,0.04445104108513147,-0.02274181976609635,-0.0008823442735754988,-0.998752309729261
1676104297.413185,473,1676104297,406087872,map,-0.9664664268493652,-1.0173323154449463,1.0504611730575562,0.04921437714652299,-0.029790870301375755,-0.0010516481640437593,-0.9983433588581597
1676104297.448179,474,1676104297,436087872,map,-0.9740982055664062,-1.024161458015442,1.0508836507797241,0.051697379701201356,-0.03386343071093036,-0.0011450034334953615,-0.9980879068093352
1676104297.4794133,475,1676104297,466087872,map,-0.9816539287567139,-1.0307968854904175,1.051108956336975,0.0540745462509128,-0.03794040073451042,-0.0013738186740610532,-0.9978149216715302
1676104297.5132096,476,1676104297,506100928,map,-0.9914107322692871,-1.0392086505889893,1.0511828660964966,0.054767483904369425,-0.03901173015971982,-0.0013819108689751426,-0.9977358541837237
1676104297.5462453,477,1676104297,536100928,map,-0.9982864856719971,-1.0450290441513062,1.0510153770446777,0.056751081865597124,-0.041409729106396787,-0.001664926956725759,-0.9975278594863225
1676104297.5790503,478,1676104297,566100928,map,-1.004830241203308,-1.0504063367843628,1.05069100856781,0.05789563617173814,-0.04291722309595527,-0.0016102203473586142,-0.997398468661394
1676104297.6118114,479,1676104297,606114496,map,-1.012728214263916,-1.0566614866256714,1.0501807928085327,0.05876401139921037,-0.04363991247319354,-0.0014211917317872966,-0.9973165773347373
1676104297.648591,480,1676104297,636114496,map,-1.0177626609802246,-1.0606276988983154,1.0498342514038086,0.05919912624361373,-0.043274845691015286,-0.0012111318388089674,-0.9973070521469739
1676104297.6787171,481,1676104297,666114496,map,-1.0220314264297485,-1.0639077425003052,1.0494568347930908,0.05834484518570134,-0.040129074723880005,-0.0010180992726290848,-0.997489126532541
1676104297.7122738,482,1676104297,706128064,map,-1.0265066623687744,-1.0671865940093994,1.0487995147705078,0.05764630397702629,-0.03872441443487654,-0.0008032346389205238,-0.9975854742282368
1676104297.7461214,483,1676104297,736128064,map,-1.0288679599761963,-1.0687962770462036,1.0481964349746704,0.055132077193046435,-0.03426893278444326,-0.0006379768459093047,-0.9978906595583042
1676104297.777571,484,1676104297,766128064,map,-1.0304350852966309,-1.0697333812713623,1.047642707824707,0.05211552780490104,-0.029432744578311642,-0.00021490678055697437,-0.998207266684318
1676104297.8139553,485,1676104297,806142144,map,-1.031408667564392,-1.0701289176940918,1.046897292137146,0.050117091518819476,-0.026204871550277134,-8.564239617403323e-05,-0.9983995827540733
1676104297.8466325,486,1676104297,836142144,map,-1.0313241481781006,-1.0697656869888306,1.0462476015090942,0.04693493860179618,-0.01964298919294557,0.00028980173036101056,-0.9987048102309892
1676104297.8792489,487,1676104297,866142144,map,-1.03046715259552,-1.0688450336456299,1.0456935167312622,0.04331843343490977,-0.014542519831770894,0.0005401118636672096,-0.9989553732453864
1676104297.9136248,488,1676104297,906156224,map,-1.028403639793396,-1.0668483972549438,1.045081377029419,0.04067196037701486,-0.010948071954634856,0.0006727901427794636,-0.999112412402938
1676104297.946437,489,1676104297,936156224,map,-1.0261551141738892,-1.0647237300872803,1.0446702241897583,0.03746918843144662,-0.0055239003089173405,0.0010237048034811608,-0.9992820113213459
1676104297.978587,490,1676104297,965156224,map,-1.0234709978103638,-1.0622203350067139,1.0442293882369995,0.033417532858753415,0.0005691984574957479,0.0014439931768318304,-0.9994403148843528
1676104298.011338,491,1676104298,6170560,map,-1.0192328691482544,-1.0583254098892212,1.0436245203018188,0.03189405335980816,0.0032521561982219198,0.001592813698923765,-0.9994847798095318
1676104298.0468817,492,1676104298,35170560,map,-1.0157526731491089,-1.0551371574401855,1.0431255102157593,0.02885982336871245,0.00847832260817976,0.001690678681166094,-0.9995461456209637
1676104298.07797,493,1676104298,65170560,map,-1.0120495557785034,-1.0517767667770386,1.0427180528640747,0.02532546965356336,0.013157295166831649,0.0018627221167875658,-0.9995909898677793
1676104298.1112103,494,1676104298,105185408,map,-1.0069693326950073,-1.0471289157867432,1.042205572128296,0.023761075113609392,0.015289937226011777,0.0019112331394235981,-0.9995989556221478
1676104298.1470203,495,1676104298,135185408,map,-1.0031203031539917,-1.0435514450073242,1.0417768955230713,0.020945755606725073,0.018543217806662956,0.0021408913169594485,-0.9996063313206371
1676104298.1800718,496,1676104298,165185408,map,-0.9993477463722229,-1.039913296699524,1.041340947151184,0.019432236511144993,0.021045876021589142,0.0023031566837263848,-0.9995870280640192
1676104298.212179,497,1676104298,205200256,map,-0.9946702122688293,-1.0352370738983154,1.0410276651382446,0.019035539671612204,0.022013712707827152,0.0024200720414956195,-0.9995735410724957
1676104298.2459023,498,1676104298,235200256,map,-0.9914277195930481,-1.0319310426712036,1.0409526824951172,0.017060034399206978,0.023447088336192815,0.002511024940582143,-0.9995764070581945
1676104298.2789693,499,1676104298,266200256,map,-0.9884854555130005,-1.028804063796997,1.0409907102584839,0.015496008644177477,0.023521715587654177,0.002689769725116847,-0.999599629971724
1676104298.3134623,500,1676104298,305215616,map,-0.9850266575813293,-1.0250297784805298,1.0409184694290161,0.015146946139904477,0.023175033721777535,0.0027303149933843233,-0.9996130326695505
1676104298.3465304,501,1676104298,335215616,map,-0.9828594923019409,-1.022509217262268,1.0407878160476685,0.014091397416739865,0.022336242289237404,0.0028215629204104116,-0.9996472980573898
1676104298.3798225,502,1676104298,365215616,map,-0.9810559749603271,-1.0202804803848267,1.0406584739685059,0.014358242285552495,0.02062067589402572,0.0028862161860260817,-0.9996801725992283
1676104298.412698,503,1676104298,405230720,map,-0.9792144298553467,-1.0178229808807373,1.040629506111145,0.014576228255592745,0.01964180233110617,0.00291297943483054,-0.9996966520169961
1676104298.4466205,504,1676104298,435230720,map,-0.9783028960227966,-1.0163809061050415,1.0406216382980347,0.014401156667687442,0.018739044659508285,0.002956854304130365,-0.9997163345952506
1676104298.478939,505,1676104298,465230720,map,-0.977731466293335,-1.0152345895767212,1.0406265258789062,0.015955016574044793,0.016269591884456338,0.002901515492035542,-0.9997361857608993
1676104298.513373,506,1676104298,505246848,map,-0.9775276184082031,-1.0142576694488525,1.0405710935592651,0.01683883069838266,0.014956883527137517,0.0028569241263110383,-0.9997422549070849
1676104298.545732,507,1676104298,535246848,map,-0.9777393341064453,-1.0138626098632812,1.0405548810958862,0.01870576675915865,0.012252805687813895,0.002721717036288096,-0.9997463010045419
1676104298.579214,508,1676104298,565246848,map,-0.978217601776123,-1.0137302875518799,1.0405339002609253,0.020727429910036767,0.010005836021508663,0.00243406479520122,-0.9997321818102908
1676104298.6119118,509,1676104298,605262720,map,-0.9792959094047546,-1.014007329940796,1.0405511856079102,0.02171288677776649,0.008794119065904271,0.002379568920076623,-0.9997227830630728
1676104298.6464312,510,1676104298,635262720,map,-0.9802713990211487,-1.0144939422607422,1.0405713319778442,0.023330127209580293,0.005771275967896089,0.002239641383020458,-0.9997087060156702
1676104298.6778343,511,1676104298,665262720,map,-0.9815590381622314,-1.0152523517608643,1.0406135320663452,0.025356699151220914,0.0031270498638624115,0.001955529477208546,-0.9996717432295261
1676104298.7130902,512,1676104298,705278848,map,-0.9835249185562134,-1.016544222831726,1.0406724214553833,0.026414567926687147,0.0019606766610829125,0.0017939384600177914,-0.9996475509384809
1676104298.7454686,513,1676104298,735278848,map,-0.9850860834121704,-1.0176966190338135,1.0407522916793823,0.028644897490364668,-0.0005317773243740194,0.0015326701460987395,-0.999588334616323
1676104298.7785304,514,1676104298,765278848,map,-0.9866859912872314,-1.0189480781555176,1.0408183336257935,0.030316444136484755,-0.001603666512415204,0.0012632674904171281,-0.9995382641602921
1676104298.8181303,515,1676104298,805294464,map,-0.9887478947639465,-1.0206992626190186,1.0407413244247437,0.03131167742670774,-0.0019062163473616389,0.0010453682836157902,-0.9995073283734851
1676104298.845606,516,1676104298,835294464,map,-0.9901939630508423,-1.0219708681106567,1.0405588150024414,0.03307382662623609,-0.003116679104950581,0.0006585023611342798,-0.9994478591702363
1676104298.8780978,517,1676104298,865294464,map,-0.9916313886642456,-1.0232926607131958,1.0404537916183472,0.03387764868685783,-0.004088509040448871,0.00039546387957781605,-0.999417555586157
1676104298.9151525,518,1676104298,905310592,map,-0.9934703707695007,-1.0250948667526245,1.040571689605713,0.033476791327759735,-0.004209611424199846,0.0002514480982160822,-0.9994306632560438
1676104298.9472647,519,1676104298,935310592,map,-0.9947187304496765,-1.0263667106628418,1.0407620668411255,0.03322483483318358,-0.0038897379174264142,0.00010132102382025812,-0.9994403570312013
1676104298.980375,520,1676104298,965310592,map,-0.9957243204116821,-1.0274691581726074,1.0409413576126099,0.033858770849992,-0.0036356424702883305,-7.139676137737592e-05,-0.9994200422502191
1676104299.0157313,521,1676104299,5325952,map,-0.9966614842414856,-1.0286258459091187,1.041035532951355,0.03430704473075387,-0.0035511406732020197,-0.0002616897824040877,-0.9994050801189976
1676104299.0473397,522,1676104299,34325952,map,-0.9972123503684998,-1.0294345617294312,1.0409774780273438,0.03463247635317467,-0.0023290690930263614,-0.0006125622962572454,-0.9993972829520232
1676104299.080974,523,1676104299,74325952,map,-0.9977087378501892,-1.0303248167037964,1.0407816171646118,0.034631917907431906,-0.0008547960397175734,-0.0008518721021021102,-0.9993994745881458
1676104299.114247,524,1676104299,104341824,map,-0.9979396462440491,-1.030842900276184,1.0406274795532227,0.03440397457979483,-0.0001223470328710014,-0.0010811931048498767,-0.9994074403425143
1676104299.1464794,525,1676104299,135341824,map,-0.99797123670578,-1.031176209449768,1.0404914617538452,0.03362373763218198,0.0015580306951011361,-0.0013094604363848787,-0.9994325598642269
1676104299.1808243,526,1676104299,175341824,map,-0.9977689385414124,-1.0313584804534912,1.040350317955017,0.03277875653981132,0.0028563248508087454,-0.0014727373275161024,-0.9994575107985453
1676104299.2115145,527,1676104299,204358464,map,-0.9975541234016418,-1.0313149690628052,1.0402973890304565,0.03222434899196493,0.0033024281688723038,-0.0015711502187889933,-0.999473990216313
1676104299.2456741,528,1676104299,234358464,map,-0.9972739219665527,-1.0311484336853027,1.0402981042861938,0.030858102262656607,0.004713095042333071,-0.0017752252592787496,-0.9995110794430025
1676104299.2787898,529,1676104299,264358464,map,-0.9969478249549866,-1.0308239459991455,1.0403789281845093,0.02978054827475776,0.0064108952238083996,-0.0020917902384441356,-0.9995337965943499
1676104299.3166723,530,1676104299,304375104,map,-0.9963728785514832,-1.0301246643066406,1.0407116413116455,0.028565727928159493,0.007450310923616448,-0.0022740332114051815,-0.9995616135143671
1676104299.347332,531,1676104299,334375104,map,-0.9958869218826294,-1.0295219421386719,1.0410066843032837,0.0278550971594069,0.007912370116563918,-0.0024709432876481407,-0.9995776293168013
1676104299.3814127,532,1676104299,374375104,map,-0.995209813117981,-1.0285645723342896,1.0412209033966064,0.02653290574059361,0.009159795660296914,-0.002459057876368011,-0.9996030017196048
1676104299.4166648,533,1676104299,404393024,map,-0.994708776473999,-1.0278263092041016,1.0411643981933594,0.02545164612274834,0.009901562413386935,-0.0024945033759657285,-0.9996239487033147
1676104299.4475026,534,1676104299,434393024,map,-0.9941732287406921,-1.0270293951034546,1.0408694744110107,0.024351223518265276,0.010982505271323864,-0.0024447700947227966,-0.99964021738684
1676104299.4810994,535,1676104299,474393024,map,-0.9934310913085938,-1.0258768796920776,1.040278673171997,0.02418680536950174,0.011084008711972765,-0.0024820700556549293,-0.9996429569319931
1676104299.5134885,536,1676104299,504409920,map,-0.9929792284965515,-1.0250695943832397,1.0398473739624023,0.023696160735096262,0.01101887075759918,-0.00251081420633941,-0.9996553481054554
1676104299.5463827,537,1676104299,534409920,map,-0.9926030039787292,-1.024248719215393,1.0395164489746094,0.0228036159363643,0.011765263456585523,-0.0025060094656091424,-0.9996676549852206
1676104299.5796561,538,1676104299,564409920,map,-0.992220938205719,-1.0234367847442627,1.0393327474594116,0.02240640395039014,0.011992505105049341,-0.0025100134162177176,-0.9996739348656487
1676104299.61389,539,1676104299,604427840,map,-0.9917349219322205,-1.0224000215530396,1.0392853021621704,0.02219348103516339,0.011711456419016287,-0.002430355872532124,-0.9996821956479569
1676104299.6466997,540,1676104299,634427840,map,-0.9914743900299072,-1.0216434001922607,1.039261817932129,0.02102947036080628,0.011720951643004636,-0.0022649716389753793,-0.9997076523444575
1676104299.6790564,541,1676104299,664427840,map,-0.991226851940155,-1.0208543539047241,1.0392037630081177,0.021684208481532862,0.010991700528288828,-0.002260251191942118,-0.9997019203730599
1676104299.716017,542,1676104299,704443968,map,-0.9908778071403503,-1.0197722911834717,1.0390594005584717,0.022167476100359913,0.010503678218114139,-0.0022212232102210225,-0.9996966941638445
1676104299.7484462,543,1676104299,734443968,map,-0.9905806183815002,-1.0190321207046509,1.0389111042022705,0.022118658195983153,0.009753141627811313,-0.002330931456894957,-0.9997050813866982
1676104299.7811766,544,1676104299,774443968,map,-0.9900467395782471,-1.0180890560150146,1.038552165031433,0.022229773093726066,0.009109224710439906,-0.0023776723118935144,-0.9997085795751247
1676104299.8140817,545,1676104299,804462144,map,-0.989615261554718,-1.0174074172973633,1.0380618572235107,0.022244817543010928,0.008765205669281288,-0.0024079758959728104,-0.9997112348265809
1676104299.8476639,546,1676104299,834462144,map,-0.9891477823257446,-1.016746997833252,1.037325382232666,0.022196644353707485,0.008577266944870642,-0.0024040983859098595,-0.9997140165185825
1676104299.8798308,547,1676104299,864462144,map,-0.9886580109596252,-1.016094446182251,1.03634512424469,0.02303461392270165,0.008155926875940758,-0.002571547815043573,-0.9996981271566939
1676104299.91374,548,1676104299,904480832,map,-0.9881804585456848,-1.015167236328125,1.034885048866272,0.02355963919023538,0.00786884427585331,-0.0026035794199118834,-0.9996880962067484
1676104299.9473512,549,1676104299,934480832,map,-0.9879600405693054,-1.0145621299743652,1.0339233875274658,0.023364110081825724,0.007979789927657667,-0.002835977142600994,-0.9996912150735381
1676104299.9789681,550,1676104299,964480832,map,-0.9878414273262024,-1.0139851570129395,1.0332263708114624,0.022012966412263486,0.00911226257625523,-0.003101755169310709,-0.9997113612671263
1676104300.0156252,551,1676104300,4500032,map,-0.9876663684844971,-1.0131398439407349,1.0326428413391113,0.020803572801683254,0.009765818280317726,-0.003334658654181848,-0.9997304116426533
1676104300.0483105,552,1676104300,34500032,map,-0.9875674247741699,-1.0126036405563354,1.0323771238327026,0.020012253537817822,0.009943221280417414,-0.0034305427345441212,-0.9997444465432074
1676104300.0812728,553,1676104300,74500032,map,-0.9875191450119019,-1.0119271278381348,1.0320438146591187,0.01908624611700173,0.010272882404940736,-0.0034063925903474535,-0.9997593243807317
1676104300.115297,554,1676104300,104520256,map,-0.9874486327171326,-1.0114550590515137,1.031732201576233,0.018874487837737347,0.010169735237199912,-0.003404032366830743,-0.999764382002553
1676104300.1485248,555,1676104300,133520256,map,-0.9873532652854919,-1.011080265045166,1.031285047531128,0.019271944802268473,0.009896656256802463,-0.0034232091829032004,-0.9997594508212773
