Time,header.seq,header.stamp.secs,header.stamp.nsecs,header.frame_id,pose.position.x,pose.position.y,pose.position.z,pose.orientation.x,pose.orientation.y,pose.orientation.z,pose.orientation.w
1676104290.2580552,1963,1676104290,256943702,world,-0.36018872261047363,-0.6238923668861389,0.1392437219619751,-0.00817031692713499,0.012209080159664154,0.019096670672297478,-0.9997097253799438
1676104290.266965,1964,1676104290,266113519,world,-0.3601808547973633,-0.6239010691642761,0.13923640549182892,-0.008195562288165092,0.012295938096940517,0.0191140528768301,-0.9997081756591797
1676104290.2698424,1965,1676104290,268457412,world,-0.36018869280815125,-0.6239071488380432,0.13924524188041687,-0.008311220444738865,0.01228481624275446,0.019279515370726585,-0.999704122543335
1676104290.2862113,1967,1676104290,276233673,world,-0.36019137501716614,-0.6239116787910461,0.13924919068813324,-0.008005688898265362,0.012457084842026234,0.01908879540860653,-0.9997081756591797
1676104290.286851,1968,1676104290,285716295,world,-0.3601873815059662,-0.6238945722579956,0.13924790918827057,-0.00821442250162363,0.012231235392391682,0.019139688462018967,-0.9997082948684692
1676104290.2880368,1969,1676104290,287177562,world,-0.36017701029777527,-0.6238962411880493,0.1392369121313095,-0.008117237128317356,0.012322946451604366,0.019029181450605392,-0.9997100234031677
1676104290.2895625,1970,1676104290,288531780,world,-0.36018696427345276,-0.6238915324211121,0.1392323076725006,-0.008162756450474262,0.012190001085400581,0.019087092950940132,-0.9997102618217468
1676104290.2963786,1971,1676104290,294763326,world,-0.36018869280815125,-0.6239126324653625,0.13924483954906464,-0.008292664773762226,0.012213516049087048,0.019270826131105423,-0.9997053742408752
1676104290.296881,1972,1676104290,295917749,world,-0.3601837754249573,-0.6238893270492554,0.13924643397331238,-0.008419889956712723,0.012308990582823753,0.01902913488447666,-0.9997077584266663
1676104290.2998543,1973,1676104290,298075199,world,-0.3601808547973633,-0.623893141746521,0.13924595713615417,-0.008386663161218166,0.012238039635121822,0.01901305466890335,-0.9997091889381409
1676104290.30936,1974,1676104290,306689262,world,-0.36017704010009766,-0.623901903629303,0.1392333060503006,-0.008188102394342422,0.012319756671786308,0.019025808200240135,-0.9997096061706543
1676104290.3111322,1975,1676104290,309075117,world,-0.3601820468902588,-0.6238955855369568,0.13924112915992737,-0.008257030509412289,0.012283040210604668,0.019059045240283012,-0.999708890914917
1676104290.3168914,1976,1676104290,314524888,world,-0.36018213629722595,-0.6239030361175537,0.1392412781715393,-0.00827326625585556,0.012289882637560368,0.0191496629267931,-0.9997068643569946
1676104290.31922,1977,1676104290,318401098,world,-0.3601882755756378,-0.6238915324211121,0.13924714922904968,-0.008281332440674305,0.012236922048032284,0.019077343866229057,-0.9997088313102722
1676104290.3220677,1978,1676104290,320392370,world,-0.36018022894859314,-0.6238968968391418,0.13924038410186768,-0.008225069381296635,0.012190211564302444,0.019165098667144775,-0.9997082352638245
1676104290.327227,1979,1676104290,325847864,world,-0.36018818616867065,-0.6239026784896851,0.1392483413219452,-0.008283252827823162,0.012252428568899632,0.019228652119636536,-0.9997057318687439
1676104290.3287392,1980,1676104290,327757596,world,-0.36018553376197815,-0.6238966584205627,0.13924477994441986,-0.00819048285484314,0.012178233824670315,0.019176995381712914,-0.9997084140777588
1676104290.3357172,1981,1676104290,333982467,world,-0.3601851165294647,-0.623894214630127,0.13923953473567963,-0.008328122086822987,0.012230541557073593,0.01911763846874237,-0.999707818031311
1676104290.3377652,1982,1676104290,336379289,world,-0.36018359661102295,-0.6238996982574463,0.139231875538826,-0.008165636099874973,0.012189212255179882,0.0190935917198658,-0.9997100830078125
1676104290.3392494,1983,1676104290,338423967,world,-0.3601834177970886,-0.6239004135131836,0.13923609256744385,-0.008381030522286892,0.012352103367447853,0.01901506446301937,-0.999707818031311
1676104290.3461916,1984,1676104290,345515012,world,-0.3601866662502289,-0.6238893866539001,0.13924267888069153,-0.008290734142065048,0.012220428325235844,0.019069626927375793,-0.9997091293334961
1676104290.3484173,1985,1676104290,347157955,world,-0.36018773913383484,-0.6239122152328491,0.13924531638622284,-0.008005834184587002,0.012409179471433163,0.019203638657927513,-0.9997065663337708
1676104290.3557703,1986,1676104290,354542016,world,-0.3601771593093872,-0.6238964200019836,0.13924509286880493,-0.008250206708908081,0.01228784304112196,0.019026998430490494,-0.9997094869613647
1676104290.3574324,1987,1676104290,356231212,world,-0.36018121242523193,-0.6238922476768494,0.13924209773540497,-0.008347250521183014,0.012212170287966728,0.019091622903943062,-0.999708354473114
1676104290.3659015,1988,1676104290,364388942,world,-0.360187828540802,-0.6238928437232971,0.1392448991537094,-0.008455273695290089,0.012161536142230034,0.019194364547729492,-0.9997060894966125
1676104290.368261,1989,1676104290,366231918,world,-0.3601840138435364,-0.6238969564437866,0.1392362117767334,-0.008095689117908478,0.012185716070234776,0.01904791034758091,-0.9997115135192871
1676104290.3702366,1990,1676104290,368926286,world,-0.3601791262626648,-0.623887836933136,0.13923902809619904,-0.008287995122373104,0.01222359761595726,0.019101053476333618,-0.9997084736824036
1676104290.376261,1991,1676104290,374097824,world,-0.36018097400665283,-0.6238934397697449,0.139242023229599,-0.008331997320055962,0.012236276641488075,0.01901964843273163,-0.9997095465660095
1676104290.3779428,1992,1676104290,377221345,world,-0.3601805865764618,-0.6238877177238464,0.1392359435558319,-0.008420196361839771,0.012227269820868969,0.01909763365983963,-0.9997074604034424
1676104290.3860338,1993,1676104290,384511947,world,-0.3601836860179901,-0.6238988637924194,0.13923485577106476,-0.008092871867120266,0.012325093150138855,0.019083714112639427,-0.9997091889381409
1676104290.388101,1994,1676104290,387126207,world,-0.36018234491348267,-0.6238924264907837,0.13923929631710052,-0.008166682906448841,0.012272297404706478,0.019001638516783714,-0.9997108578681946
1676104290.3959377,1995,1676104290,393992900,world,-0.3601904809474945,-0.6239139437675476,0.13924096524715424,-0.008146790787577629,0.012340829707682133,0.019192490726709366,-0.999706506729126
1676104290.3968787,1996,1676104290,395254373,world,-0.3601873219013214,-0.6238955855369568,0.1392403393983841,-0.008182816207408905,0.012208803556859493,0.019127871841192245,-0.9997090697288513
1676104290.3979745,1997,1676104290,397276878,world,-0.3601813018321991,-0.6238952875137329,0.13924260437488556,-0.008181929588317871,0.0121711241081357,0.019105123355984688,-0.9997099041938782
1676104290.408494,1998,1676104290,405935525,world,-0.360185444355011,-0.6238909363746643,0.13923346996307373,-0.008238584734499454,0.012291737832129002,0.018957629799842834,-0.9997107982635498
1676104290.4115942,1999,1676104290,410066366,world,-0.36018165946006775,-0.6238967180252075,0.13924500346183777,-0.008321684785187244,0.012330444529652596,0.01903100684285164,-0.9997082948684692
1676104290.4181743,2000,1676104290,415843486,world,-0.3601827621459961,-0.6238957643508911,0.13924041390419006,-0.008082733489573002,0.012246532365679741,0.01909952610731125,-0.9997099041938782
1676104290.4187105,2001,1676104290,417616605,world,-0.3601824939250946,-0.6238961815834045,0.13924026489257812,-0.008329908363521099,0.012163190171122551,0.019084669649600983,-0.9997092485427856
1676104290.4265983,2002,1676104290,424827814,world,-0.3601745069026947,-0.6238941550254822,0.1392419934272766,-0.008332316763699055,0.01230476051568985,0.01910615898668766,-0.9997071027755737
1676104290.436207,2003,1676104290,434140205,world,-0.3601774275302887,-0.6239022612571716,0.13924401998519897,-0.00801707711070776,0.012234972789883614,0.019007358700037003,-0.999712347984314
1676104290.438966,2004,1676104290,437002658,world,-0.3601890504360199,-0.6239081025123596,0.13924634456634521,-0.008231937885284424,0.012306064367294312,0.019268104806542397,-0.9997047185897827
1676104290.4432936,2005,1676104290,439736604,world,-0.36018428206443787,-0.6238991022109985,0.13923713564872742,-0.008247323334217072,0.012353132478892803,0.01900256611406803,-0.9997091889381409
1676104290.4500809,2006,1676104290,446299076,world,-0.3601815104484558,-0.6239060759544373,0.13924738764762878,-0.008280660025775433,0.012249179184436798,0.01929500512778759,-0.9997045397758484
1676104290.452376,2007,1676104290,451404809,world,-0.3601832091808319,-0.6239073872566223,0.13924957811832428,-0.008321690373122692,0.012311547994613647,0.019226957112550735,-0.9997047185897827
1676104290.4560485,2008,1676104290,455387115,world,-0.3601835370063782,-0.6238979697227478,0.13923905789852142,-0.008199579082429409,0.012296151369810104,0.019071830436587334,-0.999708890914917
1676104290.4585762,2009,1676104290,457340002,world,-0.3601861298084259,-0.6238978505134583,0.13923461735248566,-0.008190413936972618,0.012204126454889774,0.018972842022776604,-0.9997120499610901
1676104290.4657772,2010,1676104290,464994907,world,-0.3601856529712677,-0.6238996386528015,0.1392362117767334,-0.00822254829108715,0.012270686216652393,0.019043421372771263,-0.9997095465660095
1676104290.469119,2011,1676104290,467519998,world,-0.3601870834827423,-0.6239020824432373,0.13923819363117218,-0.008156667463481426,0.01220877468585968,0.019045503810048103,-0.9997107982635498
1676104290.4783456,2012,1676104290,474096059,world,-0.3601797819137573,-0.6238928437232971,0.13924053311347961,-0.008056220598518848,0.012217117473483086,0.019031845033168793,-0.999711811542511
1676104290.4783626,2013,1676104290,476424932,world,-0.36018139123916626,-0.6239046454429626,0.13925015926361084,-0.008248237892985344,0.01223925594240427,0.019168315455317497,-0.9997074007987976
1676104290.4804344,2014,1676104290,477782011,world,-0.3601893484592438,-0.6238948702812195,0.13924343883991241,-0.00812891498208046,0.012265135534107685,0.019081728532910347,-0.9997096657752991
1676104290.4876838,2015,1676104290,485970020,world,-0.3601906895637512,-0.6238946914672852,0.13924410939216614,-0.008208283223211765,0.012241926975548267,0.019077230244874954,-0.99970942735672
1676104290.48943,2016,1676104290,488590002,world,-0.36017900705337524,-0.6238951086997986,0.1392364501953125,-0.00813624169677496,0.012260762974619865,0.019075926393270493,-0.9997097849845886
1676104290.4920473,2017,1676104290,490137577,world,-0.36018064618110657,-0.6238999366760254,0.13923396170139313,-0.008391416631639004,0.0122984042391181,0.019017202779650688,-0.999708354473114
1676104290.495554,2018,1676104290,494753360,world,-0.3601857125759125,-0.6238963007926941,0.13923302292823792,-0.008154600858688354,0.012203041464090347,0.019078295677900314,-0.9997103214263916
1676104290.498351,2019,1676104290,496626853,world,-0.3601800799369812,-0.6238961815834045,0.13924254477024078,-0.008186310529708862,0.012261658906936646,0.01903178170323372,-0.9997102618217468
1676104290.5048337,2020,1676104290,503925323,world,-0.3601837456226349,-0.6238922476768494,0.13924214243888855,-0.008420533500611782,0.012236488983035088,0.019095832481980324,-0.9997074007987976
1676104290.5182471,2021,1676104290,514456987,world,-0.36018794775009155,-0.6239067912101746,0.13924160599708557,-0.008197750896215439,0.012248595245182514,0.019192209467291832,-0.9997071623802185
1676104290.5188606,2022,1676104290,517160892,world,-0.3601822257041931,-0.6238987445831299,0.13924193382263184,-0.008468805812299252,0.012201621197164059,0.01918322592973709,-0.9997056722640991
1676104290.5202744,2023,1676104290,519385099,world,-0.3601900041103363,-0.6238975524902344,0.1392483115196228,-0.00827004760503769,0.012264745309948921,0.019034959375858307,-0.9997094869613647
1676104290.5260808,2024,1676104290,524598121,world,-0.36019134521484375,-0.6238981485366821,0.13924098014831543,-0.00803858321160078,0.012180761434137821,0.019086088985204697,-0.9997113347053528
1676104290.5286946,2025,1676104290,528168916,world,-0.3601820468902588,-0.6239005327224731,0.13924410939216614,-0.008288776502013206,0.012322386726737022,0.019071312621235847,-0.999707818031311
1676104290.5346804,2026,1676104290,534088373,world,-0.36018362641334534,-0.6239057183265686,0.13925015926361084,-0.008154995739459991,0.012327959761023521,0.019269045442342758,-0.9997051358222961
1676104290.5359445,2027,1676104290,535178661,world,-0.36018627882003784,-0.6239040493965149,0.13923883438110352,-0.008250027894973755,0.012222537770867348,0.019103001803159714,-0.9997088313102722
1676104290.5485857,2029,1676104290,546654224,world,-0.3601856231689453,-0.6238996982574463,0.13923683762550354,-0.008222108706831932,0.012264994904398918,0.01908704824745655,-0.9997088313102722
1676104290.5564113,2030,1676104290,554213523,world,-0.3601873815059662,-0.623895525932312,0.13924147188663483,-0.008351518772542477,0.012204242870211601,0.01907993294298649,-0.9997085928916931
1676104290.5593102,2031,1676104290,555768728,world,-0.36018362641334534,-0.6238908767700195,0.13924020528793335,-0.00820422638207674,0.012249802239239216,0.019025452435016632,-0.9997103810310364
1676104290.5593603,2032,1676104290,557531595,world,-0.36018106341362,-0.6238940358161926,0.13924244046211243,-0.008261280134320259,0.012261946685612202,0.01904110610485077,-0.99970942735672
1676104290.5662394,2033,1676104290,564035654,world,-0.36018961668014526,-0.6239036321640015,0.13924337923526764,-0.008076829835772514,0.012270385399460793,0.01928272657096386,-0.9997062087059021
1676104290.5702908,2034,1676104290,568342685,world,-0.36018380522727966,-0.6238920092582703,0.1392478495836258,-0.008107964880764484,0.012274457141757011,0.01908845640718937,-0.9997096657752991
1676104290.5768259,2035,1676104290,574506998,world,-0.3601810038089752,-0.623897910118103,0.1392354965209961,-0.008372044190764427,0.012377011589705944,0.01902993582189083,-0.9997073411941528
1676104290.5799496,2036,1676104290,578120470,world,-0.36018750071525574,-0.6238947510719299,0.1392405927181244,-0.008270305581390858,0.012229670770466328,0.019143695011734962,-0.9997077584266663
1676104290.58624,2038,1676104290,585574388,world,-0.36018913984298706,-0.6239035725593567,0.13923189043998718,-0.008107556961476803,0.01221601665019989,0.019034501165151596,-0.9997113347053528
1676104290.597578,2039,1676104290,594278097,world,-0.36017924547195435,-0.6238909959793091,0.13923799991607666,-0.008469019085168839,0.012270060367882252,0.019037317484617233,-0.9997076988220215
1676104290.5985603,2040,1676104290,597390651,world,-0.3601788282394409,-0.6238941550254822,0.13924068212509155,-0.008130498230457306,0.012260260991752148,0.01906679943203926,-0.999709963798523
1676104290.600445,2041,1676104290,599292278,world,-0.36018505692481995,-0.6238976716995239,0.13924042880535126,-0.0083031440153718,0.012292951345443726,0.019079681485891342,-0.9997079968452454
1676104290.609682,2042,1676104290,604175329,world,-0.3601813018321991,-0.6239101886749268,0.13924197852611542,-0.008123785257339478,0.01231863722205162,0.019163575023412704,-0.9997075200080872
1676104290.6266935,2043,1676104290,624320745,world,-0.3601858913898468,-0.6238945126533508,0.13924112915992737,-0.008154856972396374,0.012250537052750587,0.019087502732872963,-0.9997094869613647
1676104290.6272867,2044,1676104290,625830173,world,-0.36018800735473633,-0.6239091157913208,0.13924673199653625,-0.008146773092448711,0.012345565482974052,0.019212855026125908,-0.9997060894966125
1676104290.6307433,2045,1676104290,629815340,world,-0.36017999053001404,-0.6239027976989746,0.13923422992229462,-0.007922399789094925,0.012311536818742752,0.01908300258219242,-0.9997107982635498
1676104290.6365757,2046,1676104290,635017395,world,-0.3601765036582947,-0.6238963603973389,0.13923591375350952,-0.008201905526220798,0.012167885899543762,0.019115891307592392,-0.9997096657752991
1676104290.6381447,2047,1676104290,637466907,world,-0.3601841330528259,-0.6239010095596313,0.13923396170139313,-0.00818299688398838,0.012207485735416412,0.019114172086119652,-0.9997093677520752
1676104290.6460807,2048,1676104290,644057273,world,-0.3601857125759125,-0.6238968968391418,0.1392367035150528,-0.00832462776452303,0.012262873351573944,0.019119756296277046,-0.9997074007987976
1676104290.6503475,2049,1676104290,647102832,world,-0.3601776361465454,-0.6238983273506165,0.1392355114221573,-0.008299890905618668,0.012311513535678387,0.01905285194516182,-0.9997082352638245
1676104290.656183,2050,1676104290,654110670,world,-0.3601848781108856,-0.623903214931488,0.13924725353717804,-0.008114299736917019,0.012268193066120148,0.019235601648688316,-0.9997068643569946
1676104290.657826,2051,1676104290,655550241,world,-0.36017906665802,-0.6238997578620911,0.13923431932926178,-0.008347444236278534,0.012154588475823402,0.019231591373682022,-0.9997063279151917
1676104290.6677573,2052,1676104290,664244890,world,-0.36018890142440796,-0.6239083409309387,0.13925054669380188,-0.008140034973621368,0.012299520894885063,0.01916111633181572,-0.9997076392173767
1676104290.6689122,2053,1676104290,668188095,world,-0.3601861894130707,-0.6239016056060791,0.13923926651477814,-0.008323290385305882,0.012259992770850658,0.019096899777650833,-0.999707818031311
1676104290.6705608,2054,1676104290,669987916,world,-0.3601830005645752,-0.6238936185836792,0.1392366737127304,-0.008202307857573032,0.012186435051262379,0.01906348019838333,-0.9997103810310364
1676104290.6769273,2055,1676104290,674217462,world,-0.3601777255535126,-0.6238945126533508,0.13924042880535126,-0.008249842561781406,0.012260962277650833,0.019061220809817314,-0.9997091293334961
1676104290.6803913,2056,1676104290,678004741,world,-0.3601810038089752,-0.6238946914672852,0.13923880457878113,-0.008180774748325348,0.01218174584209919,0.019075267016887665,-0.9997103810310364
1676104290.6866934,2057,1676104290,684222459,world,-0.3601839244365692,-0.6238926649093628,0.1392408311367035,-0.00823307503014803,0.012226036749780178,0.019063647836446762,-0.9997096061706543
1676104290.690368,2059,1676104290,688150882,world,-0.36018338799476624,-0.6238945722579956,0.13923925161361694,-0.008202376775443554,0.012240462936460972,0.01901302859187126,-0.9997106790542603
1676104290.6953712,2060,1676104290,693819999,world,-0.3601854741573334,-0.6239035725593567,0.13923925161361694,-0.008153260685503483,0.012246320024132729,0.01901349052786827,-0.9997109770774841
1676104290.6971607,2061,1676104290,695655345,world,-0.360185444355011,-0.623894989490509,0.13924196362495422,-0.008089925162494183,0.012309720739722252,0.01906963810324669,-0.9997096657752991
1676104290.736566,2062,1676104290,735262870,world,-0.36018064618110657,-0.6238961815834045,0.1392347663640976,-0.00811106525361538,0.0122837508097291,0.019106239080429077,-0.9997091293334961
1676104290.7391057,2063,1676104290,737150669,world,-0.36018604040145874,-0.6238999366760254,0.13923999667167664,-0.008029949851334095,0.012211297638714314,0.019066806882619858,-0.9997114539146423
1676104290.7413318,2064,1676104290,739346027,world,-0.36017951369285583,-0.6238850951194763,0.1392383873462677,-0.008386838249862194,0.012300786562263966,0.019058506935834885,-0.9997075796127319
1676104290.7520564,2065,1676104290,750548124,world,-0.36018118262290955,-0.623893141746521,0.1392442137002945,-0.00822564959526062,0.012086057104170322,0.01916707307100296,-0.99970942735672
1676104290.7554018,2066,1676104290,752402782,world,-0.3601846992969513,-0.6239025592803955,0.1392422467470169,-0.008118271827697754,0.012377100065350533,0.019222401082515717,-0.9997056722640991
1676104290.7554483,2067,1676104290,752924203,world,-0.36017414927482605,-0.6238889694213867,0.13923592865467072,-0.008289718069136143,0.012222887948155403,0.01904573291540146,-0.9997095465660095
1676104290.757857,2068,1676104290,756137609,world,-0.3601766526699066,-0.6238929033279419,0.1392328292131424,-0.00826014019548893,0.012322936207056046,0.01903594098985195,-0.9997088313102722
1676104290.7595065,2069,1676104290,758844852,world,-0.36017918586730957,-0.6239062547683716,0.13924767076969147,-0.008190740831196308,0.012397517450153828,0.019252285361289978,-0.9997042417526245
1676104290.7623065,2070,1676104290,760725736,world,-0.3601815402507782,-0.6238870024681091,0.13924618065357208,-0.008262417279183865,0.01227421872317791,0.019111525267362595,-0.9997078776359558
1676104290.7630014,2071,1676104290,761657238,world,-0.3601882755756378,-0.6239081621170044,0.13924430310726166,-0.008064314723014832,0.012300985865294933,0.019226515665650368,-0.9997069835662842
1676104290.7652524,2072,1676104290,764028787,world,-0.36018213629722595,-0.6238918304443359,0.13923676311969757,-0.00835326872766018,0.012239806354045868,0.01908077672123909,-0.9997081160545349
1676104290.7679334,2073,1676104290,766475439,world,-0.36017653346061707,-0.6239086985588074,0.13923676311969757,-0.008270499296486378,0.012343527749180794,0.01925300434231758,-0.9997042417526245
1676104290.7787724,2076,1676104290,778148174,world,-0.3601865768432617,-0.6238902807235718,0.1392398625612259,-0.008362733758985996,0.012190554291009903,0.01910989359021187,-0.9997081160545349
1676104290.7863169,2077,1676104290,784571409,world,-0.3601817488670349,-0.6239101886749268,0.13925041258335114,-0.007989182136952877,0.012333040125668049,0.019179105758666992,-0.9997080564498901
1676104290.7893603,2078,1676104290,787664651,world,-0.36017921566963196,-0.6238915324211121,0.13923591375350952,-0.008280299603939056,0.0122383339330554,0.019089555367827415,-0.9997086524963379
1676104290.7954671,2079,1676104290,794452428,world,-0.36018791794776917,-0.6239096522331238,0.13924434781074524,-0.008131342940032482,0.012413088232278824,0.019148843362927437,-0.999706506729126
1676104290.7968636,2080,1676104290,795913219,world,-0.3601803183555603,-0.6238964200019836,0.13923506438732147,-0.008179743774235249,0.012250521220266819,0.019027642905712128,-0.9997105002403259
1676104290.7994213,2081,1676104290,797316551,world,-0.3601856231689453,-0.623888373374939,0.13924889266490936,-0.008257968351244926,0.012224338948726654,0.019144300371408463,-0.9997079372406006
1676104290.8112888,2082,1676104290,808800458,world,-0.36018145084381104,-0.6238945722579956,0.1392395943403244,-0.008143304847180843,0.012320381589233875,0.01905733160674572,-0.9997093677520752
1676104290.8128884,2083,1676104290,811875104,world,-0.3601796329021454,-0.6238921284675598,0.1392354816198349,-0.008213724009692669,0.012266317382454872,0.019118040800094604,-0.9997082352638245
1676104290.817822,2084,1676104290,816027164,world,-0.3601778447628021,-0.6238974928855896,0.13924166560173035,-0.008315479382872581,0.012209122069180012,0.019097190350294113,-0.9997085332870483
1676104290.8198843,2085,1676104290,818616867,world,-0.36018499732017517,-0.6239033937454224,0.139248788356781,-0.008383272215723991,0.012357121333479881,0.019263172522187233,-0.9997029900550842
1676104290.8264725,2086,1676104290,825270891,world,-0.3601835072040558,-0.6238930821418762,0.1392359882593155,-0.00834647286683321,0.01229016575962305,0.01911328360438347,-0.999707043170929
1676104290.827876,2087,1676104290,826539039,world,-0.36018645763397217,-0.6238973736763,0.13924165070056915,-0.008081645704805851,0.012300544418394566,0.019090432673692703,-0.9997094869613647
1676104290.8286994,2088,1676104290,828055620,world,-0.36019426584243774,-0.6239139437675476,0.13923819363117218,-0.008178492076694965,0.012355435639619827,0.0191954355686903,-0.9997060298919678
1676104290.83564,2089,1676104290,834490299,world,-0.36017686128616333,-0.6238936185836792,0.13924482464790344,-0.008163349702954292,0.012239933013916016,0.019071578979492188,-0.999709963798523
1676104290.8379517,2090,1676104290,836028337,world,-0.3601847290992737,-0.6239024996757507,0.13925161957740784,-0.008197477087378502,0.012269189581274986,0.019204583019018173,-0.9997067451477051
1676104290.846741,2092,1676104290,845615148,world,-0.3601810038089752,-0.6238968372344971,0.1392463892698288,-0.008215567097067833,0.01230746228247881,0.01906142383813858,-0.9997088313102722
1676104290.856866,2093,1676104290,855745553,world,-0.36018165946006775,-0.6239035129547119,0.1392468363046646,-0.008303385227918625,0.012350216507911682,0.019182251766324043,-0.9997052550315857
1676104290.8586562,2094,1676104290,857693195,world,-0.3601870536804199,-0.623898983001709,0.1392349898815155,-0.008314221166074276,0.012213866226375103,0.01912536472082138,-0.9997079968452454
1676104290.8659697,2095,1676104290,864113092,world,-0.3601878881454468,-0.6239027380943298,0.13924936950206757,-0.00804667267948389,0.01215949933975935,0.01903955452144146,-0.9997124671936035
1676104290.8684113,2096,1676104290,867736577,world,-0.3601817488670349,-0.6238962411880493,0.13923616707324982,-0.008271564729511738,0.01221886184066534,0.019046738743782043,-0.9997097849845886
1676104290.8719585,2097,1676104290,870610475,world,-0.3601832985877991,-0.6239005923271179,0.13924536108970642,-0.007949549704790115,0.01230127364397049,0.019198322668671608,-0.9997084140777588
1676104290.8785837,2099,1676104290,877853870,world,-0.36018574237823486,-0.6239057779312134,0.13924209773540497,-0.008111651055514812,0.01225561648607254,0.01929505728185177,-0.9997058510780334
1676104290.887248,2100,1676104290,884109497,world,-0.3601815402507782,-0.6239014267921448,0.13923951983451843,-0.008221035823225975,0.012297708541154861,0.019002895802259445,-0.9997100830078125
1676104290.8876822,2101,1676104290,886731624,world,-0.3601871430873871,-0.6238998174667358,0.13923779129981995,-0.00830851960927248,0.012333325110375881,0.019031193107366562,-0.9997082948684692
1676104290.895706,2102,1676104290,894767522,world,-0.36018720269203186,-0.6239100098609924,0.13924479484558105,-0.008077328093349934,0.012300694361329079,0.019168661907315254,-0.9997080564498901
1676104290.8984063,2103,1676104290,896003246,world,-0.3601839542388916,-0.6238968372344971,0.13923418521881104,-0.008192019537091255,0.012246789410710335,0.019117126241326332,-0.9997087121009827
1676104290.8998137,2104,1676104290,898821115,world,-0.3601853549480438,-0.6238898038864136,0.13923902809619904,-0.008176089264452457,0.012242130003869534,0.019027547910809517,-0.9997105598449707
1676104290.910736,2105,1676104290,905675888,world,-0.360182523727417,-0.6238985657691956,0.13923482596874237,-0.008151739835739136,0.012298381887376308,0.019082767888903618,-0.9997091293334961
1676104290.9124503,2106,1676104290,910263299,world,-0.3601861298084259,-0.6238937377929688,0.13924166560173035,-0.008319351822137833,0.012215717695653439,0.019131673499941826,-0.9997077584266663
1676104290.9184432,2107,1676104290,917453289,world,-0.3601882755756378,-0.6239014863967896,0.13924144208431244,-0.008164580911397934,0.012321148999035358,0.019232720136642456,-0.9997057914733887
1676104290.9209907,2108,1676104290,919544458,world,-0.3601805567741394,-0.6238994002342224,0.13923880457878113,-0.008299417793750763,0.01228215079754591,0.01905542053282261,-0.9997086524963379
1676104290.9263456,2109,1676104290,924796104,world,-0.3601865768432617,-0.6238903403282166,0.13924603164196014,-0.008397165685892105,0.012235963717103004,0.019127624109387398,-0.9997069239616394
1676104290.9277644,2110,1676104290,926800012,world,-0.3601800799369812,-0.6238940358161926,0.13923881947994232,-0.00823330506682396,0.012222320772707462,0.019154496490955353,-0.9997079372406006
1676104290.9289742,2111,1676104290,928232669,world,-0.3601825535297394,-0.6238864660263062,0.1392398327589035,-0.008131182752549648,0.012255992740392685,0.01902793161571026,-0.9997107982635498
1676104290.936099,2112,1676104290,934161901,world,-0.3601825535297394,-0.6238878965377808,0.13924063742160797,-0.008357669226825237,0.012167961336672306,0.01915162429213524,-0.9997076392173767
1676104290.938463,2113,1676104290,937697172,world,-0.3601830005645752,-0.6239018440246582,0.13923399150371552,-0.008194265887141228,0.012288372963666916,0.019018638879060745,-0.9997100830078125
1676104290.9430625,2114,1676104290,940378189,world,-0.36018162965774536,-0.6238929629325867,0.1392388790845871,-0.008318568579852581,0.01222184207290411,0.019092269241809845,-0.9997084140777588
1676104290.9480274,2115,1676104290,946313381,world,-0.36019009351730347,-0.6238988041877747,0.13924139738082886,-0.008374817669391632,0.012231755070388317,0.01911098137497902,-0.9997074604034424
1676104290.9502847,2116,1676104290,948868513,world,-0.3601854741573334,-0.6238961219787598,0.1392328441143036,-0.008174543268978596,0.012236136943101883,0.019075118005275726,-0.9997098445892334
1676104290.965176,2117,1676104290,964233398,world,-0.36018162965774536,-0.6239055395126343,0.1392466276884079,-0.008077172562479973,0.01238213200122118,0.019192440435290337,-0.9997065663337708
1676104290.9667263,2118,1676104290,965771436,world,-0.36017972230911255,-0.6238912343978882,0.13924145698547363,-0.008254720829427242,0.012201829813420773,0.019092580303549767,-0.9997092485427856
1676104290.9685044,2119,1676104290,967283964,world,-0.360187828540802,-0.6238946318626404,0.13924814760684967,-0.008378717117011547,0.012233837507665157,0.019107341766357422,-0.9997074604034424
1676104290.9774594,2120,1676104290,976574897,world,-0.36018508672714233,-0.6239054799079895,0.13924269378185272,-0.008145788684487343,0.012236444279551506,0.019266901537775993,-0.9997063279151917
1676104290.9838698,2121,1676104290,981484651,world,-0.3601856529712677,-0.6238993406295776,0.1392403244972229,-0.008261892013251781,0.01223184447735548,0.01906968466937542,-0.9997092485427856
1676104290.9854033,2122,1676104290,984282970,world,-0.36017918586730957,-0.623896598815918,0.13923868536949158,-0.008210621774196625,0.012296001426875591,0.019077317789196968,-0.9997087121009827
1676104290.9866538,2123,1676104290,985921382,world,-0.3601824641227722,-0.62389075756073,0.13925223052501678,-0.008288726210594177,0.012288985773921013,0.019129378721117973,-0.9997072219848633
1676104290.9879348,2124,1676104290,987319231,world,-0.36018165946006775,-0.6239036917686462,0.13924674689769745,-0.00807893741875887,0.012370267882943153,0.019124336540699005,-0.9997080564498901
1676104290.9958713,2125,1676104290,994930028,world,-0.3601832091808319,-0.6238968968391418,0.13923752307891846,-0.008130182512104511,0.012153515592217445,0.019151126965880394,-0.9997097253799438
1676104290.9988503,2126,1676104290,997007131,world,-0.3601812720298767,-0.6238953471183777,0.13923321664333344,-0.008389227092266083,0.012234057299792767,0.019073937088251114,-0.9997080564498901
1676104290.9993422,2127,1676104290,997685432,world,-0.3601810932159424,-0.6238952279090881,0.13923834264278412,-0.008156978525221348,0.012330474331974983,0.01908337138593197,-0.9997085928916931
1676104291.01007,2128,1676104291,4298210,world,-0.3601891100406647,-0.6239049434661865,0.13924643397331238,-0.008123330771923065,0.012305695563554764,0.019252628087997437,-0.9997059106826782
1676104291.0111063,2129,1676104291,8570194,world,-0.36018553376197815,-0.6238925457000732,0.13924045860767365,-0.008181128650903702,0.012255379930138588,0.019069036468863487,-0.9997096657752991
1676104291.0168774,2130,1676104291,14723300,world,-0.360179603099823,-0.6238973140716553,0.13923406600952148,-0.008089174516499043,0.012201274745166302,0.019113454967737198,-0.9997101426124573
1676104291.01897,2131,1676104291,17452716,world,-0.36018654704093933,-0.623896598815918,0.13924305140972137,-0.008177561685442924,0.012232363224029541,0.01906319335103035,-0.9997100830078125
1676104291.0273874,2132,1676104291,25931596,world,-0.3601798415184021,-0.6238868236541748,0.13924174010753632,-0.00825889315456152,0.012246144004166126,0.019046001136302948,-0.9997096061706543
1676104291.02913,2133,1676104291,27696847,world,-0.3601742684841156,-0.6238990426063538,0.13924795389175415,-0.008229827508330345,0.012243918143212795,0.01907416619360447,-0.9997093081474304
1676104291.0312111,2134,1676104291,30121803,world,-0.3601791560649872,-0.6238897442817688,0.13924317061901093,-0.008470148779451847,0.01223619095981121,0.019128473475575447,-0.9997063279151917
1676104291.034985,2135,1676104291,33994436,world,-0.3601852357387543,-0.6238967180252075,0.13923966884613037,-0.008087893016636372,0.012192795984447002,0.01913660205900669,-0.9997098445892334
1676104291.036214,2136,1676104291,35502433,world,-0.3601852059364319,-0.6239141225814819,0.13924404978752136,-0.008330939337611198,0.012317141517996788,0.019161004573106766,-0.9997058510780334
1676104291.0480773,2137,1676104291,45850992,world,-0.3601846396923065,-0.623891294002533,0.13924184441566467,-0.008205801248550415,0.012207201682031155,0.01908993534743786,-0.9997096657752991
1676104291.0561223,2138,1676104291,54048538,world,-0.36017853021621704,-0.6239019632339478,0.13924098014831543,-0.008132077753543854,0.012207581661641598,0.0190025195479393,-0.9997118711471558
1676104291.0595818,2139,1676104291,56820631,world,-0.3601803481578827,-0.6238964200019836,0.13923655450344086,-0.008183680474758148,0.012303690426051617,0.019031494855880737,-0.9997097253799438
1676104291.059993,2140,1676104291,58697462,world,-0.36018282175064087,-0.6238943934440613,0.13924464583396912,-0.008204398676753044,0.012268610298633575,0.019027141854166985,-0.9997101426124573
1676104291.0658743,2141,1676104291,65261840,world,-0.36017972230911255,-0.6238951086997986,0.13924342393875122,-0.008353724144399166,0.012270487844944,0.01907922513782978,-0.999707818031311
1676104291.0693166,2142,1676104291,67946195,world,-0.36018338799476624,-0.623896598815918,0.13923631608486176,-0.00810276810079813,0.012308835983276367,0.018961403518915176,-0.9997116327285767
1676104291.075727,2143,1676104291,74272394,world,-0.36017337441444397,-0.6238932609558105,0.13924241065979004,-0.008168024010956287,0.012253021821379662,0.019076652824878693,-0.9997096657752991
1676104291.0780513,2144,1676104291,76113224,world,-0.36018526554107666,-0.6238996386528015,0.13923658430576324,-0.0082207340747118,0.012173594906926155,0.019023828208446503,-0.9997111558914185
1676104291.087562,2145,1676104291,85611581,world,-0.3601785898208618,-0.6238880157470703,0.1392352432012558,-0.008190193213522434,0.012301542796194553,0.01907937042415142,-0.9997087717056274
1676104291.090699,2146,1676104291,88517189,world,-0.3601844012737274,-0.6238940954208374,0.13923759758472443,-0.00821048766374588,0.012186494655907154,0.019082538783550262,-0.999709963798523
1676104291.0925114,2147,1676104291,91657638,world,-0.36019042134284973,-0.6238964200019836,0.1392446905374527,-0.008090934716165066,0.012371797114610672,0.019032742828130722,-0.9997096657752991
1676104291.0947008,2148,1676104291,93991756,world,-0.3601771295070648,-0.6238980293273926,0.13923634588718414,-0.008123978972434998,0.012189405970275402,0.019088441506028175,-0.9997105598449707
1676104291.0964985,2149,1676104291,95478296,world,-0.36018332839012146,-0.6238933801651001,0.13924133777618408,-0.00819797720760107,0.012282217852771282,0.019061369821429253,-0.9997093677520752
1676104291.1087592,2150,1676104291,107188701,world,-0.3601817190647125,-0.6238957047462463,0.13924553990364075,-0.008172236382961273,0.012261399067938328,0.019047876819968224,-0.9997100234031677
1676104291.1117373,2151,1676104291,110504388,world,-0.36018455028533936,-0.6238980889320374,0.13924087584018707,-0.007996461354196072,0.012255643494427204,0.019078833982348442,-0.9997109174728394
1676104291.1145706,2152,1676104291,111751317,world,-0.3601793050765991,-0.623893678188324,0.13925258815288544,-0.00821949914097786,0.012305371463298798,0.01916440762579441,-0.9997069239616394
1676104291.116371,2153,1676104291,115388870,world,-0.36017730832099915,-0.623890221118927,0.13923972845077515,-0.008417155593633652,0.012142590247094631,0.019139572978019714,-0.9997076988220215
1676104291.11926,2154,1676104291,117666244,world,-0.36018624901771545,-0.6239123344421387,0.1392461061477661,-0.007931449450552464,0.012243463657796383,0.019198114052414894,-0.9997093677520752
1676104291.1266854,2155,1676104291,125018835,world,-0.3601817488670349,-0.6238963007926941,0.13923989236354828,-0.008088916540145874,0.012351036071777344,0.019033951684832573,-0.9997098445892334
1676104291.129685,2157,1676104291,128994703,world,-0.3601815402507782,-0.6239031553268433,0.13923703134059906,-0.00810784287750721,0.012209550477564335,0.019025059416890144,-0.9997116923332214
1676104291.1357334,2158,1676104291,134777069,world,-0.36018067598342896,-0.6238966584205627,0.1392468363046646,-0.008389034308493137,0.012326850555837154,0.019249077886343002,-0.999703586101532
1676104291.1388483,2159,1676104291,137498378,world,-0.3601854145526886,-0.623897135257721,0.13923229277133942,-0.008158009499311447,0.012291527353227139,0.019078558310866356,-0.9997091293334961
1676104291.1414604,2160,1676104291,140126943,world,-0.3601776659488678,-0.6238918900489807,0.13924281299114227,-0.008289745077490807,0.012195107527077198,0.019055921584367752,-0.9997097253799438
1676104291.1560702,2161,1676104291,154326200,world,-0.3601778745651245,-0.6238934993743896,0.1392345279455185,-0.008411726914346218,0.012288595549762249,0.01913752593100071,-0.9997060298919678
1676104291.1581867,2162,1676104291,157248973,world,-0.36018699407577515,-0.6239020228385925,0.13924570381641388,-0.007967757992446423,0.012302936054766178,0.019183894619345665,-0.9997085928916931
1676104291.1615882,2163,1676104291,160735845,world,-0.36018192768096924,-0.6238975524902344,0.1392355114221573,-0.008148455992341042,0.012280434370040894,0.019001217558979988,-0.9997108578681946
1676104291.1679022,2164,1676104291,165719270,world,-0.3601841926574707,-0.6239026188850403,0.13923577964305878,-0.008211547508835793,0.01231093518435955,0.0190168097615242,-0.9997097253799438
1676104291.1707983,2165,1676104291,169758319,world,-0.36018815636634827,-0.6238978505134583,0.13925136625766754,-0.00815758015960455,0.01239236630499363,0.019240770488977432,-0.999704897403717
1676104291.1784863,2166,1676104291,176183462,world,-0.36018022894859314,-0.6238973140716553,0.1392306685447693,-0.008155650459229946,0.012361991219222546,0.019030524417757988,-0.9997092485427856
1676104291.1786637,2167,1676104291,177742958,world,-0.36018624901771545,-0.6238896250724792,0.13923534750938416,-0.008292916230857372,0.012248320505023003,0.019110532477498055,-0.9997079372406006
1676104291.1825225,2168,1676104291,180958747,world,-0.3601868450641632,-0.6239020824432373,0.13924407958984375,-0.008048021234571934,0.012358090840280056,0.019217288121581078,-0.9997066259384155
1676104291.1879892,2169,1676104291,186103105,world,-0.36017605662345886,-0.6238947510719299,0.13924777507781982,-0.008294140920042992,0.012279503047466278,0.019033292308449745,-0.9997090697288513
1676104291.189577,2170,1676104291,188142061,world,-0.3601796329021454,-0.6238948702812195,0.13924071192741394,-0.008269475772976875,0.012298890389502048,0.019093114882707596,-0.9997078776359558
1676104291.195985,2171,1676104291,194050788,world,-0.36018040776252747,-0.6238924860954285,0.1392436921596527,-0.00828951969742775,0.012226076796650887,0.019080569967627525,-0.999708890914917
1676104291.1965654,2172,1676104291,195876836,world,-0.36018532514572144,-0.6238943934440613,0.13924641907215118,-0.008150378242135048,0.012170878238976002,0.019030816853046417,-0.9997116327285767
1676104291.2017922,2173,1676104291,198875904,world,-0.36017948389053345,-0.623897135257721,0.13923506438732147,-0.008029695600271225,0.0122176269069314,0.01903068833053112,-0.9997120499610901
1676104291.207759,2174,1676104291,205390453,world,-0.3601866662502289,-0.623906672000885,0.13924837112426758,-0.008194082416594028,0.012448902241885662,0.01920352131128311,-0.9997045993804932
1676104291.2095118,2175,1676104291,208280801,world,-0.36018073558807373,-0.6238952875137329,0.1392410695552826,-0.00826281774789095,0.012291058897972107,0.01910681091248989,-0.9997077584266663
1676104291.2166092,2176,1676104291,215902805,world,-0.36018070578575134,-0.6238983273506165,0.13924039900302887,-0.008083691820502281,0.01231210958212614,0.018992217257618904,-0.9997112154960632
1676104291.2196965,2177,1676104291,217854499,world,-0.3601863384246826,-0.6238928437232971,0.13923820853233337,-0.008420322090387344,0.012144996784627438,0.01913127861917019,-0.9997077584266663
1676104291.2208588,2178,1676104291,219247817,world,-0.3601757884025574,-0.6238939166069031,0.139236718416214,-0.008053445257246494,0.012304841540753841,0.01904367096722126,-0.9997105002403259
1676104291.2261949,2179,1676104291,224900722,world,-0.36017856001853943,-0.6238958835601807,0.13924531638622284,-0.008298397064208984,0.01219061017036438,0.0191158726811409,-0.9997085332870483
1676104291.2287157,2180,1676104291,227139234,world,-0.36018291115760803,-0.6238989233970642,0.1392429769039154,-0.00836996454745531,0.012290487997233868,0.019194254651665688,-0.9997051954269409
1676104291.2351892,2181,1676104291,234235286,world,-0.36018556356430054,-0.6239034533500671,0.13923682272434235,-0.008153158240020275,0.012213734909892082,0.01905653066933155,-0.9997106194496155
1676104291.2493849,2182,1676104291,247095346,world,-0.36018630862236023,-0.6238995790481567,0.13925112783908844,-0.00815592985600233,0.012219526804983616,0.019320430234074593,-0.9997054934501648
1676104291.2506216,2183,1676104291,248789548,world,-0.3601835072040558,-0.6238998770713806,0.13924138247966766,-0.008256401866674423,0.012304254807531834,0.019095204770565033,-0.9997078776359558
1676104291.2523367,2184,1676104291,251653671,world,-0.36018455028533936,-0.6238939166069031,0.13923871517181396,-0.008232050575315952,0.012357747182250023,0.01899522915482521,-0.9997093677520752
1676104291.2585309,2185,1676104291,256447076,world,-0.36017942428588867,-0.6238942742347717,0.13923759758472443,-0.008279507048428059,0.012244763784110546,0.01905026286840439,-0.9997092485427856
1676104291.2599032,2186,1676104291,258904933,world,-0.36018118262290955,-0.6238896250724792,0.13924355804920197,-0.008386711589992046,0.012227585539221764,0.01908053644001484,-0.9997080564498901
1676104291.266895,2188,1676104291,266225337,world,-0.36019495129585266,-0.6238998770713806,0.13925570249557495,-0.008068018592894077,0.012264048680663109,0.019303470849990845,-0.999705970287323
1676104291.275495,2189,1676104291,273917198,world,-0.3601790964603424,-0.6238957643508911,0.13923963904380798,-0.008209532126784325,0.012263513170182705,0.019063379615545273,-0.9997093677520752
1676104291.2807386,2190,1676104291,279089689,world,-0.3601858913898468,-0.6239122748374939,0.13923949003219604,-0.00805623084306717,0.012328831478953362,0.0191713385283947,-0.999707818031311
1676104291.289623,2191,1676104291,287113189,world,-0.3601827025413513,-0.6238988637924194,0.13922840356826782,-0.00811771210283041,0.012210771441459656,0.019071200862526894,-0.9997106194496155
1676104291.2910905,2192,1676104291,290141105,world,-0.360175222158432,-0.6238852739334106,0.13923697173595428,-0.008405380882322788,0.012366000562906265,0.019182823598384857,-0.9997041821479797
1676104291.292028,2193,1676104291,291398048,world,-0.3601871728897095,-0.6239075064659119,0.13924919068813324,-0.008197703398764133,0.012321439571678638,0.01919418014585972,-0.9997062683105469
1676104291.2969046,2194,1676104291,295084476,world,-0.3601834177970886,-0.6238922476768494,0.13924790918827057,-0.008394625037908554,0.012237646616995335,0.019177326932549477,-0.999705970287323
1676104291.2981963,2195,1676104291,296387434,world,-0.36017417907714844,-0.6238934397697449,0.13923853635787964,-0.00815205555409193,0.01226448267698288,0.019030965864658356,-0.9997105002403259
1676104291.3078268,2196,1676104291,306144952,world,-0.3601747155189514,-0.6238955855369568,0.13924379646778107,-0.008475646376609802,0.012133371084928513,0.019148724153637886,-0.9997071027755737
1676104291.310762,2197,1676104291,309409618,world,-0.3601846992969513,-0.6238968372344971,0.13923655450344086,-0.008194485679268837,0.012191854417324066,0.019074540585279465,-0.9997101426124573
1676104291.3170943,2198,1676104291,315474510,world,-0.3601803183555603,-0.6239054799079895,0.13923832774162292,-0.008205260150134563,0.012308599427342415,0.01923343539237976,-0.9997056126594543
1676104291.3211944,2199,1676104291,318877935,world,-0.36018502712249756,-0.6238888502120972,0.13923710584640503,-0.008257006295025349,0.012149220332503319,0.019093798473477364,-0.9997098445892334
1676104291.3261454,2201,1676104291,325466632,world,-0.36017653346061707,-0.6238970160484314,0.13923922181129456,-0.008371025323867798,0.012332898564636707,0.019102899357676506,-0.999706506729126
1676104291.334981,2202,1676104291,334369421,world,-0.36018550395965576,-0.6238933801651001,0.13923291862010956,-0.008168785832822323,0.012341739609837532,0.019085271283984184,-0.9997082948684692
1676104291.3367105,2203,1676104291,335797548,world,-0.3601803481578827,-0.6239038705825806,0.13923032581806183,-0.008069324307143688,0.0123722143471241,0.019051983952522278,-0.99970942735672
1676104291.3482134,2204,1676104291,344676256,world,-0.3601849377155304,-0.6238991022109985,0.13924826681613922,-0.008291957899928093,0.012347325682640076,0.019205370917916298,-0.9997050166130066
1676104291.3491907,2205,1676104291,347165584,world,-0.36017850041389465,-0.6238933205604553,0.13923481106758118,-0.008482960052788258,0.012148921377956867,0.01916295848786831,-0.9997066259384155
1676104291.3573856,2208,1676104291,356645107,world,-0.36017873883247375,-0.6238962411880493,0.13923968374729156,-0.008190265856683254,0.01224373560398817,0.019062260165810585,-0.9997098445892334
1676104291.3647437,2209,1676104291,364085197,world,-0.36018773913383484,-0.6239073872566223,0.13924764096736908,-0.008019275963306427,0.012341724708676338,0.01917727291584015,-0.999707818031311
1676104291.3678646,2210,1676104291,367031097,world,-0.3601810038089752,-0.6239004731178284,0.1392393410205841,-0.008176513016223907,0.012214765883982182,0.019076891243457794,-0.9997100234031677
1676104291.3773127,2212,1676104291,376465559,world,-0.36018040776252747,-0.6238953471183777,0.13924671709537506,-0.008374227210879326,0.012222257442772388,0.019094193354249,-0.9997079968452454
1676104291.3862543,2213,1676104291,384927034,world,-0.36018192768096924,-0.6238976120948792,0.13923753798007965,-0.008199424482882023,0.01220870204269886,0.019079135730862617,-0.9997098445892334
1676104291.3892927,2214,1676104291,387421369,world,-0.36018967628479004,-0.623898983001709,0.13924022018909454,-0.008173410780727863,0.012227043509483337,0.019078897312283516,-0.9997098445892334
1676104291.3897884,2215,1676104291,388696670,world,-0.36018258333206177,-0.6238919496536255,0.13924498856067657,-0.008160540834069252,0.012327686883509159,0.019090913236141205,-0.9997084736824036
1676104291.3930626,2216,1676104291,390674114,world,-0.36018460988998413,-0.623900294303894,0.1392485499382019,-0.008239629678428173,0.012350938282907009,0.019230835139751434,-0.9997048377990723
1676104291.3981419,2217,1676104291,395536661,world,-0.3601822555065155,-0.6238940954208374,0.13924461603164673,-0.00822698138654232,0.012214495800435543,0.019103463739156723,-0.9997090697288513
1676104291.3981602,2218,1676104291,396831035,world,-0.3601857125759125,-0.6238923668861389,0.13923047482967377,-0.00834712851792574,0.012259348295629025,0.019106915220618248,-0.9997074604034424
1676104291.4127448,2219,1676104291,404676198,world,-0.3601735532283783,-0.6238982081413269,0.13923801481723785,-0.00823340006172657,0.012279096059501171,0.019127732142806053,-0.999707818031311
1676104291.4166675,2220,1676104291,415387630,world,-0.3601895272731781,-0.6239001750946045,0.1392509788274765,-0.008272635750472546,0.012307300232350826,0.019241278991103172,-0.999704897403717
1676104291.4193718,2221,1676104291,418127775,world,-0.36018308997154236,-0.6238970756530762,0.1392413228750229,-0.007992696948349476,0.012240354903042316,0.019102001562714577,-0.9997106790542603
1676104291.4201038,2222,1676104291,419521808,world,-0.3601905405521393,-0.6239103078842163,0.13925091922283173,-0.008082500658929348,0.012356512248516083,0.01919456757605076,-0.9997068047523499
1676104291.4258769,2223,1676104291,423925876,world,-0.3601844608783722,-0.623896598815918,0.13924075663089752,-0.008246161974966526,0.012202235870063305,0.019101526588201523,-0.9997091293334961
1676104291.4288743,2224,1676104291,427776575,world,-0.36017608642578125,-0.6238977909088135,0.13923080265522003,-0.008048199117183685,0.012292472645640373,0.01904173009097576,-0.9997107982635498
1676104291.4308279,2225,1676104291,429651498,world,-0.3601865768432617,-0.6239030957221985,0.13923978805541992,-0.008252773433923721,0.012257963418960571,0.019075915217399597,-0.999708890914917
1676104291.435709,2226,1676104291,433936119,world,-0.3601795732975006,-0.6239053010940552,0.1392461061477661,-0.008234279230237007,0.012442671693861485,0.01915198192000389,-0.9997052550315857
1676104291.4358754,2227,1676104291,434860229,world,-0.3601865768432617,-0.6238923668861389,0.1392396092414856,-0.008141720667481422,0.01228594221174717,0.01908973790705204,-0.9997091889381409
1676104291.4474509,2228,1676104291,446060180,world,-0.3601842522621155,-0.6238953471183777,0.13924889266490936,-0.008405235596001148,0.012209328822791576,0.019065065309405327,-0.999708354473114
1676104291.450373,2229,1676104291,448552131,world,-0.3601815104484558,-0.6238954067230225,0.13924238085746765,-0.008392483927309513,0.012209196574985981,0.01907781884074211,-0.9997082948684692
1676104291.4560032,2230,1676104291,454415798,world,-0.36018237471580505,-0.6239073276519775,0.13924208283424377,-0.008109252899885178,0.012352271005511284,0.019192112609744072,-0.9997066855430603
1676104291.4571226,2231,1676104291,456329584,world,-0.36018607020378113,-0.6238934993743896,0.1392475962638855,-0.008193555288016796,0.012227257713675499,0.01912306807935238,-0.9997088313102722
1676104291.4668796,2232,1676104291,464604854,world,-0.36018553376197815,-0.6238915920257568,0.13924825191497803,-0.008324290625751019,0.012242404744029045,0.019108189269900322,-0.9997078776359558
1676104291.4677248,2233,1676104291,465867757,world,-0.360181599855423,-0.6238998770713806,0.13923144340515137,-0.008152095600962639,0.01220023538917303,0.019120225682854652,-0.9997095465660095
1676104291.4785361,2234,1676104291,474338293,world,-0.3601846992969513,-0.6238942742347717,0.13925018906593323,-0.008294174447655678,0.012323753908276558,0.01904810033738613,-0.9997082352638245
1676104291.4793248,2235,1676104291,477361917,world,-0.36018529534339905,-0.6238903999328613,0.1392432600259781,-0.008275363594293594,0.01211936492472887,0.0191225353628397,-0.99970942735672
1676104291.487325,2236,1676104291,484721899,world,-0.3601781725883484,-0.623892068862915,0.13924355804920197,-0.008209780789911747,0.012266874313354492,0.019023537635803223,-0.9997100830078125
1676104291.4962227,2237,1676104291,494101285,world,-0.3601844310760498,-0.6238903403282166,0.1392468363046646,-0.008244970813393593,0.012241562828421593,0.019095424562692642,-0.9997087121009827
1676104291.4992995,2238,1676104291,496911525,world,-0.3601800501346588,-0.6238963007926941,0.1392417997121811,-0.008280922658741474,0.0121890464797616,0.019092673435807228,-0.9997091293334961
1676104291.5014303,2239,1676104291,498666286,world,-0.36017969250679016,-0.6239047050476074,0.13923609256744385,-0.00808519683778286,0.012275634333491325,0.01909806951880455,-0.9997096061706543
1676104291.5085504,2240,1676104291,504616022,world,-0.3601800203323364,-0.6238916516304016,0.13923949003219604,-0.008182189427316189,0.012178702279925346,0.019094988703727722,-0.9997100234031677
1676104291.5085664,2241,1676104291,506686687,world,-0.36018019914627075,-0.6239055395126343,0.1392519772052765,-0.008389811962842941,0.012218846008181572,0.019236436113715172,-0.9997051358222961
1676104291.5118,2242,1676104291,508629083,world,-0.3601817488670349,-0.6238908767700195,0.13924847543239594,-0.008631770499050617,0.012305370531976223,0.019144156947731972,-0.9997038245201111
1676104291.517436,2243,1676104291,515708684,world,-0.3601900339126587,-0.6239076256752014,0.1392459124326706,-0.00809431541711092,0.012330014258623123,0.01916511356830597,-0.9997076392173767
1676104291.5200698,2244,1676104291,518521308,world,-0.36018073558807373,-0.62388676404953,0.1392395794391632,-0.008329221047461033,0.012236882001161575,0.019039424136281013,-0.9997092485427856
1676104291.5248032,2245,1676104291,523837089,world,-0.36017894744873047,-0.623897135257721,0.13923810422420502,-0.00806161854416132,0.012175803072750568,0.019079620018601418,-0.9997113943099976
1676104291.5268383,2246,1676104291,524834871,world,-0.36018404364585876,-0.6238930225372314,0.13923847675323486,-0.008379897102713585,0.012196901254355907,0.019146151840686798,-0.9997072219848633
1676104291.5348148,2247,1676104291,533934354,world,-0.3601795434951782,-0.6238991022109985,0.13924561440944672,-0.008349332958459854,0.012276977300643921,0.01910422369837761,-0.9997072815895081
1676104291.5364792,2248,1676104291,535496234,world,-0.36018452048301697,-0.6238950490951538,0.13924075663089752,-0.008237471804022789,0.012200882658362389,0.019142907112836838,-0.9997084736824036
1676104291.5479739,2249,1676104291,544410705,world,-0.3601812422275543,-0.623907744884491,0.13924367725849152,-0.008311267010867596,0.012346469797194004,0.01926465891301632,-0.9997036457061768
1676104291.5486467,2250,1676104291,546549558,world,-0.3601830005645752,-0.6238879561424255,0.13924676179885864,-0.00833735242486,0.012249788269400597,0.019131382927298546,-0.9997072815895081
1676104291.551441,2251,1676104291,549687385,world,-0.3601832687854767,-0.6238937377929688,0.13923771679401398,-0.008338731713593006,0.01220759004354477,0.01909579709172249,-0.9997084140777588
1676104291.5556939,2252,1676104291,554418087,world,-0.36018139123916626,-0.6238958835601807,0.13923902809619904,-0.008188259787857533,0.012336686253547668,0.019042938947677612,-0.9997090101242065
1676104291.5660207,2253,1676104291,563884735,world,-0.360174298286438,-0.6238935589790344,0.13923890888690948,-0.008467111736536026,0.012114952318370342,0.019165407866239548,-0.9997071623802185
1676104291.567145,2254,1676104291,565089225,world,-0.3601817488670349,-0.6238988637924194,0.13924963772296906,-0.0081876115873456,0.01226032618433237,0.01924058049917221,-0.9997062683105469
1676104291.5675855,2255,1676104291,566624879,world,-0.36018407344818115,-0.6239109635353088,0.13924305140972137,-0.008092097006738186,0.012356329709291458,0.019239408895373344,-0.9997057914733887
1676104291.5772367,2256,1676104291,575025320,world,-0.3601813018321991,-0.6238933205604553,0.13923899829387665,-0.00823288969695568,0.012252730317413807,0.01907322183251381,-0.9997091293334961
1676104291.5813825,2257,1676104291,578612327,world,-0.360181987285614,-0.6238965392112732,0.139247864484787,-0.00833502784371376,0.012218230403959751,0.01918179541826248,-0.9997066259384155
1676104291.5859852,2258,1676104291,584912061,world,-0.36017975211143494,-0.623909056186676,0.13924379646778107,-0.00813803169876337,0.012346613220870495,0.019190315157175064,-0.9997065663337708
1676104291.5881228,2259,1676104291,586811542,world,-0.3601832091808319,-0.6238939762115479,0.13923826813697815,-0.008323787711560726,0.012189077213406563,0.019120054319500923,-0.9997082352638245
1676104291.5952935,2260,1676104291,594642162,world,-0.3601870834827423,-0.6239020228385925,0.1392526477575302,-0.008225438185036182,0.012219547294080257,0.019181789830327034,-0.9997075796127319
1676104291.5975413,2261,1676104291,596875667,world,-0.3601783812046051,-0.6238932013511658,0.13924159109592438,-0.008193032816052437,0.012253060936927795,0.01908317767083645,-0.9997092485427856
1676104291.6008902,2262,1676104291,599681854,world,-0.3601844012737274,-0.6239113807678223,0.13923870027065277,-0.00803810078650713,0.012369902804493904,0.01917470619082451,-0.9997074007987976
1676104291.610209,2263,1676104291,605104923,world,-0.3601892292499542,-0.6238977313041687,0.13924583792686462,-0.008261333219707012,0.012155599892139435,0.01914270967245102,-0.9997088313102722
1676104291.613367,2264,1676104291,610571622,world,-0.3601870834827423,-0.6238860487937927,0.13925465941429138,-0.00852273404598236,0.012259936891496181,0.019089842215180397,-0.9997063279151917
1676104291.6184087,2265,1676104291,616748571,world,-0.36018824577331543,-0.6239080429077148,0.13924327492713928,-0.008068369701504707,0.012369012460112572,0.019177783280611038,-0.999707043170929
1676104291.6193807,2266,1676104291,618512630,world,-0.3601819574832916,-0.6238933205604553,0.13924504816532135,-0.008268912322819233,0.01222335733473301,0.019087525084614754,-0.9997089505195618
1676104291.6202614,2267,1676104291,619647979,world,-0.36018580198287964,-0.6239026188850403,0.13924387097358704,-0.008214585483074188,0.012311859056353569,0.019270222634077072,-0.9997047781944275
1676104291.6263955,2268,1676104291,625156879,world,-0.3601757287979126,-0.6238957643508911,0.1392393410205841,-0.008190693333745003,0.012289873324334621,0.019057951867580414,-0.9997093081474304
1676104291.6285155,2269,1676104291,627601146,world,-0.3601798117160797,-0.6238908171653748,0.13924019038677216,-0.008457766845822334,0.012178911827504635,0.0190961305052042,-0.9997076988220215
1676104291.6359215,2270,1676104291,633952140,world,-0.3601798713207245,-0.6238912343978882,0.13924051821231842,-0.008201021701097488,0.012181080877780914,0.019146600738167763,-0.999708890914917
1676104291.637623,2271,1676104291,635630130,world,-0.36018815636634827,-0.6239061951637268,0.1392427533864975,-0.00803710613399744,0.012257841415703297,0.01924050785601139,-0.9997074604034424
1676104291.6472116,2272,1676104291,645819902,world,-0.36017462611198425,-0.623897910118103,0.13923969864845276,-0.008159316144883633,0.012349642813205719,0.019016990438103676,-0.9997096657752991
1676104291.6493979,2273,1676104291,647459745,world,-0.36018627882003784,-0.6239072680473328,0.1392415463924408,-0.008034711703658104,0.012393810786306858,0.01913803443312645,-0.9997077584266663
1676104291.6562417,2274,1676104291,654837846,world,-0.3601799011230469,-0.623893141746521,0.13923831284046173,-0.008245083503425121,0.012206722050905228,0.019075492396950722,-0.9997096061706543
1676104291.6588016,2275,1676104291,656896352,world,-0.36018818616867065,-0.6239029765129089,0.13924354314804077,-0.008085623383522034,0.012250015512108803,0.019227834418416023,-0.9997074604034424
1676104291.659951,2276,1676104291,657604932,world,-0.36017563939094543,-0.6238962411880493,0.13924695551395416,-0.00841248407959938,0.012195735238492489,0.019127845764160156,-0.9997072815895081
1676104291.6675336,2277,1676104291,666501283,world,-0.3601815700531006,-0.623895525932312,0.13924017548561096,-0.008275216445326805,0.012328329496085644,0.019040361046791077,-0.9997084736824036
1676104291.6693015,2278,1676104291,668049097,world,-0.3601771593093872,-0.6238952279090881,0.1392352432012558,-0.008273763582110405,0.012297039851546288,0.0190704595297575,-0.9997082948684692
1676104291.670513,2279,1676104291,669379949,world,-0.3601835072040558,-0.6239109635353088,0.13924625515937805,-0.0080663887783885,0.012356610037386417,0.019187621772289276,-0.9997071027755737
1676104291.6752312,2280,1676104291,674360036,world,-0.3601815104484558,-0.6238901615142822,0.1392388790845871,-0.008353383280336857,0.012240348383784294,0.019165726378560066,-0.9997065663337708
1676104291.684503,2281,1676104291,683971166,world,-0.3601798713207245,-0.6238958835601807,0.13923759758472443,-0.008272243663668633,0.01225398387759924,0.019034110009670258,-0.9997096061706543
1676104291.6955404,2282,1676104291,694339990,world,-0.3601827621459961,-0.6239000558853149,0.13924549520015717,-0.008189991116523743,0.012287224642932415,0.019084250554442406,-0.9997088313102722
1676104291.6966865,2283,1676104291,695789098,world,-0.3601798415184021,-0.6238865256309509,0.13924792408943176,-0.008569607511162758,0.012092034332454205,0.019213475286960602,-0.9997055530548096
