Time,header.seq,header.stamp.secs,header.stamp.nsecs,header.frame_id,child_frame_id,pose.pose.position.x,pose.pose.position.y,pose.pose.position.z,pose.pose.orientation.x,pose.pose.orientation.y,pose.pose.orientation.z,pose.pose.orientation.w,pose.covariance,twist.twist.linear.x,twist.twist.linear.y,twist.twist.linear.z,twist.twist.angular.x,twist.twist.angular.y,twist.twist.angular.z,twist.covariance
1676104290.0593114,4350,1676104289,942330880,map,base_link,-0.3583929836750032,-0.6251254081726073,0.13812141120433802,-0.03327021774832527,-0.07300182790923697,-0.016628110575751996,0.9966380137052209,"(0.0005399076035246253, 4.0622322894596343e-23, 6.241105656434563e-21, 0.0, 0.0, 0.0, 4.0622322894596343e-23, 0.0005400905502028763, -4.072195637179848e-36, 0.0, 0.0, 0.0, 6.241105656434562e-21, -4.072195637179846e-36, 0.0004889451083727181, 0.0, 0.0, 0.0, 0.0, 0.0, 0.0, 0.0, 0.0, 0.0, 0.0, 0.0, 0.0, 0.0, 0.0, 0.0, 0.0, 0.0, 0.0, 0.0, 0.0, 0.0)",0.0030268756672739983,-0.0037358915433287625,-0.0028025156352668996,0.0033762322273105383,3.114249193458821e-05,0.00028957868926227093,"(0.0019033600110560656, 0.0, 0.0, 0.0, 0.0, 0.0, 0.0, 0.0019006425281986594, -5.73005765377434e-20, 0.0, 0.0, 0.0, 0.0, -5.73005765377434e-20, 0.0014327478129416704, 0.0, 0.0, 0.0, 0.0, 0.0, 0.0, 0.0, 0.0, 0.0, 0.0, 0.0, 0.0, 0.0, 0.0, 0.0, 0.0, 0.0, 0.0, 0.0, 0.0, 0.0)"
1676104290.0593798,4351,1676104289,972301880,map,base_link,-0.3584012091159822,-0.625192880630493,0.13810418546199793,-0.033265131100847264,-0.07300050807697345,-0.016631268586377316,0.9966382259285446,"(0.0005268604727461934, 3.886456409292116e-23, 5.974828490009146e-21, 0.0, 0.0, 0.0, 3.886456409292116e-23, 0.0005270355031825602, -3.950918450404161e-36, 0.0, 0.0, 0.0, 5.974828490009146e-21, -3.950918450404163e-36, 0.0004780722956638783, 0.0, 0.0, 0.0, 0.0, 0.0, 0.0, 0.0, 0.0, 0.0, 0.0, 0.0, 0.0, 0.0, 0.0, 0.0, 0.0, 0.0, 0.0, 0.0, 0.0, 0.0)",0.0031392856035381556,-0.0037336004897952084,-0.002534869126975536,0.0006868061027489603,-0.00019301785505376775,-0.001452188123948872,"(0.0018799409735947847, 0.0, 0.0, 0.0, 0.0, 0.0, 0.0, 0.0018772510811686516, -5.637009450511431e-20, 0.0, 0.0, 0.0, 0.0, -5.637009450511431e-20, 0.0014169543283060193, 0.0, 0.0, 0.0, 0.0, 0.0, 0.0, 0.0, 0.0, 0.0, 0.0, 0.0, 0.0, 0.0, 0.0, 0.0, 0.0, 0.0, 0.0, 0.0, 0.0, 0.0)"
1676104290.0594525,4352,1676104290,12269488,map,base_link,-0.3584091961383821,-0.6252731680870055,0.13808546960353846,-0.03326935035232706,-0.07301057857292824,-0.016631390056553553,0.9966373645571467,"(0.0005285677034407854, 3.932985318748224e-23, 6.035316380241998e-21, 0.0, 0.0, 0.0, 3.932985318748224e-23, 0.0005287448293529451, -3.9718683191772425e-36, 0.0, 0.0, 0.0, 6.035316380241992e-21, -3.9718683191772425e-36, 0.0004792856052517891, 0.0, 0.0, 0.0, 0.0, 0.0, 0.0, 0.0, 0.0, 0.0, 0.0, 0.0, 0.0, 0.0, 0.0, 0.0, 0.0, 0.0, 0.0, 0.0, 0.0, 0.0)",0.0031497995369136333,-0.0036006064619869,-0.0028342171572148796,-0.00043410126818343997,-0.0013221224071457982,-0.0001966123236343263,"(0.0018856870010495186, 0.0, 0.0, 0.0, 0.0, 0.0, 0.0, 0.0018829872133210301, -5.662633134470062e-20, 0.0, 0.0, 0.0, 0.0, -5.662633134470063e-20, 0.0014205981278792024, 0.0, 0.0, 0.0, 0.0, 0.0, 0.0, 0.0, 0.0, 0.0, 0.0, 0.0, 0.0, 0.0, 0.0, 0.0, 0.0, 0.0, 0.0, 0.0, 0.0, 0.0)"
1676104290.0598202,4353,1676104290,42241488,map,base_link,-0.35841250419616716,-0.6253285408020018,0.1380698829889297,-0.03327328653516874,-0.07301494762189586,-0.016629705576167265,0.9966369636454186,"(0.0005444082780741155, 4.1850169116354744e-23, 6.4026704472102984e-21, 0.0, 0.0, 0.0, 4.1850169116354744e-23, 0.0005445967544801533, -4.127841221505705e-36, 0.0, 0.0, 0.0, 6.402670447210304e-21, -4.1278412215057056e-36, 0.0004921265062876046, 0.0, 0.0, 0.0, 0.0, 0.0, 0.0, 0.0, 0.0, 0.0, 0.0, 0.0, 0.0, 0.0, 0.0, 0.0, 0.0, 0.0, 0.0, 0.0, 0.0, 0.0)",0.0031914019491523504,-0.0036396537907421593,-0.0025646109133958812,6.960787868592888e-05,-0.0009147327509708704,-0.000827809446491301,"(0.0019185092533007264, 0.0, 0.0, 0.0, 0.0, 0.0, 0.0, 0.0019157633651047945, -5.798799498176134e-20, 0.0, 0.0, 0.0, 0.0, -5.798799498176134e-20, 0.0014422554522752762, 0.0, 0.0, 0.0, 0.0, 0.0, 0.0, 0.0, 0.0, 0.0, 0.0, 0.0, 0.0, 0.0, 0.0, 0.0, 0.0, 0.0, 0.0, 0.0, 0.0, 0.0)"
1676104290.0859532,4354,1676104290,72213488,map,base_link,-0.35841709375381486,-0.6253831386566161,0.13806229829788202,-0.03326105398902784,-0.0730051666113779,-0.016628733629637547,0.9966380816364172,"(0.0005309456028044224, 3.997608804103929e-23, 6.11562830238075e-21, 0.0, 0.0, 0.0, 3.997608804103929e-23, 0.0005311256390996277, -4.0002683221384344e-36, 0.0, 0.0, 0.0, 6.1156283023807464e-21, -4.000268322138434e-36, 0.0004810077080037445, 0.0, 0.0, 0.0, 0.0, 0.0, 0.0, 0.0, 0.0, 0.0, 0.0, 0.0, 0.0, 0.0, 0.0, 0.0, 0.0, 0.0, 0.0, 0.0, 0.0, 0.0)",0.0034060527104884386,-0.0036292287986725573,-0.0024990921374410387,0.002194096799939871,0.0006391822826117277,-0.00011815770267276101,"(0.0018927052151411772, 0.0, 0.0, 0.0, 0.0, 0.0, 0.0, 0.0018899935530498624, -5.693078456393875e-20, 0.0, 0.0, 0.0, 0.0, -5.693078456393877e-20, 0.0014251184184104204, 0.0, 0.0, 0.0, 0.0, 0.0, 0.0, 0.0, 0.0, 0.0, 0.0, 0.0, 0.0, 0.0, 0.0, 0.0, 0.0, 0.0, 0.0, 0.0, 0.0, 0.0)"
1676104290.1153622,4355,1676104290,112180584,map,base_link,-0.35841828584671037,-0.6254441738128661,0.13805036246776575,-0.03325042984141185,-0.07299924649918169,-0.016643791527606464,0.9966386026086141,"(0.0005339532508514822, 4.067402168288091e-23, 6.211565639096173e-21, 0.0, 0.0, 0.0, 4.067402168288091e-23, 0.0005341364303603768, -4.03507078296686e-36, 0.0, 0.0, 0.0, 6.211565639096169e-21, -4.035070782966858e-36, 0.00048323196824640036, 0.0, 0.0, 0.0, 0.0, 0.0, 0.0, 0.0, 0.0, 0.0, 0.0, 0.0, 0.0, 0.0, 0.0, 0.0, 0.0, 0.0, 0.0, 0.0, 0.0, 0.0)",0.0032080041710287333,-0.003596435068175197,-0.002754285931587219,-9.22083854675293e-05,0.0014399446081370115,-0.00011274431017227488,"(0.0019018114544451237, 0.0, 0.0, 0.0, 0.0, 0.0, 0.0, 0.0018990825628861785, -5.734026737185056e-20, 0.0, 0.0, 0.0, 0.0, -5.734026737185057e-20, 0.0014308637473732233, 0.0, 0.0, 0.0, 0.0, 0.0, 0.0, 0.0, 0.0, 0.0, 0.0, 0.0, 0.0, 0.0, 0.0, 0.0, 0.0, 0.0, 0.0, 0.0, 0.0, 0.0)"
1676104290.1476536,4356,1676104290,142153584,map,base_link,-0.3584215939044954,-0.6254897117614745,0.13803781569004053,-0.03324665745826424,-0.07299628515568109,-0.016650815529771688,0.9966388205434763,"(0.0005218967562541366, 3.9058434548988276e-23, 5.962963297234106e-21, 0.0, 0.0, 0.0, 3.9058434548988276e-23, 0.0005220726598054171, -3.922498418857474e-36, 0.0, 0.0, 0.0, 5.962963297234107e-21, -3.9224984188574734e-36, 0.00047320546582341194, 0.0, 0.0, 0.0, 0.0, 0.0, 0.0, 0.0, 0.0, 0.0, 0.0, 0.0, 0.0, 0.0, 0.0, 0.0, 0.0, 0.0, 0.0, 0.0, 0.0, 0.0)",0.003309448016807437,-0.0036578089930117135,-0.0028268832247704263,-0.0012017913395538926,0.00046101919724605967,-0.0006846734322607518,"(0.001879316521808505, 0.0, 0.0, 0.0, 0.0, 0.0, 0.0, 0.001876615104265511, -5.643329474491211e-20, 0.0, 0.0, 0.0, 0.0, -5.643329474491211e-20, 0.00141580228228122, 0.0, 0.0, 0.0, 0.0, 0.0, 0.0, 0.0, 0.0, 0.0, 0.0, 0.0, 0.0, 0.0, 0.0, 0.0, 0.0, 0.0, 0.0, 0.0, 0.0, 0.0)"
1676104290.1809263,4357,1676104290,172124584,map,base_link,-0.3584222793579103,-0.6255377531051635,0.13802486658096308,-0.03324744119035663,-0.07298982234071785,-0.016652589574477166,0.9966392400894825,"(0.0005380990915000439, 4.168214805442991e-23, 6.338586287974742e-21, 0.0, 0.0, 0.0, 4.168214805442991e-23, 0.0005382868112064898, -4.082009971200295e-36, 0.0, 0.0, 0.0, 6.338586287974742e-21, -4.082009971200292e-36, 0.000486340606585145, 0.0, 0.0, 0.0, 0.0, 0.0, 0.0, 0.0, 0.0, 0.0, 0.0, 0.0, 0.0, 0.0, 0.0, 0.0, 0.0, 0.0, 0.0, 0.0, 0.0, 0.0)",0.003380417125299573,-0.0036631512921303515,-0.002806533826515078,-0.000855340389534831,-0.0003798163670580834,-0.00010633883357513692,"(0.0019129409920424223, 0.0, 0.0, 0.0, 0.0, 0.0, 0.0, 0.001910194056108594, -5.782699333320806e-20, 0.0, 0.0, 0.0, 0.0, -5.782699333320806e-20, 0.0014380008215084672, 0.0, 0.0, 0.0, 0.0, 0.0, 0.0, 0.0, 0.0, 0.0, 0.0, 0.0, 0.0, 0.0, 0.0, 0.0, 0.0, 0.0, 0.0, 0.0, 0.0, 0.0)"
1676104290.214769,4358,1676104290,202101936,map,base_link,-0.3584177792072298,-0.6255784034729003,0.13801227509975428,-0.033243461182690025,-0.07299193810235577,-0.016644553754102523,0.9966393594751127,"(0.0005263815983198583, 4.007948561760842e-23, 6.09647790262698e-21, 0.0, 0.0, 0.0, 4.007948561760842e-23, 0.000526562100276351, -3.972504298032884e-36, 0.0, 0.0, 0.0, 6.09647790262698e-21, -3.972504298032881e-36, 0.00047660007840022445, 0.0, 0.0, 0.0, 0.0, 0.0, 0.0, 0.0, 0.0, 0.0, 0.0, 0.0, 0.0, 0.0, 0.0, 0.0, 0.0, 0.0, 0.0, 0.0, 0.0, 0.0)",0.00363519205711782,-0.0037476734723895793,-0.003069395432248711,0.0017836082261055708,-0.0009664418757893144,0.0012765729334205391,"(0.0018912242958322167, 0.0, 0.0, 0.0, 0.0, 0.0, 0.0, 0.0018885052995756269, -5.69450698425937e-20, 0.0, 0.0, 0.0, 0.0, -5.69450698425937e-20, 0.0014235135167837143, 0.0, 0.0, 0.0, 0.0, 0.0, 0.0, 0.0, 0.0, 0.0, 0.0, 0.0, 0.0, 0.0, 0.0, 0.0, 0.0, 0.0, 0.0, 0.0, 0.0, 0.0)"
1676104290.257353,4359,1676104290,242063936,map,base_link,-0.3584068119525911,-0.6256360411643981,0.13799273967742914,-0.033235527858093715,-0.07299671303320462,-0.016644982644449503,0.9966392927491584,"(0.0005301032215356827, 4.091959092723259e-23, 6.20545305104896e-21, 0.0, 0.0, 0.0, 4.091959092723259e-23, 0.0005302875069901347, -4.0136401808591426e-36, 0.0, 0.0, 0.0, 6.205453051048958e-21, -4.013640180859143e-36, 0.0004794318519998342, 0.0, 0.0, 0.0, 0.0, 0.0, 0.0, 0.0, 0.0, 0.0, 0.0, 0.0, 0.0, 0.0, 0.0, 0.0, 0.0, 0.0, 0.0, 0.0, 0.0, 0.0)",0.003602911252528429,-0.0037365728057920937,-0.0029705555643886323,-0.0006109135574661195,-0.000808986951597035,-0.0011291942792013288,"(0.0019010098185390234, 0.0, 0.0, 0.0, 0.0, 0.0, 0.0, 0.001898274291306734, -5.737141840364806e-20, 0.0, 0.0, 0.0, 0.0, -5.737141840364807e-20, 0.001429801108315587, 0.0, 0.0, 0.0, 0.0, 0.0, 0.0, 0.0, 0.0, 0.0, 0.0, 0.0, 0.0, 0.0, 0.0, 0.0, 0.0, 0.0, 0.0, 0.0, 0.0, 0.0)"
1676104290.3013628,4360,1676104290,272035936,map,base_link,-0.3584029972553255,-0.6256746053695678,0.13798668980598444,-0.03323524227137242,-0.07300772570155827,-0.01664853638136943,0.9966384431669171,"(0.000518703949637711, 3.934277788455338e-23, 5.9668732150695536e-21, 0.0, 0.0, 0.0, 3.934277788455338e-23, 0.0005188811337575316, -3.906504984096369e-36, 0.0, 0.0, 0.0, 5.966873215069554e-21, -3.906504984096368e-36, 0.0004699807323049754, 0.0, 0.0, 0.0, 0.0, 0.0, 0.0, 0.0, 0.0, 0.0, 0.0, 0.0, 0.0, 0.0, 0.0, 0.0, 0.0, 0.0, 0.0, 0.0, 0.0, 0.0)",0.0035174228250980377,-0.0037823754828423266,-0.0028072136919945474,-0.0006987906526774168,-0.0012222900986671448,0.0008391488809138538,"(0.0018789240857586265, 0.0, 0.0, 0.0, 0.0, 0.0, 0.0, 0.001876218942925334, -5.646547226379859e-20, 0.0, 0.0, 0.0, 0.0, -5.646547226379859e-20, 0.0014151433715596795, 0.0, 0.0, 0.0, 0.0, 0.0, 0.0, 0.0, 0.0, 0.0, 0.0, 0.0, 0.0, 0.0, 0.0, 0.0, 0.0, 0.0, 0.0, 0.0, 0.0, 0.0)"
1676104290.3453145,4361,1676104290,312003032,map,base_link,-0.3583933115005495,-0.625716209411621,0.13797932863235468,-0.0332313434352336,-0.07301490064792834,-0.01665168212191755,0.9966379871249148,"(0.0005217742873355746, 4.0014862132252714e-23, 6.049573145366691e-21, 0.0, 0.0, 0.0, 4.0014862132252714e-23, 0.0005219544982537627, -3.939015240134504e-36, 0.0, 0.0, 0.0, 6.049573145366695e-21, -3.939015240134503e-36, 0.0004723757738247514, 0.0, 0.0, 0.0, 0.0, 0.0, 0.0, 0.0, 0.0, 0.0, 0.0, 0.0, 0.0, 0.0, 0.0, 0.0, 0.0, 0.0, 0.0, 0.0, 0.0, 0.0)",0.003589312080293894,-0.0036207381635904316,-0.002884520916268229,0.0015226167161017656,-0.0010398178128525615,-0.00010208445746684435,"(0.0018855895614251494, 0.0, 0.0, 0.0, 0.0, 0.0, 0.0, 0.0018828748725354671, -5.673210228516086e-20, 0.0, 0.0, 0.0, 0.0, -5.673210228516086e-20, 0.0014196221018210053, 0.0, 0.0, 0.0, 0.0, 0.0, 0.0, 0.0, 0.0, 0.0, 0.0, 0.0, 0.0, 0.0, 0.0, 0.0, 0.0, 0.0, 0.0, 0.0, 0.0, 0.0)"
1676104290.38933,4362,1676104290,341977032,map,base_link,-0.3583870232105257,-0.6257427930831908,0.13796794414520258,-0.0332291384791121,-0.07302669353571858,-0.01664922858896362,0.9966372329521394,"(0.0005382015369832516, 4.265150033476549e-23, 6.427776610594904e-21, 0.0, 0.0, 0.0, 4.265150033476549e-23, 0.000538393622264266, -4.100219294043632e-36, 0.0, 0.0, 0.0, 6.427776610594906e-21, -4.100219294043633e-36, 0.0004857147578150034, 0.0, 0.0, 0.0, 0.0, 0.0, 0.0, 0.0, 0.0, 0.0, 0.0, 0.0, 0.0, 0.0, 0.0, 0.0, 0.0, 0.0, 0.0, 0.0, 0.0, 0.0)",0.0034716150257736444,-0.0035445035900920634,-0.003018602961674332,0.001385330455377698,-0.0004326727066654711,0.0006652498850598931,"(0.001918767811730504, 0.0, 0.0, 0.0, 0.0, 0.0, 0.0, 0.0019160076044499874, -5.809705923496535e-20, 0.0, 0.0, 0.0, 0.0, -5.809705923496535e-20, 0.001441609114408493, 0.0, 0.0, 0.0, 0.0, 0.0, 0.0, 0.0, 0.0, 0.0, 0.0, 0.0, 0.0, 0.0, 0.0, 0.0, 0.0, 0.0, 0.0, 0.0, 0.0, 0.0)"
1676104290.3893778,4363,1676104290,371948032,map,base_link,-0.35838490724563615,-0.6257693767547606,0.13795764744281763,-0.033225725459427376,-0.07303031587622544,-0.01665366941879887,0.9966369933283856,"(0.0005258870078250766, 4.08291180477346e-23, 6.154096618878485e-21, 0.0, 0.0, 0.0, 4.08291180477346e-23, 0.0005260708858259022, -3.981323638031437e-36, 0.0, 0.0, 0.0, 6.154096618878487e-21, -3.981323638031439e-36, 0.00047563499538227916, 0.0, 0.0, 0.0, 0.0, 0.0, 0.0, 0.0, 0.0, 0.0, 0.0, 0.0, 0.0, 0.0, 0.0, 0.0, 0.0, 0.0, 0.0, 0.0, 0.0, 0.0)",0.003285449929535389,-0.0037245894782245163,-0.003003408899530768,0.0002940113772638142,0.00010557868517935264,-0.0009835370583459735,"(0.0018933243118226528, 0.0, 0.0, 0.0, 0.0, 0.0, 0.0, 0.0018906008917838335, -5.70276307694309e-20, 0.0, 0.0, 0.0, 0.0, -5.70276307694309e-20, 0.0014249349478632212, 0.0, 0.0, 0.0, 0.0, 0.0, 0.0, 0.0, 0.0, 0.0, 0.0, 0.0, 0.0, 0.0, 0.0, 0.0, 0.0, 0.0, 0.0, 0.0, 0.0, 0.0)"
1676104290.433273,4364,1676104290,401924640,map,base_link,-0.35838389396667497,-0.6257993578910827,0.1379449069499969,-0.03322525004467249,-0.07302859982875827,-0.01665729733770155,0.9966370759907648,"(0.000542235909961164, 4.342698215903395e-23, 6.528365216932277e-21, 0.0, 0.0, 0.0, 4.342698215903395e-23, 0.0005424314877018332, -4.141336590837887e-36, 0.0, 0.0, 0.0, 6.528365216932281e-21, -4.14133659083789e-36, 0.0004889277624897659, 0.0, 0.0, 0.0, 0.0, 0.0, 0.0, 0.0, 0.0, 0.0, 0.0, 0.0, 0.0, 0.0, 0.0, 0.0, 0.0, 0.0, 0.0, 0.0, 0.0, 0.0)",0.0033532530069351196,-0.0037975341547280554,-0.0031330273486673828,-0.0004495733301155269,-0.0002242667978862301,-0.0005427502328529954,"(0.0019257036037743092, 0.0, 0.0, 0.0, 0.0, 0.0, 0.0, 0.0019229365279898047, -5.835469323753393e-20, 0.0, 0.0, 0.0, 0.0, -5.835469323753395e-20, 0.0014464342966675758, 0.0, 0.0, 0.0, 0.0, 0.0, 0.0, 0.0, 0.0, 0.0, 0.0, 0.0, 0.0, 0.0, 0.0, 0.0, 0.0, 0.0, 0.0, 0.0, 0.0, 0.0)"
1676104290.447978,4365,1676104290,441886640,map,base_link,-0.3583843708038332,-0.6258386969566344,0.13793137669563288,-0.033233534608811906,-0.07303542514705526,-0.016659029842835002,0.9966362729770633,"(0.0005164683680050075, 3.949787424940707e-23, 5.950816533347856e-21, 0.0, 0.0, 0.0, 3.949787424940707e-23, 0.0005166462506167591, -3.8915844393009704e-36, 0.0, 0.0, 0.0, 5.950816533347853e-21, -3.891584439300968e-36, 0.00046787626342847943, 0.0, 0.0, 0.0, 0.0, 0.0, 0.0, 0.0, 0.0, 0.0, 0.0, 0.0, 0.0, 0.0, 0.0, 0.0, 0.0, 0.0, 0.0, 0.0, 0.0, 0.0)",0.0033587187062948942,-0.004283222369849682,-0.003111871657893061,0.000561700901016593,-0.0008339614723809063,-0.0001538232318125664,"(0.00187276944052428, 0.0, 0.0, 0.0, 0.0, 0.0, 0.0, 0.0018700762884691358, -5.615340593198386e-20, 0.0, 0.0, 0.0, 0.0, -5.615340593198387e-20, 0.001411548932082951, 0.0, 0.0, 0.0, 0.0, 0.0, 0.0, 0.0, 0.0, 0.0, 0.0, 0.0, 0.0, 0.0, 0.0, 0.0, 0.0, 0.0, 0.0, 0.0, 0.0, 0.0)"
1676104290.4892652,4366,1676104290,471858640,map,base_link,-0.3583847582340242,-0.625878870487213,0.13792303204536432,-0.03323932101248255,-0.07303899672370215,-0.016653576847757402,0.9966359228627361,"(0.0005330386920832098, 4.213451245191985e-23, 6.330737938773593e-21, 0.0, 0.0, 0.0, 4.213451245191985e-23, 0.0005332284490577877, -4.053880189751409e-36, 0.0, 0.0, 0.0, 6.330737938773592e-21, -4.053880189751409e-36, 0.0004813442938029766, 0.0, 0.0, 0.0, 0.0, 0.0, 0.0, 0.0, 0.0, 0.0, 0.0, 0.0, 0.0, 0.0, 0.0, 0.0, 0.0, 0.0, 0.0, 0.0, 0.0, 0.0)",0.0033672726713120937,-0.004542226903140545,-0.002924974542111158,0.0010431107366457582,0.0014325587544590235,0.00031153080635704084,"(0.0019067460671067238, 0.0, 0.0, 0.0, 0.0, 0.0, 0.0, 0.0019040071638301015, -5.755453229490976e-20, 0.0, 0.0, 0.0, 0.0, -5.755453229490978e-20, 0.0014340387424454093, 0.0, 0.0, 0.0, 0.0, 0.0, 0.0, 0.0, 0.0, 0.0, 0.0, 0.0, 0.0, 0.0, 0.0, 0.0, 0.0, 0.0, 0.0, 0.0, 0.0, 0.0)"
1676104290.5332365,4367,1676104290,511825992,map,base_link,-0.3583841025829317,-0.6259326934814452,0.13792100548744196,-0.03324113951597089,-0.07304119143993779,-0.01666408958634452,0.9966355132817718,"(0.0005363397067412734, 4.2703199123050054e-23, 6.413017294499568e-21, 0.0, 0.0, 0.0, 4.2703199123050054e-23, 0.0005365320248529315, -4.087517749395417e-36, 0.0, 0.0, 0.0, 6.413017294499562e-21, -4.0875177493954164e-36, 0.00048397344653494656, 0.0, 0.0, 0.0, 0.0, 0.0, 0.0, 0.0, 0.0, 0.0, 0.0, 0.0, 0.0, 0.0, 0.0, 0.0, 0.0, 0.0, 0.0, 0.0, 0.0, 0.0)",0.003333533415570855,-0.004664189647883177,-0.002807884011417627,-0.0018685259856283665,-0.0008898612577468157,-0.0003472253738436847,"(0.0019132619490846992, 0.0, 0.0, 0.0, 0.0, 0.0, 0.0, 0.001910514198243618, -5.781611542141787e-20, 0.0, 0.0, 0.0, 0.0, -5.781611542141788e-20, 0.0014384097885340452, 0.0, 0.0, 0.0, 0.0, 0.0, 0.0, 0.0, 0.0, 0.0, 0.0, 0.0, 0.0, 0.0, 0.0, 0.0, 0.0, 0.0, 0.0, 0.0, 0.0, 0.0)"
1676104290.5772448,4368,1676104290,541797992,map,base_link,-0.35838946700096147,-0.6259777545928954,0.13792680203914637,-0.033245395279952954,-0.07305194075137321,-0.016659805680672726,0.996634662870803,"(0.0005242940387688577, 4.08291180477346e-23, 6.142095986834761e-21, 0.0, 0.0, 0.0, 4.08291180477346e-23, 0.0005244779167696834, -3.970580047069522e-36, 0.0, 0.0, 0.0, 6.142095986834765e-21, -3.9705800470695224e-36, 0.0004741400189232081, 0.0, 0.0, 0.0, 0.0, 0.0, 0.0, 0.0, 0.0, 0.0, 0.0, 0.0, 0.0, 0.0, 0.0, 0.0, 0.0, 0.0, 0.0, 0.0, 0.0, 0.0)",0.0032008043490350246,-0.004774850327521563,-0.002545386087149381,-2.4989321900648065e-07,0.0005608479841612279,-0.0002861533139366657,"(0.0018882639706134796, 0.0, 0.0, 0.0, 0.0, 0.0, 0.0, 0.0018855505622923374, -5.677182163279824e-20, 0.0, 0.0, 0.0, 0.0, -5.677182163279825e-20, 0.0014219734584912658, 0.0, 0.0, 0.0, 0.0, 0.0, 0.0, 0.0, 0.0, 0.0, 0.0, 0.0, 0.0, 0.0, 0.0, 0.0, 0.0, 0.0, 0.0, 0.0, 0.0, 0.0)"
1676104290.6212573,4369,1676104290,571769992,map,base_link,-0.358395963907242,-0.6260216236114501,0.13793458044528956,-0.03323868597393951,-0.07305434036798544,-0.01665238454399665,0.9966348330901555,"(0.000540718378033489, 4.340113276489167e-23, 6.515523435746204e-21, 0.0, 0.0, 0.0, 4.340113276489167e-23, 0.0005409138393588364, -4.130822412829097e-36, 0.0, 0.0, 0.0, 6.5155234357461996e-21, -4.130822412829097e-36, 0.0004875150916632265, 0.0, 0.0, 0.0, 0.0, 0.0, 0.0, 0.0, 0.0, 0.0, 0.0, 0.0, 0.0, 0.0, 0.0, 0.0, 0.0, 0.0, 0.0, 0.0, 0.0, 0.0)",0.003223136067390442,-0.004770092666149139,-0.0025290455669164653,-0.0020639754366129637,-0.0010221018455922604,0.0007693054503761233,"(0.0019207918085157871, 0.0, 0.0, 0.0, 0.0, 0.0, 0.0, 0.001918033231049776, -5.810679660554553e-20, 0.0, 0.0, 0.0, 0.0, -5.810679660554553e-20, 0.001443555229343474, 0.0, 0.0, 0.0, 0.0, 0.0, 0.0, 0.0, 0.0, 0.0, 0.0, 0.0, 0.0, 0.0, 0.0, 0.0, 0.0, 0.0, 0.0, 0.0, 0.0, 0.0)"
1676104290.621335,4370,1676104290,611737600,map,base_link,-0.3584029674530031,-0.6260751485824584,0.137949988245964,-0.03322324922573441,-0.07305159980111602,-0.016650628413416347,0.9966355635250256,"(0.0005432711914181709, 4.3814723071168185e-23, 6.570935917594652e-21, 0.0, 0.0, 0.0, 4.3814723071168185e-23, 0.0005434685153886676, -4.1552082604625984e-36, 0.0, 0.0, 0.0, 6.570935917594655e-21, -4.1552082604625984e-36, 0.0004896154277957976, 0.0, 0.0, 0.0, 0.0, 0.0, 0.0, 0.0, 0.0, 0.0, 0.0, 0.0, 0.0, 0.0, 0.0, 0.0, 0.0, 0.0, 0.0, 0.0, 0.0, 0.0)",0.003291353117674589,-0.004751469008624554,-0.0023241208400577302,-0.001211591879837215,0.0009166631498374044,-0.0007124449475668372,"(0.0019245347939431667, 0.0, 0.0, 0.0, 0.0, 0.0, 0.0, 0.001921771909110248, -5.824421756458257e-20, 0.0, 0.0, 0.0, 0.0, -5.824421756458257e-20, 0.001446171780116856, 0.0, 0.0, 0.0, 0.0, 0.0, 0.0, 0.0, 0.0, 0.0, 0.0, 0.0, 0.0, 0.0, 0.0, 0.0, 0.0, 0.0, 0.0, 0.0, 0.0, 0.0)"
1676104290.6665013,4371,1676104290,641709600,map,base_link,-0.3584105074405672,-0.6261183023452758,0.13796685636043543,-0.033232669066836064,-0.07305218990186771,-0.01665202049393906,0.9966351835912455,"(0.0005591877270489931, 4.6257490817613845e-23, 6.926592308778143e-21, 0.0, 0.0, 0.0, 4.6257490817613845e-23, 0.0005593960522674024, -4.3092630212268954e-36, 0.0, 0.0, 0.0, 6.926592308778137e-21, -4.309263021226892e-36, 0.0005026278086006641, 0.0, 0.0, 0.0, 0.0, 0.0, 0.0, 0.0, 0.0, 0.0, 0.0, 0.0, 0.0, 0.0, 0.0, 0.0, 0.0, 0.0, 0.0, 0.0, 0.0, 0.0)",0.0029904991388320923,-0.004788597580045462,-0.002279269509017467,-0.002747094025835395,-0.0008254722924903035,0.00028331897919997584,"(0.001953703351318836, 0.0, 0.0, 0.0, 0.0, 0.0, 0.0, 0.001950901816599071, -5.942628873136736e-20, 0.0, 0.0, 0.0, 0.0, -5.942628873136736e-20, 0.0014656493440270424, 0.0, 0.0, 0.0, 0.0, 0.0, 0.0, 0.0, 0.0, 0.0, 0.0, 0.0, 0.0, 0.0, 0.0, 0.0, 0.0, 0.0, 0.0, 0.0, 0.0, 0.0)"
1676104290.6811252,4372,1676104290,671683600,map,base_link,-0.35842302441597,-0.6261592507362365,0.13798299431800837,-0.03323683200176484,-0.0730553740410565,-0.016653341357660736,0.9966348184212217,"(0.0005441779503598809, 4.3685476100456774e-23, 6.559216856662149e-21, 0.0, 0.0, 0.0, 4.3685476100456774e-23, 0.0005443746922537684, -4.1576492175903124e-36, 0.0, 0.0, 0.0, 6.559216856662148e-21, -4.157649217590316e-36, 0.0004906178801320493, 0.0, 0.0, 0.0, 0.0, 0.0, 0.0, 0.0, 0.0, 0.0, 0.0, 0.0, 0.0, 0.0, 0.0, 0.0, 0.0, 0.0, 0.0, 0.0, 0.0, 0.0)",0.0030372831970453262,-0.004878404084593058,-0.002330816816538572,-0.0021181360352784395,-0.0003505941131152212,0.0005121225258335471,"(0.0019204996060580015, 0.0, 0.0, 0.0, 0.0, 0.0, 0.0, 0.001917748129926622, -5.800407661282202e-20, 0.0, 0.0, 0.0, 0.0, -5.800407661282201e-20, 0.0014441089006140828, 0.0, 0.0, 0.0, 0.0, 0.0, 0.0, 0.0, 0.0, 0.0, 0.0, 0.0, 0.0, 0.0, 0.0, 0.0, 0.0, 0.0, 0.0, 0.0, 0.0, 0.0)"
1676104290.7212565,4373,1676104290,711649208,map,base_link,-0.3584334254264833,-0.6262167096137999,0.13800610601902003,-0.033227969635800846,-0.07304848085299018,-0.016654756567066418,0.9966355646345176,"(0.000575966143514961, 4.8609785684561517e-23, 7.282063362015014e-21, 0.0, 0.0, 0.0, 4.8609785684561517e-23, 0.0005761850625276566, -4.467807278801413e-36, 0.0, 0.0, 0.0, 7.282063362015008e-21, -4.467807278801413e-36, 0.0005165035836398602, 0.0, 0.0, 0.0, 0.0, 0.0, 0.0, 0.0, 0.0, 0.0, 0.0, 0.0, 0.0, 0.0, 0.0, 0.0, 0.0, 0.0, 0.0, 0.0, 0.0, 0.0)",0.003198793390765786,-0.005085797514766455,-0.002182075753808021,0.002308017574250698,0.0016770204529166222,-0.00078515917994082,"(0.001980417873710394, 0.0, 0.0, 0.0, 0.0, 0.0, 0.0, 0.001977586420252919, -6.04735336703678e-20, 0.0, 0.0, 0.0, 0.0, -6.047353367036782e-20, 0.0014837825438007712, 0.0, 0.0, 0.0, 0.0, 0.0, 0.0, 0.0, 0.0, 0.0, 0.0, 0.0, 0.0, 0.0, 0.0, 0.0, 0.0, 0.0, 0.0, 0.0, 0.0, 0.0)"
1676104290.7652776,4374,1676104290,741621208,map,base_link,-0.3584310114383699,-0.6262735724449157,0.13802082836627955,-0.03322814415152049,-0.07305090047935121,-0.016651256152335273,0.996635460545903,"(0.0005897196242585778, 5.045801736573469e-23, 7.563769912496654e-21, 0.0, 0.0, 0.0, 5.045801736573469e-23, 0.000589946866966784, -4.5958508675080115e-36, 0.0, 0.0, 0.0, 7.56376991249665e-21, -4.595850867508011e-36, 0.0005279567558318377, 0.0, 0.0, 0.0, 0.0, 0.0, 0.0, 0.0, 0.0, 0.0, 0.0, 0.0, 0.0, 0.0, 0.0, 0.0, 0.0, 0.0, 0.0, 0.0, 0.0, 0.0)",0.0033648298121988773,-0.0052157677710056305,-0.0022901464253664012,0.000991250155493617,0.00044809406972490246,-0.00037054694257676607,"(0.002000566804781556, 0.0, 0.0, 0.0, 0.0, 0.0, 0.0, 0.0019977178890258074, -6.123779607840795e-20, 0.0, 0.0, 0.0, 0.0, -6.123779607840796e-20, 0.001497673336416483, 0.0, 0.0, 0.0, 0.0, 0.0, 0.0, 0.0, 0.0, 0.0, 0.0, 0.0, 0.0, 0.0, 0.0, 0.0, 0.0, 0.0, 0.0, 0.0, 0.0, 0.0)"
1676104290.8092864,4375,1676104290,771593208,map,base_link,-0.35842385888099687,-0.6263296604156493,0.13803727924823755,-0.0332270062941259,-0.07304609597492707,-0.0166422010849889,0.9966360052292161,"(0.0006038050050847232, 5.233209844105014e-23, 7.856589611393003e-21, 0.0, 0.0, 0.0, 5.233209844105014e-23, 0.0006040406879037619, -4.727838655878109e-36, 0.0, 0.0, 0.0, 7.856589611392998e-21, -4.72783865587811e-36, 0.0005396510823629797, 0.0, 0.0, 0.0, 0.0, 0.0, 0.0, 0.0, 0.0, 0.0, 0.0, 0.0, 0.0, 0.0, 0.0, 0.0, 0.0, 0.0, 0.0, 0.0, 0.0, 0.0)",0.0036977932322770357,-0.005304322578012943,-0.0022927897516638036,-0.0003970928955823183,0.0016567333368584514,0.0006082771578803656,"(0.0020215967670083046, 0.0, 0.0, 0.0, 0.0, 0.0, 0.0, 0.0020187278278172016, -6.205314047588993e-20, 0.0, 0.0, 0.0, 0.0, -6.205314047588993e-20, 0.0015120254829525948, 0.0, 0.0, 0.0, 0.0, 0.0, 0.0, 0.0, 0.0, 0.0, 0.0, 0.0, 0.0, 0.0, 0.0, 0.0, 0.0, 0.0, 0.0, 0.0, 0.0, 0.0)"
1676104290.853371,4376,1676104290,811560816,map,base_link,-0.35841274261474626,-0.6263986825942992,0.1380650550127029,-0.0332207912984865,-0.07304987810192781,-0.01664432945757215,0.996635910507545,"(0.0005987219046801329, 5.081990888372664e-23, 7.667445108483515e-21, 0.0, 0.0, 0.0, 5.081990888372664e-23, 0.0005989507772028446, -4.663669617732013e-36, 0.0, 0.0, 0.0, 7.667445108483518e-21, -4.663669617732013e-36, 0.0005361124640330672, 0.0, 0.0, 0.0, 0.0, 0.0, 0.0, 0.0, 0.0, 0.0, 0.0, 0.0, 0.0, 0.0, 0.0, 0.0, 0.0, 0.0, 0.0, 0.0, 0.0, 0.0)",0.0035123005509376526,-0.0053511084988713264,-0.0022275468800216905,0.0013074822491034865,0.0001462341169826687,0.0005407964927144349,"(0.0020038876682519913, 0.0, 0.0, 0.0, 0.0, 0.0, 0.0, 0.0020010515581816435, -6.121923377021556e-20, 0.0, 0.0, 0.0, 0.0, -6.121923377021558e-20, 0.0015011585783213377, 0.0, 0.0, 0.0, 0.0, 0.0, 0.0, 0.0, 0.0, 0.0, 0.0, 0.0, 0.0, 0.0, 0.0, 0.0, 0.0, 0.0, 0.0, 0.0, 0.0, 0.0)"
1676104290.85341,4377,1676104290,841532816,map,base_link,-0.35840621590614336,-0.6264441609382628,0.13808748126029963,-0.03321640674102647,-0.0730427313850169,-0.016634305043260793,0.9966367077078948,"(0.0005777477636002004, 4.694249976238432e-23, 7.12416968825888e-21, 0.0, 0.0, 0.0, 4.694249976238432e-23, 0.0005779591738246381, -4.445882609621793e-36, 0.0, 0.0, 0.0, 7.12416968825888e-21, -4.4458826096217906e-36, 0.0005195745034143329, 0.0, 0.0, 0.0, 0.0, 0.0, 0.0, 0.0, 0.0, 0.0, 0.0, 0.0, 0.0, 0.0, 0.0, 0.0, 0.0, 0.0, 0.0, 0.0, 0.0, 0.0)",0.003600842086598277,-0.005254002287983894,-0.002122992649674415,0.000439626892330125,0.0015460909344255924,-8.924842404667307e-05,"(0.0019581064116209745, 0.0, 0.0, 0.0, 0.0, 0.0, 0.0, 0.0019553378224372864, -5.925111585828012e-20, 0.0, 0.0, 0.0, 0.0, -5.925111585828011e-20, 0.0014715157449245453, 0.0, 0.0, 0.0, 0.0, 0.0, 0.0, 0.0, 0.0, 0.0, 0.0, 0.0, 0.0, 0.0, 0.0, 0.0, 0.0, 0.0, 0.0, 0.0, 0.0, 0.0)"
1676104290.8976562,4378,1676104290,876501816,map,base_link,-0.3583872616291048,-0.6265107393264769,0.13811087608337397,-0.033221360147084364,-0.07305602071092103,-0.016633405323685426,0.9966356194959466,"(0.0005918636452406645, 4.8842430231842056e-23, 7.424181925160649e-21, 0.0, 0.0, 0.0, 4.8842430231842056e-23, 0.0005920836119912565, -4.579455115477875e-36, 0.0, 0.0, 0.0, 7.42418192516065e-21, -4.5794551154778754e-36, 0.0005312405992299318, 0.0, 0.0, 0.0, 0.0, 0.0, 0.0, 0.0, 0.0, 0.0, 0.0, 0.0, 0.0, 0.0, 0.0, 0.0, 0.0, 0.0, 0.0, 0.0, 0.0, 0.0)",0.003584492253139615,-0.0051675173453986645,-0.0018713050521910184,-0.00024408484750892967,-0.000616606674157083,0.00012814579531550416,"(0.001982262125238776, 0.0, 0.0, 0.0, 0.0, 0.0, 0.0, 0.0019794630352407694, -6.023754143725854e-20, 0.0, 0.0, 0.0, 0.0, -6.023754143725855e-20, 0.0014875861816108227, 0.0, 0.0, 0.0, 0.0, 0.0, 0.0, 0.0, 0.0, 0.0, 0.0, 0.0, 0.0, 0.0, 0.0, 0.0, 0.0, 0.0, 0.0, 0.0, 0.0, 0.0)"
1676104290.9153314,4379,1676104290,906479424,map,base_link,-0.3583840131759645,-0.6265452504158019,0.13814358413219446,-0.03321958976273633,-0.07305510354048488,-0.01663764904731771,0.9966356681426464,"(0.0005717010935768485, 4.5262289143135983e-23, 6.919349872094787e-21, 0.0, 0.0, 0.0, 4.5262289143135983e-23, 0.0005719049368053675, -4.373546586098494e-36, 0.0, 0.0, 0.0, 6.919349872094786e-21, -4.373546586098495e-36, 0.0005152003141120076, 0.0, 0.0, 0.0, 0.0, 0.0, 0.0, 0.0, 0.0, 0.0, 0.0, 0.0, 0.0, 0.0, 0.0, 0.0, 0.0, 0.0, 0.0, 0.0, 0.0, 0.0)",0.0038401158526539803,-0.005105717107653618,-0.001950007397681474,-0.002350707072764635,-0.0003432317462284118,6.122746708570052e-05,"(0.0019400999881327152, 0.0, 0.0, 0.0, 0.0, 0.0, 0.0, 0.0019373575923964381, -5.846685120876997e-20, 0.0, 0.0, 0.0, 0.0, -5.846685120876997e-20, 0.0014599395217373967, 0.0, 0.0, 0.0, 0.0, 0.0, 0.0, 0.0, 0.0, 0.0, 0.0, 0.0, 0.0, 0.0, 0.0, 0.0, 0.0, 0.0, 0.0, 0.0, 0.0, 0.0)"
1676104290.9573162,4380,1676104290,936449424,map,base_link,-0.35837477445602434,-0.6265780925750731,0.13817514479160303,-0.03322241770930441,-0.07305084310124645,-0.01663108359920405,0.9966360006263592,"(0.0005858752992935479, 4.7239767795020565e-23, 7.224565828267073e-21, 0.0, 0.0, 0.0, 4.7239767795020565e-23, 0.0005860880482941866, -4.5084566741083624e-36, 0.0, 0.0, 0.0, 7.22456582826707e-21, -4.508456674108363e-36, 0.000526882242411375, 0.0, 0.0, 0.0, 0.0, 0.0, 0.0, 0.0, 0.0, 0.0, 0.0, 0.0, 0.0, 0.0, 0.0, 0.0, 0.0, 0.0, 0.0, 0.0, 0.0, 0.0)",0.003919520881026983,-0.005190222058445215,-0.001986888004466891,-0.00042566066258586943,-9.576906450092793e-05,3.487499634502457e-05,"(0.0019657104276120663, 0.0, 0.0, 0.0, 0.0, 0.0, 0.0, 0.0019629329908639193, -5.952935088645384e-20, 0.0, 0.0, 0.0, 0.0, -5.952935088645386e-20, 0.0014768389519304037, 0.0, 0.0, 0.0, 0.0, 0.0, 0.0, 0.0, 0.0, 0.0, 0.0, 0.0, 0.0, 0.0, 0.0, 0.0, 0.0, 0.0, 0.0, 0.0, 0.0, 0.0)"
1676104291.0012953,4381,1676104290,976414424,map,base_link,-0.35836386680603044,-0.6266136169433593,0.13821429014205927,-0.03320985089326771,-0.07305204983950553,-0.016634005473741068,0.9966362675923863,"(0.0005511080380529165, 4.1643373963216487e-23, 6.412607412502222e-21, 0.0, 0.0, 0.0, 4.1643373963216487e-23, 0.0005512955831363797, -4.164998085961323e-36, 0.0, 0.0, 0.0, 6.412607412502227e-21, -4.164998085961323e-36, 0.0004987451247870922, 0.0, 0.0, 0.0, 0.0, 0.0, 0.0, 0.0, 0.0, 0.0, 0.0, 0.0, 0.0, 0.0, 0.0, 0.0, 0.0, 0.0, 0.0, 0.0, 0.0, 0.0)",0.004036252852529287,-0.005214356817305088,-0.0022375572007149454,0.001085447845980525,-4.652893403545027e-05,-0.00037463699118234217,"(0.0018981413450092077, 0.0, 0.0, 0.0, 0.0, 0.0, 0.0, 0.0018954470288008451, -5.678341238284464e-20, 0.0, 0.0, 0.0, 0.0, -5.678341238284464e-20, 0.0014317752793431282, 0.0, 0.0, 0.0, 0.0, 0.0, 0.0, 0.0, 0.0, 0.0, 0.0, 0.0, 0.0, 0.0, 0.0, 0.0, 0.0, 0.0, 0.0, 0.0, 0.0, 0.0)"
1676104291.045267,4382,1676104291,6389776,map,base_link,-0.35834446549415605,-0.6266409754753112,0.13823665678501124,-0.03321954223725229,-0.07305112568904326,-0.01663460780191784,0.9966360086259363,"(0.0005658776499330997, 4.377594897995476e-23, 6.74057003743097e-21, 0.0, 0.0, 0.0, 4.377594897995476e-23, 0.0005660747992806137, -4.307541442924889e-36, 0.0, 0.0, 0.0, 6.740570037430969e-21, -4.3075414429248856e-36, 0.0005108367186039686, 0.0, 0.0, 0.0, 0.0, 0.0, 0.0, 0.0, 0.0, 0.0, 0.0, 0.0, 0.0, 0.0, 0.0, 0.0, 0.0, 0.0, 0.0, 0.0, 0.0, 0.0)",0.0043650781735777855,-0.005443294998258352,-0.0024494861718267194,-4.9024351028492674e-05,0.001251628156751394,-0.0011864093830809,"(0.0019276649691164494, 0.0, 0.0, 0.0, 0.0, 0.0, 0.0, 0.0019249264150857925, -5.802972453328137e-20, 0.0, 0.0, 0.0, 0.0, -5.802972453328137e-20, 0.0014510777546092868, 0.0, 0.0, 0.0, 0.0, 0.0, 0.0, 0.0, 0.0, 0.0, 0.0, 0.0, 0.0, 0.0, 0.0, 0.0, 0.0, 0.0, 0.0, 0.0, 0.0, 0.0)"
1676104291.0893142,4383,1676104291,46351776,map,base_link,-0.35831391811370866,-0.6266771554946898,0.13825967907905573,-0.03322169966652869,-0.0730549110852456,-0.01662896238780317,0.9966357546223501,"(0.0005645921919494867, 4.349160564438966e-23, 6.7075228558719054e-21, 0.0, 0.0, 0.0, 4.349160564438966e-23, 0.0005647880607284606, -4.2942425764249375e-36, 0.0, 0.0, 0.0, 6.707522855871907e-21, -4.294242576424941e-36, 0.0005098211113363504, 0.0, 0.0, 0.0, 0.0, 0.0, 0.0, 0.0, 0.0, 0.0, 0.0, 0.0, 0.0, 0.0, 0.0, 0.0, 0.0, 0.0, 0.0, 0.0, 0.0, 0.0)",0.004439771641045809,-0.0053846994414925575,-0.002608128357678651,7.947730045998469e-05,0.00045294759911485027,0.0007259884732775389,"(0.0019264413276687264, 0.0, 0.0, 0.0, 0.0, 0.0, 0.0, 0.0019236980006098747, -5.803306061632057e-20, 0.0, 0.0, 0.0, 0.0, -5.803306061632055e-20, 0.0014498220989480615, 0.0, 0.0, 0.0, 0.0, 0.0, 0.0, 0.0, 0.0, 0.0, 0.0, 0.0, 0.0, 0.0, 0.0, 0.0, 0.0, 0.0, 0.0, 0.0, 0.0, 0.0)"
1676104291.0893505,4384,1676104291,76323776,map,base_link,-0.35829240083694475,-0.6266985535621642,0.138274535536766,-0.03322186518385477,-0.07305264736775849,-0.016629399631849756,0.9966358941394502,"(0.0005481132538989186, 4.0997139109659434e-23, 6.341573080268372e-21, 0.0, 0.0, 0.0, 4.0997139109659434e-23, 0.0005482978885993361, -4.1351949310055e-36, 0.0, 0.0, 0.0, 6.3415730802683716e-21, -4.1351949310055e-36, 0.000496330379974097, 0.0, 0.0, 0.0, 0.0, 0.0, 0.0, 0.0, 0.0, 0.0, 0.0, 0.0, 0.0, 0.0, 0.0, 0.0, 0.0, 0.0, 0.0, 0.0, 0.0, 0.0)",0.004198152106255293,-0.005322861485183239,-0.0026515149511396876,0.0019363838946446776,-0.0008113845833577216,0.00013266931637190293,"(0.001902328454889357, 0.0, 0.0, 0.0, 0.0, 0.0, 0.0, 0.0018996110884472728, -5.765539890816708e-20, 0.0, 0.0, 0.0, 0.0, -5.765539890816708e-20, 0.001428819028660655, 0.0, 0.0, 0.0, 0.0, 0.0, 0.0, 0.0, 0.0, 0.0, 0.0, 0.0, 0.0, 0.0, 0.0, 0.0, 0.0, 0.0, 0.0, 0.0, 0.0, 0.0)"
1676104291.1332974,4385,1676104291,106326872,map,base_link,-0.3582707047462465,-0.6267144680023192,0.13828335702419275,-0.033216829136754285,-0.0730576217986291,-0.016621969975720113,0.9966358369499708,"(0.0005639229202643037, 4.3439906856105094e-23, 6.7125768791086166e-21, 0.0, 0.0, 0.0, 4.3439906856105094e-23, 0.0005641185562126338, -4.2917273831041576e-36, 0.0, 0.0, 0.0, 6.7125768791086136e-21, -4.291727383104157e-36, 0.0005091105704195797, 0.0, 0.0, 0.0, 0.0, 0.0, 0.0, 0.0, 0.0, 0.0, 0.0, 0.0, 0.0, 0.0, 0.0, 0.0, 0.0, 0.0, 0.0, 0.0, 0.0, 0.0)",0.004269513767212629,-0.005286765284836292,-0.002859181025996804,0.0029574965592473745,-0.0006388759356923401,0.00028539283084683126,"(0.0019353425595909357, 0.0, 0.0, 0.0, 0.0, 0.0, 0.0, 0.0019325749017298222, -5.906925656234934e-20, 0.0, 0.0, 0.0, 0.0, -5.906925656234933e-20, 0.0014502378180623055, 0.0, 0.0, 0.0, 0.0, 0.0, 0.0, 0.0, 0.0, 0.0, 0.0, 0.0, 0.0, 0.0, 0.0, 0.0, 0.0, 0.0, 0.0, 0.0, 0.0, 0.0)"
1676104291.147311,4386,1676104291,136274872,map,base_link,-0.3582482337951662,-0.6267291903495787,0.13829119503498072,-0.03321345162988998,-0.07305231548500453,-0.01661485962051738,0.9966364417253873,"(0.0005475952639244497, 4.103591320087286e-23, 6.352486633971341e-21, 0.0, 0.0, 0.0, 4.103591320087286e-23, 0.0005477800732478499, -4.134635587268164e-36, 0.0, 0.0, 0.0, 6.3524866339713394e-21, -4.134635587268164e-36, 0.0004957232740707695, 0.0, 0.0, 0.0, 0.0, 0.0, 0.0, 0.0, 0.0, 0.0, 0.0, 0.0, 0.0, 0.0, 0.0, 0.0, 0.0, 0.0, 0.0, 0.0, 0.0, 0.0)",0.004252810962498188,-0.005206802394241095,-0.002616039710119366,0.002554279984906316,0.0012866727774962783,1.3318439414433512e-05,"(0.0019041268387809396, 0.0, 0.0, 0.0, 0.0, 0.0, 0.0, 0.0019013960845768452, -5.78055083881651e-20, 0.0, 0.0, 0.0, 0.0, -5.78055083881651e-20, 0.0014293782878667116, 0.0, 0.0, 0.0, 0.0, 0.0, 0.0, 0.0, 0.0, 0.0, 0.0, 0.0, 0.0, 0.0, 0.0, 0.0, 0.0, 0.0, 0.0, 0.0, 0.0, 0.0)"
1676104291.1893618,4387,1676104291,176237872,map,base_link,-0.3582247495651247,-0.6267449855804442,0.13830319046974177,-0.03321481424665482,-0.07305256737422369,-0.016621353273070502,0.996636292879348,"(0.0005468183080665767, 4.0997139109659434e-23, 6.345828724658098e-21, 0.0, 0.0, 0.0, 4.0997139109659434e-23, 0.0005470029427669942, -4.129235751077708e-36, 0.0, 0.0, 0.0, 6.345828724658103e-21, -4.129235751077708e-36, 0.0004950006841681898, 0.0, 0.0, 0.0, 0.0, 0.0, 0.0, 0.0, 0.0, 0.0, 0.0, 0.0, 0.0, 0.0, 0.0, 0.0, 0.0, 0.0, 0.0, 0.0, 0.0, 0.0)",0.004083510488271713,-0.005254863295704126,-0.0026936868671327825,0.00011224047921132296,-0.0007428132230415939,0.0004667876637540759,"(0.0019036553567275405, 0.0, 0.0, 0.0, 0.0, 0.0, 0.0, 0.0019009198294952512, -5.781805434147486e-20, 0.0, 0.0, 0.0, 0.0, -5.781805434147485e-20, 0.00142879958730191, 0.0, 0.0, 0.0, 0.0, 0.0, 0.0, 0.0, 0.0, 0.0, 0.0, 0.0, 0.0, 0.0, 0.0, 0.0, 0.0, 0.0, 0.0, 0.0, 0.0, 0.0)"
1676104291.2332745,4388,1676104291,206214480,map,base_link,-0.35821169614791887,-0.6267573237419127,0.13830924034118647,-0.03321619384801493,-0.07305744431494683,-0.016617306483145456,0.9966359348002083,"(0.0005319734918884933, 3.889041348706344e-23, 6.031438540128072e-21, 0.0, 0.0, 0.0, 3.889041348706344e-23, 0.0005321486387401819, -3.988985206302233e-36, 0.0, 0.0, 0.0, 6.031438540128076e-21, -3.988985206302233e-36, 0.0004827230586670339, 0.0, 0.0, 0.0, 0.0, 0.0, 0.0, 0.0, 0.0, 0.0, 0.0, 0.0, 0.0, 0.0, 0.0, 0.0, 0.0, 0.0, 0.0, 0.0, 0.0, 0.0)",0.004021484404802322,-0.005414830055087805,-0.0027470951899886123,0.0014404142275452614,-0.0010859053581953047,0.0016996117774397137,"(0.0018759995000436902, 0.0, 0.0, 0.0, 0.0, 0.0, 0.0, 0.001873295521363616, -5.671436686934567e-20, 0.0, 0.0, 0.0, 0.0, -5.671436686934569e-20, 0.001410187571309507, 0.0, 0.0, 0.0, 0.0, 0.0, 0.0, 0.0, 0.0, 0.0, 0.0, 0.0, 0.0, 0.0, 0.0, 0.0, 0.0, 0.0, 0.0, 0.0, 0.0, 0.0)"
1676104291.2772815,4389,1676104291,236185480,map,base_link,-0.3582065403461458,-0.626770257949829,0.13831512629985804,-0.03321625840896313,-0.0730621108132702,-0.016611913113598335,0.9966356812114483,"(0.0005190434167161584, 3.7223127564886245e-23, 5.775062697081752e-21, 0.0, 0.0, 0.0, 3.7223127564886245e-23, 0.0005192110547795892, -3.8702844327267094e-36, 0.0, 0.0, 0.0, 5.775062697081758e-21, -3.870284432726712e-36, 0.0004718864511232823, 0.0, 0.0, 0.0, 0.0, 0.0, 0.0, 0.0, 0.0, 0.0, 0.0, 0.0, 0.0, 0.0, 0.0, 0.0, 0.0, 0.0, 0.0, 0.0, 0.0, 0.0)",0.00388156296685338,-0.0057110413908958435,-0.0026847939006984225,0.0020879292860627174,0.001530905137769878,-0.0002647373476065697,"(0.001853599096648395, 0.0, 0.0, 0.0, 0.0, 0.0, 0.0, 0.001850917236879468, -5.585006474042551e-20, 0.0, 0.0, 0.0, 0.0, -5.585006474042551e-20, 0.001394866849295795, 0.0, 0.0, 0.0, 0.0, 0.0, 0.0, 0.0, 0.0, 0.0, 0.0, 0.0, 0.0, 0.0, 0.0, 0.0, 0.0, 0.0, 0.0, 0.0, 0.0, 0.0)"
1676104291.321244,4390,1676104291,276146480,map,base_link,-0.35820493102073686,-0.6267930269241332,0.13832631707191462,-0.03321985966001795,-0.07307236639357576,-0.016613913959234207,0.996634786238194,"(0.00052211235743016, 3.8050308177439273e-23, 5.885000177149644e-21, 0.0, 0.0, 0.0, 3.8050308177439273e-23, 0.0005222837207838893, -3.908182441090055e-36, 0.0, 0.0, 0.0, 5.8850001771496484e-21, -3.9081824410900554e-36, 0.000474057684186846, 0.0, 0.0, 0.0, 0.0, 0.0, 0.0, 0.0, 0.0, 0.0, 0.0, 0.0, 0.0, 0.0, 0.0, 0.0, 0.0, 0.0, 0.0, 0.0, 0.0, 0.0)",0.003977211657911539,-0.005914431530982256,-0.0024571565445512525,-0.00152499636169523,0.00014364477829076358,0.0006725723505951464,"(0.0018655232852324843, 0.0, 0.0, 0.0, 0.0, 0.0, 0.0, 0.0018628144171088934, -5.641668561354183e-20, 0.0, 0.0, 0.0, 0.0, -5.641668561354182e-20, 0.0014021372189745307, 0.0, 0.0, 0.0, 0.0, 0.0, 0.0, 0.0, 0.0, 0.0, 0.0, 0.0, 0.0, 0.0, 0.0, 0.0, 0.0, 0.0, 0.0, 0.0, 0.0, 0.0)"
1676104291.3212569,4391,1676104291,306125832,map,base_link,-0.3582024276256563,-0.6268086433410643,0.13833682239055628,-0.033222802937468494,-0.07306677706858741,-0.016605796562954963,0.9966352202031581,"(0.0005119953420944512, 3.6951708926392283e-23, 5.708790124399551e-21, 0.0, 0.0, 0.0, 3.6951708926392283e-23, 0.0005121617577970028, -3.8201376625907344e-36, 0.0, 0.0, 0.0, 5.708790124399555e-21, -3.820137662590735e-36, 0.0004653795331250876, 0.0, 0.0, 0.0, 0.0, 0.0, 0.0, 0.0, 0.0, 0.0, 0.0, 0.0, 0.0, 0.0, 0.0, 0.0, 0.0, 0.0, 0.0, 0.0, 0.0, 0.0)",0.004110280424356461,-0.00579097168520093,-0.0024499818682670585,-0.00022762415756005794,-0.00020025781122967587,0.001126569346524775,"(0.0018509624060243368, 0.0, 0.0, 0.0, 0.0, 0.0, 0.0, 0.0018482630839571357, -5.589585747000602e-20, 0.0, 0.0, 0.0, 0.0, -5.589585747000603e-20, 0.0013918387703597546, 0.0, 0.0, 0.0, 0.0, 0.0, 0.0, 0.0, 0.0, 0.0, 0.0, 0.0, 0.0, 0.0, 0.0, 0.0, 0.0, 0.0, 0.0, 0.0, 0.0, 0.0)"
1676104291.3654628,4392,1676104291,336095832,map,base_link,-0.3581996858119966,-0.6268206238746642,0.13834950327873224,-0.03322942749186146,-0.07307447061552284,-0.016602737588372246,0.9966344736598276,"(0.0005024448619224131, 3.596943194898556e-23, 5.5445913962670356e-21, 0.0, 0.0, 0.0, 3.596943194898556e-23, 0.0005026068538427353, -3.7374483288277626e-36, 0.0, 0.0, 0.0, 5.544591396267037e-21, -3.737448328827766e-36, 0.0004571698373183608, 0.0, 0.0, 0.0, 0.0, 0.0, 0.0, 0.0, 0.0, 0.0, 0.0, 0.0, 0.0, 0.0, 0.0, 0.0, 0.0, 0.0, 0.0, 0.0, 0.0, 0.0)",0.004151794593781233,-0.005739237647503614,-0.0025002078618854276,-0.0010217712260782719,-0.0013702561846002936,0.00016234861686825769,"(0.0018368385499343276, 0.0, 0.0, 0.0, 0.0, 0.0, 0.0, 0.0018341498216614127, -5.53808175731109e-20, 0.0, 0.0, 0.0, 0.0, -5.53808175731109e-20, 0.0013819311279803514, 0.0, 0.0, 0.0, 0.0, 0.0, 0.0, 0.0, 0.0, 0.0, 0.0, 0.0, 0.0, 0.0, 0.0, 0.0, 0.0, 0.0, 0.0, 0.0, 0.0, 0.0)"
1676104291.3804493,4393,1676104291,376058832,map,base_link,-0.35819748044013994,-0.6268374919891356,0.13836069405078882,-0.033221822507440366,-0.07306967353000333,-0.016603236547490453,0.996635067089139,"(0.0005081816343590617, 3.739114862681108e-23, 5.726390100946005e-21, 0.0, 0.0, 0.0, 3.739114862681108e-23, 0.0005083500291220844, -3.8035953334699166e-36, 0.0, 0.0, 0.0, 5.726390100946009e-21, -3.803595333469916e-36, 0.0004614221106749028, 0.0, 0.0, 0.0, 0.0, 0.0, 0.0, 0.0, 0.0, 0.0, 0.0, 0.0, 0.0, 0.0, 0.0, 0.0, 0.0, 0.0, 0.0, 0.0, 0.0, 0.0)",0.003924468532204628,-0.005761800333857536,-0.0024904832243919364,-0.00010002731869462878,0.0015297358622774482,-0.0008308715187013151,"(0.001855455688200891, 0.0, 0.0, 0.0, 0.0, 0.0, 0.0, 0.0018527299398556352, -5.621729049650768e-20, 0.0, 0.0, 0.0, 0.0, -5.621729049650769e-20, 0.001393680926412344, 0.0, 0.0, 0.0, 0.0, 0.0, 0.0, 0.0, 0.0, 0.0, 0.0, 0.0, 0.0, 0.0, 0.0, 0.0, 0.0, 0.0, 0.0, 0.0, 0.0, 0.0)"
1676104291.4211957,4394,1676104291,406035440,map,base_link,-0.35819160938262956,-0.626851975917816,0.13836082816123957,-0.03323142118946851,-0.0730743660025684,-0.016605196927592582,0.9966344032638829,"(0.0005247996305115521, 4.023458198246211e-23, 6.120350855828305e-21, 0.0, 0.0, 0.0, 4.023458198246211e-23, 0.0005249808309599757, -3.9689236577739555e-36, 0.0, 0.0, 0.0, 6.1203508558282994e-21, -3.968923657773953e-36, 0.00047482317313551903, 0.0, 0.0, 0.0, 0.0, 0.0, 0.0, 0.0, 0.0, 0.0, 0.0, 0.0, 0.0, 0.0, 0.0, 0.0, 0.0, 0.0, 0.0, 0.0, 0.0, 0.0)",0.004042848479002714,-0.00553894555196166,-0.0028087180107831946,-0.00225248234346509,0.0005410771118476986,-0.0010205270955339074,"(0.0018913595704361796, 0.0, 0.0, 0.0, 0.0, 0.0, 0.0, 0.0018885808531194925, -5.771134245451645e-20, 0.0, 0.0, 0.0, 0.0, -5.771134245451645e-20, 0.0014173319796100259, 0.0, 0.0, 0.0, 0.0, 0.0, 0.0, 0.0, 0.0, 0.0, 0.0, 0.0, 0.0, 0.0, 0.0, 0.0, 0.0, 0.0, 0.0, 0.0, 0.0, 0.0)"
1676104291.465374,4395,1676104291,436010440,map,base_link,-0.3581924438476564,-0.6268597245216369,0.13835987448692316,-0.033236500353897074,-0.07308623769554236,-0.016607969483541908,0.9966332907285818,"(0.0004895915626548231, 3.5374895883713074e-23, 5.388201811231575e-21, 0.0, 0.0, 0.0, 3.5374895883713074e-23, 0.0004897508770227432, -3.638960891385252e-36, 0.0, 0.0, 0.0, 5.38820181123157e-21, -3.638960891385255e-36, 0.0004455935559235513, 0.0, 0.0, 0.0, 0.0, 0.0, 0.0, 0.0, 0.0, 0.0, 0.0, 0.0, 0.0, 0.0, 0.0, 0.0, 0.0, 0.0, 0.0, 0.0, 0.0, 0.0)",0.003814940806478262,-0.005636216606944799,-0.0027154956478625527,-0.0013512790901586413,-0.0012206023093312979,-0.0002992870577145366,"(0.001823450205847621, 0.0, 0.0, 0.0, 0.0, 0.0, 0.0, 0.001820760197006166, -5.494353407320592e-20, 0.0, 0.0, 0.0, 0.0, -5.494353407320592e-20, 0.0013721121940761805, 0.0, 0.0, 0.0, 0.0, 0.0, 0.0, 0.0, 0.0, 0.0, 0.0, 0.0, 0.0, 0.0, 0.0, 0.0, 0.0, 0.0, 0.0, 0.0, 0.0, 0.0)"
1676104291.5093272,4396,1676104291,475972440,map,base_link,-0.3582024276256563,-0.6268674731254577,0.1383626908063888,-0.03322932248722744,-0.073087231371181,-0.016608828659591755,0.9966334512635334,"(0.0004954412579536438, 3.677076316739631e-23, 5.561321710140875e-21, 0.0, 0.0, 0.0, 3.677076316739631e-23, 0.0004956068587489426, -3.70398222439296e-36, 0.0, 0.0, 0.0, 5.56132171014087e-21, -3.7039822243929575e-36, 0.0004500296199694276, 0.0, 0.0, 0.0, 0.0, 0.0, 0.0, 0.0, 0.0, 0.0, 0.0, 0.0, 0.0, 0.0, 0.0, 0.0, 0.0, 0.0, 0.0, 0.0, 0.0, 0.0)",0.0036684905644506216,-0.005727157462388277,-0.002405223669484257,0.0017485038843005896,0.0005467963637784122,-0.0010063158115372062,"(0.0018402436980977654, 0.0, 0.0, 0.0, 0.0, 0.0, 0.0, 0.0018375242361798882, -5.565989375042702e-20, 0.0, 0.0, 0.0, 0.0, -5.565989375042703e-20, 0.0013830267125740647, 0.0, 0.0, 0.0, 0.0, 0.0, 0.0, 0.0, 0.0, 0.0, 0.0, 0.0, 0.0, 0.0, 0.0, 0.0, 0.0, 0.0, 0.0, 0.0, 0.0, 0.0)"
1676104291.5531983,4397,1676104291,505947048,map,base_link,-0.35821223258972185,-0.6268792748451232,0.13836762309074396,-0.033229491821055133,-0.07308846580829381,-0.01660326827627244,0.9966334710230665,"(0.0005125763127580285, 3.973051879668761e-23, 5.967921087306227e-21, 0.0, 0.0, 0.0, 3.973051879668761e-23, 0.0005127552431076765, -3.874530326918554e-36, 0.0, 0.0, 0.0, 5.967921087306225e-21, -3.874530326918554e-36, 0.00046384453889913857, 0.0, 0.0, 0.0, 0.0, 0.0, 0.0, 0.0, 0.0, 0.0, 0.0, 0.0, 0.0, 0.0, 0.0, 0.0, 0.0, 0.0, 0.0, 0.0, 0.0, 0.0)",0.0036586695350706577,-0.005685416515916586,-0.002563876332715153,0.0005287877866066992,0.0005794899770990014,0.0004235922533553093,"(0.0018778016092255712, 0.0, 0.0, 0.0, 0.0, 0.0, 0.0, 0.0018750284798443317, -5.721673250204496e-20, 0.0, 0.0, 0.0, 0.0, -5.721673250204497e-20, 0.001407818403095007, 0.0, 0.0, 0.0, 0.0, 0.0, 0.0, 0.0, 0.0, 0.0, 0.0, 0.0, 0.0, 0.0, 0.0, 0.0, 0.0, 0.0, 0.0, 0.0, 0.0, 0.0)"
1676104291.5532293,4398,1676104291,535920048,map,base_link,-0.35822382569313066,-0.626884639263153,0.13837160170078272,-0.03322937985124429,-0.07309159754525126,-0.016599984409225207,0.9966332581619156,"(0.0005042412085458636, 3.8799940607565454e-23, 5.8152061834816475e-21, 0.0, 0.0, 0.0, 3.8799940607565454e-23, 0.0005044159479439259, -3.80049943021093e-36, 0.0, 0.0, 0.0, 5.815206183481645e-21, -3.80049943021093e-36, 0.00045675644651055336, 0.0, 0.0, 0.0, 0.0, 0.0, 0.0, 0.0, 0.0, 0.0, 0.0, 0.0, 0.0, 0.0, 0.0, 0.0, 0.0, 0.0, 0.0, 0.0, 0.0, 0.0)",0.0035837560426443815,-0.005581581965088844,-0.0024113631807267657,0.0003221215447410941,0.0003537192824296654,0.0003851553192362189,"(0.0018634112784639, 0.0, 0.0, 0.0, 0.0, 0.0, 0.0, 0.001860656077042222, -5.66224392478216e-20, 0.0, 0.0, 0.0, 0.0, -5.66224392478216e-20, 0.001398298772983253, 0.0, 0.0, 0.0, 0.0, 0.0, 0.0, 0.0, 0.0, 0.0, 0.0, 0.0, 0.0, 0.0, 0.0, 0.0, 0.0, 0.0, 0.0, 0.0, 0.0, 0.0)"
1676104291.5974922,4399,1676104291,575883048,map,base_link,-0.3582423329353334,-0.6268945336341857,0.13837946951389307,-0.033236354440913135,-0.07309258010350593,-0.016599093666282386,0.9966329871876383,"(0.0005098396213725209, 4.007948561760842e-23, 5.971196579093615e-21, 0.0, 0.0, 0.0, 4.007948561760842e-23, 0.0005100201233290136, -3.8608077406676816e-36, 0.0, 0.0, 0.0, 5.971196579093618e-21, -3.860807740667679e-36, 0.00046108110109344125, 0.0, 0.0, 0.0, 0.0, 0.0, 0.0, 0.0, 0.0, 0.0, 0.0, 0.0, 0.0, 0.0, 0.0, 0.0, 0.0, 0.0, 0.0, 0.0, 0.0, 0.0)",0.00341307302005589,-0.005818851292133331,-0.00224932818673551,0.00016582297394052148,-0.0004423545324243604,0.0008398271747864783,"(0.0018766189459711313, 0.0, 0.0, 0.0, 0.0, 0.0, 0.0, 0.0018738472135737538, -5.71460617173218e-20, 0.0, 0.0, 0.0, 0.0, -5.71460617173218e-20, 0.0014072142075747252, 0.0, 0.0, 0.0, 0.0, 0.0, 0.0, 0.0, 0.0, 0.0, 0.0, 0.0, 0.0, 0.0, 0.0, 0.0, 0.0, 0.0, 0.0, 0.0, 0.0, 0.0)"
1676104291.6134386,4400,1676104291,605861656,map,base_link,-0.35825875401496904,-0.6269085407257079,0.1383873969316482,-0.0332410349669455,-0.07309673224928302,-0.016595018218603274,0.9966326227679196,"(0.0005019421223551035, 3.920060621677083e-23, 5.823731729026231e-21, 0.0, 0.0, 0.0, 3.920060621677083e-23, 0.000502118666190654, -3.790115554154836e-36, 0.0, 0.0, 0.0, 5.823731729026225e-21, -3.790115554154839e-36, 0.0004543877439573407, 0.0, 0.0, 0.0, 0.0, 0.0, 0.0, 0.0, 0.0, 0.0, 0.0, 0.0, 0.0, 0.0, 0.0, 0.0, 0.0, 0.0, 0.0, 0.0, 0.0, 0.0)",0.003746209666132927,-0.006128007546067238,-0.002283420413732528,0.0020716688595712185,0.00036248948890715827,-0.0007050707354210317,"(0.001862555043771863, 0.0, 0.0, 0.0, 0.0, 0.0, 0.0, 0.0018598020542412996, -5.655481941083508e-20, 0.0, 0.0, 0.0, 0.0, -5.65548194108351e-20, 0.0013979969080537558, 0.0, 0.0, 0.0, 0.0, 0.0, 0.0, 0.0, 0.0, 0.0, 0.0, 0.0, 0.0, 0.0, 0.0, 0.0, 0.0, 0.0, 0.0, 0.0, 0.0, 0.0)"
1676104291.6534708,4401,1676104291,645822656,map,base_link,-0.3582759797573091,-0.6269389986991881,0.13840135931968683,-0.033239991801359496,-0.07310291723125802,-0.016592529677224375,0.9966322443771458,"(0.0005086138262413442, 4.0635247591667485e-23, 6.006364454465e-21, 0.0, 0.0, 0.0, 4.0635247591667485e-23, 0.0005087968311272562, -3.8613386884205914e-36, 0.0, 0.0, 0.0, 6.006364454464995e-21, -3.861338688420592e-36, 0.00045956813846714795, 0.0, 0.0, 0.0, 0.0, 0.0, 0.0, 0.0, 0.0, 0.0, 0.0, 0.0, 0.0, 0.0, 0.0, 0.0, 0.0, 0.0, 0.0, 0.0, 0.0, 0.0)",0.0034711062908172607,-0.006220531649887562,-0.0023728059604763976,-0.0012764603598043323,-0.00019765204342547815,-0.0008416776545345783,"(0.0018785088323056698, 0.0, 0.0, 0.0, 0.0, 0.0, 0.0, 0.001875733258202672, -5.720124965511957e-20, 0.0, 0.0, 0.0, 0.0, -5.720124965511956e-20, 0.0014086496084928513, 0.0, 0.0, 0.0, 0.0, 0.0, 0.0, 0.0, 0.0, 0.0, 0.0, 0.0, 0.0, 0.0, 0.0, 0.0, 0.0, 0.0, 0.0, 0.0, 0.0, 0.0)"
1676104291.6976378,4402,1676104291,675796656,map,base_link,-0.3582922816276552,-0.6269609332084655,0.13841025531291956,-0.033246482244743414,-0.07310845495151304,-0.016590163755860577,0.9966316146518855,"(0.0005002754041925073, 3.957542243183392e-23, 5.836113729537023e-21, 0.0, 0.0, 0.0, 3.957542243183392e-23, 0.0005004536360502243, -3.783816642753603e-36, 0.0, 0.0, 0.0, 5.836113729537026e-21, -3.783816642753602e-36, 0.0004526199190877378, 0.0, 0.0, 0.0, 0.0, 0.0, 0.0, 0.0, 0.0, 0.0, 0.0, 0.0, 0.0, 0.0, 0.0, 0.0, 0.0, 0.0, 0.0, 0.0, 0.0, 0.0)",0.003461536718532443,-0.006315483711659908,-0.002025888999924063,-5.1663988415384665e-05,-0.0006149586988613008,0.00045696247252635663,"(0.0018616366432979703, 0.0, 0.0, 0.0, 0.0, 0.0, 0.0, 0.001858886913396418, -5.646685517001565e-20, 0.0, 0.0, 0.0, 0.0, -5.646685517001567e-20, 0.0013978000497445464, 0.0, 0.0, 0.0, 0.0, 0.0, 0.0, 0.0, 0.0, 0.0, 0.0, 0.0, 0.0, 0.0, 0.0, 0.0, 0.0, 0.0, 0.0, 0.0, 0.0, 0.0)"
1676104291.7429166,4403,1676104291,705772264,map,base_link,-0.3583123087882997,-0.6269835233688353,0.13843034207820887,-0.033246078295923465,-0.07311571324853842,-0.016590604584421142,0.9966311417843237,"(0.0004928969428874552, 3.8670693636854044e-23, 5.693228865265937e-21, 0.0, 0.0, 0.0, 3.8670693636854044e-23, 0.0004930711002089083, -3.7167574099376e-36, 0.0, 0.0, 0.0, 5.693228865265942e-21, -3.7167574099375993e-36, 0.00044640820124186575, 0.0, 0.0, 0.0, 0.0, 0.0, 0.0, 0.0, 0.0, 0.0, 0.0, 0.0, 0.0, 0.0, 0.0, 0.0, 0.0, 0.0, 0.0, 0.0, 0.0, 0.0)",0.003613035660237074,-0.006412821356207132,-0.0018377441447228185,-0.0005177182611078024,-0.0005995575338602067,-0.0008341669454239308,"(0.0018475411925464869, 0.0, 0.0, 0.0, 0.0, 0.0, 0.0, 0.0018448131158947945, -5.58619406257744e-20, 0.0, 0.0, 0.0, 0.0, -5.586194062577439e-20, 0.0013886657543480396, 0.0, 0.0, 0.0, 0.0, 0.0, 0.0, 0.0, 0.0, 0.0, 0.0, 0.0, 0.0, 0.0, 0.0, 0.0, 0.0, 0.0, 0.0, 0.0, 0.0, 0.0)"
1676104291.785287,4404,1676104291,745733264,map,base_link,-0.3583425879478456,-0.6270118951797484,0.13846057653427118,-0.03325001329955686,-0.07311955287195711,-0.01659702533650774,0.9966306076188648,"(0.0004998388467356563, 4.0053636223466137e-23, 5.8738977213087755e-21, 0.0, 0.0, 0.0, 4.0053636223466137e-23, 0.0005000192322768271, -3.789010387798851e-36, 0.0, 0.0, 0.0, 5.873897721308779e-21, -3.789010387798851e-36, 0.00045187483192421496, 0.0, 0.0, 0.0, 0.0, 0.0, 0.0, 0.0, 0.0, 0.0, 0.0, 0.0, 0.0, 0.0, 0.0, 0.0, 0.0, 0.0, 0.0, 0.0, 0.0, 0.0)",0.0033330852165818214,-0.006298457272350788,-0.0017835481557995072,-0.0013160457601770759,-0.0005422696704044938,-0.0001368822704534977,"(0.0018633855506777763, 0.0, 0.0, 0.0, 0.0, 0.0, 0.0, 0.0018606362864375114, -5.64882260609376e-20, 0.0, 0.0, 0.0, 0.0, -5.648822606093759e-20, 0.0013993749162182212, 0.0, 0.0, 0.0, 0.0, 0.0, 0.0, 0.0, 0.0, 0.0, 0.0, 0.0, 0.0, 0.0, 0.0, 0.0, 0.0, 0.0, 0.0, 0.0, 0.0, 0.0)"
1676104291.7853248,4405,1676104291,775705264,map,base_link,-0.35836747288703935,-0.6270272135734557,0.1384852528572082,-0.03324387440086531,-0.07312412197133933,-0.01660710166176475,0.9966303109901811,"(0.0004926088731735945, 3.90972086402017e-23, 5.728635541453157e-21, 0.0, 0.0, 0.0, 3.90972086402017e-23, 0.0004927849513478577, -3.722259820723903e-36, 0.0, 0.0, 0.0, 5.728635541453153e-21, -3.722259820723903e-36, 0.0004458310140762478, 0.0, 0.0, 0.0, 0.0, 0.0, 0.0, 0.0, 0.0, 0.0, 0.0, 0.0, 0.0, 0.0, 0.0, 0.0, 0.0, 0.0, 0.0, 0.0, 0.0, 0.0)",0.0031876377761363983,-0.0060881152749061584,-0.0018194316653534764,-0.00023713345581199974,0.0004669517511501908,-0.00027603158378042286,"(0.0018489343347027898, 0.0, 0.0, 0.0, 0.0, 0.0, 0.0, 0.0018462053267285228, -5.586025832748968e-20, 0.0, 0.0, 0.0, 0.0, -5.586025832748967e-20, 0.0013900717021897435, 0.0, 0.0, 0.0, 0.0, 0.0, 0.0, 0.0, 0.0, 0.0, 0.0, 0.0, 0.0, 0.0, 0.0, 0.0, 0.0, 0.0, 0.0, 0.0, 0.0, 0.0)"
1676104291.82932,4406,1676104291,805681872,map,base_link,-0.3583939373493196,-0.6270393133163451,0.13850675523281092,-0.033243930403092856,-0.07312156674421977,-0.0166007413884517,0.9966305828362422,"(0.0005103154690004885, 4.2082813663635283e-23, 6.140623975835633e-21, 0.0, 0.0, 0.0, 4.2082813663635283e-23, 0.0005105049931444228, -3.896877404316969e-36, 0.0, 0.0, 0.0, 6.140623975835638e-21, -3.896877404316969e-36, 0.00046017346903681755, 0.0, 0.0, 0.0, 0.0, 0.0, 0.0, 0.0, 0.0, 0.0, 0.0, 0.0, 0.0, 0.0, 0.0, 0.0, 0.0, 0.0, 0.0, 0.0, 0.0, 0.0)",0.003140302374958992,-0.006061584688723087,-0.001596716349013149,-0.0012755354400724173,5.654520282405434e-05,0.0004428469983395189,"(0.0018858523108065128, 0.0, 0.0, 0.0, 0.0, 0.0, 0.0, 0.001883071381598711, -5.736344887194334e-20, 0.0, 0.0, 0.0, 0.0, -5.736344887194334e-20, 0.0014146632747724652, 0.0, 0.0, 0.0, 0.0, 0.0, 0.0, 0.0, 0.0, 0.0, 0.0, 0.0, 0.0, 0.0, 0.0, 0.0, 0.0, 0.0, 0.0, 0.0, 0.0, 0.0)"
1676104291.847393,4407,1676104291,835654872,map,base_link,-0.3584247231483461,-0.6270482540130614,0.13853475451469416,-0.03324425032282784,-0.07313317395749876,-0.016601618437478108,0.9966297017366411,"(0.0005026896251365542, 4.0997139109659434e-23, 5.9781788298134426e-21, 0.0, 0.0, 0.0, 4.0997139109659434e-23, 0.0005028742598369718, -3.824643627878455e-36, 0.0, 0.0, 0.0, 5.978178829813444e-21, -3.8246436278784516e-36, 0.0004538740904536098, 0.0, 0.0, 0.0, 0.0, 0.0, 0.0, 0.0, 0.0, 0.0, 0.0, 0.0, 0.0, 0.0, 0.0, 0.0, 0.0, 0.0, 0.0, 0.0, 0.0, 0.0)",0.0030606549698859453,-0.006060941610485315,-0.0015670444117859,-0.0007753025856800377,-1.4449273294303495e-05,0.000586354814004153,"(0.001869960455223918, 0.0, 0.0, 0.0, 0.0, 0.0, 0.0, 0.00186720525380224, -5.666168812220993e-20, 0.0, 0.0, 0.0, 0.0, -5.666168812220993e-20, 0.0014045274583622813, 0.0, 0.0, 0.0, 0.0, 0.0, 0.0, 0.0, 0.0, 0.0, 0.0, 0.0, 0.0, 0.0, 0.0, 0.0, 0.0, 0.0, 0.0, 0.0, 0.0, 0.0)"
1676104291.8892937,4408,1676104291,875618872,map,base_link,-0.35846754908561723,-0.6270606517791747,0.13857470452785486,-0.0332420501302906,-0.07313539734584444,-0.016601194921764942,0.9966296397055892,"(0.0005082232528366148, 4.192771729878159e-23, 6.102408716918866e-21, 0.0, 0.0, 0.0, 4.192771729878159e-23, 0.0005084120784886181, -3.878318920030537e-36, 0.0, 0.0, 0.0, 6.102408716918864e-21, -3.878318920030537e-36, 0.000458393304143101, 0.0, 0.0, 0.0, 0.0, 0.0, 0.0, 0.0, 0.0, 0.0, 0.0, 0.0, 0.0, 0.0, 0.0, 0.0, 0.0, 0.0, 0.0, 0.0, 0.0, 0.0)",0.00270398729480803,-0.005959156900644302,-0.001224574632942676,0.00020670030789915472,0.0005296318558976055,0.0009361259872093796,"(0.0018790826434269547, 0.0, 0.0, 0.0, 0.0, 0.0, 0.0, 0.0018763195257633924, -5.697047539804592e-20, 0.0, 0.0, 0.0, 0.0, -5.697047539804592e-20, 0.0014111202908679843, 0.0, 0.0, 0.0, 0.0, 0.0, 0.0, 0.0, 0.0, 0.0, 0.0, 0.0, 0.0, 0.0, 0.0, 0.0, 0.0, 0.0, 0.0, 0.0, 0.0, 0.0)"
1676104291.9332392,4409,1676104291,905595736,map,base_link,-0.35850769281387346,-0.6270694136619567,0.13860858976840967,-0.03323812788897356,-0.07314608431620118,-0.01660263093102021,0.996628963860289,"(0.0005256733857095242, 4.4797000048574905e-23, 6.501876147330573e-21, 0.0, 0.0, 0.0, 4.4797000048574905e-23, 0.0005258751334622502, -4.049108827553547e-36, 0.0, 0.0, 0.0, 6.501876147330574e-21, -4.049108827553546e-36, 0.0004725815379060805, 0.0, 0.0, 0.0, 0.0, 0.0, 0.0, 0.0, 0.0, 0.0, 0.0, 0.0, 0.0, 0.0, 0.0, 0.0, 0.0, 0.0, 0.0, 0.0, 0.0, 0.0)",0.002573124598711729,-0.005963368806988001,-0.0011292052222415798,-0.0002745672536548227,-0.0011571794748306277,-0.0017472404288128016,"(0.0019131435547024012, 0.0, 0.0, 0.0, 0.0, 0.0, 0.0, 0.0019103367812931538, -5.833804133586827e-20, 0.0, 0.0, 0.0, 0.0, -5.833804133586826e-20, 0.0014339705230668187, 0.0, 0.0, 0.0, 0.0, 0.0, 0.0, 0.0, 0.0, 0.0, 0.0, 0.0, 0.0, 0.0, 0.0, 0.0, 0.0, 0.0, 0.0, 0.0, 0.0, 0.0)"
1676104291.9772503,4410,1676104291,935566736,map,base_link,-0.358551859855652,-0.6270726919174193,0.1386428922414779,-0.03324554421321259,-0.07314246055488664,-0.016605526716808875,0.9966289278358583,"(0.0005162832094356418, 4.3194337611753414e-23, 6.2778809820737484e-21, 0.0, 0.0, 0.0, 4.3194337611753414e-23, 0.0005164777394384146, -3.9554143917615446e-36, 0.0, 0.0, 0.0, 6.277880982073744e-21, -3.955414391761542e-36, 0.000465020420961082, 0.0, 0.0, 0.0, 0.0, 0.0, 0.0, 0.0, 0.0, 0.0, 0.0, 0.0, 0.0, 0.0, 0.0, 0.0, 0.0, 0.0, 0.0, 0.0, 0.0, 0.0)",0.0025401567108929157,-0.005797015968710184,-0.0012427000328898423,-0.002959738252684474,-0.00012080732267349948,0.0008907097508199513,"(0.0018918204586952925, 0.0, 0.0, 0.0, 0.0, 0.0, 0.0, 0.0018890491919592023, -5.739110699628528e-20, 0.0, 0.0, 0.0, 0.0, -5.739110699628528e-20, 0.0014204152394086123, 0.0, 0.0, 0.0, 0.0, 0.0, 0.0, 0.0, 0.0, 0.0, 0.0, 0.0, 0.0, 0.0, 0.0, 0.0, 0.0, 0.0, 0.0, 0.0, 0.0, 0.0)"
1676104292.0212595,4411,1676104291,975529736,map,base_link,-0.3586151897907259,-0.627073585987091,0.13869103789329523,-0.03324675673834396,-0.0731570198435466,-0.016595253966906722,0.9966279738628249,"(0.0005212380201555789, 4.389227125359503e-23, 6.379510332265222e-21, 0.0, 0.0, 0.0, 4.389227125359503e-23, 0.000521435693372041, -4.0015716814584774e-36, 0.0, 0.0, 0.0, 6.37951033226522e-21, -4.0015716814584774e-36, 0.00046914536505937576, 0.0, 0.0, 0.0, 0.0, 0.0, 0.0, 0.0, 0.0, 0.0, 0.0, 0.0, 0.0, 0.0, 0.0, 0.0, 0.0, 0.0, 0.0, 0.0, 0.0, 0.0)",0.002289752010256052,-0.005940551869571209,-0.0009497235296294086,0.001685317256487906,-0.0013739225687459111,0.0007997898501344027,"(0.0018988598603755236, 0.0, 0.0, 0.0, 0.0, 0.0, 0.0, 0.0018960860325023532, -5.760806644795305e-20, 0.0, 0.0, 0.0, 0.0, -5.760806644795307e-20, 0.0014256804715842009, 0.0, 0.0, 0.0, 0.0, 0.0, 0.0, 0.0, 0.0, 0.0, 0.0, 0.0, 0.0, 0.0, 0.0, 0.0, 0.0, 0.0, 0.0, 0.0, 0.0, 0.0)"
