Time,header.seq,header.stamp.secs,header.stamp.nsecs,header.frame_id,twist.linear.x,twist.linear.y,twist.linear.z,twist.angular.x,twist.angular.y,twist.angular.z
1676104290.05897,245,1676104289,802582528,base_link,0.003483539680019021,-0.0035559830721467733,-0.0021262988448143005,0.0024301680288993854,0.0008340614179637321,0.00034049761519243924
1676104290.059025,246,1676104289,832582528,base_link,0.0031684052664786577,-0.003636252135038376,-0.002225815085694194,0.0029226401586863768,0.0017088876742307672,0.0021276283399249813
1676104290.0591085,247,1676104289,872582528,base_link,0.0032473213504999876,-0.0037631222512573004,-0.0024303558748215437,0.0008733804679169172,0.001518090395037475,0.001182956750155439
1676104290.0591834,248,1676104289,902582528,base_link,0.0035301775205880404,-0.0037802010774612427,-0.00226117973215878,0.0005187991665470801,0.0012103362032516109,-0.0015337860487943014
1676104290.0592566,249,1676104289,932586880,base_link,0.0033838176168501377,-0.0038750895764678717,-0.0021973038092255592,-0.0008109072468293993,-0.0008168824292847807,-0.00031842087964469024
1676104290.0593567,250,1676104289,972586880,base_link,0.0033282297663390636,-0.003986328840255737,-0.0018034741515293717,0.002449120206369659,0.0007059449117388735,0.000724117752594401
1676104290.0594275,251,1676104290,2586880,base_link,0.0033402906265109777,-0.0038596109952777624,-0.0020058273803442717,-0.002283882776224328,0.000622948287552326,-0.0005564180383305086
1676104290.059486,252,1676104290,32591488,base_link,0.0034299760591238737,-0.0038044319953769445,-0.0019762383308261633,-0.0010839728018833127,-0.0007416302607233155,0.00032744071056341645
1676104290.0788872,253,1676104290,72591488,base_link,0.0035908459685742855,-0.0038872992154210806,-0.0017357082106173038,-0.000599672314398639,0.0008347398892553317,0.0006238277426302907
1676104290.1094074,254,1676104290,102591488,base_link,0.0035212489310652018,-0.0036919524427503347,-0.001994058256968856,0.0006334029967268953,0.0005373909332478082,0.00018270490526541922
1676104290.1412563,255,1676104290,132595584,base_link,0.0035665433388203382,-0.003875036258250475,-0.0021414530929178,0.0015459985292888222,-0.0005743166994890168,-0.0011001371786789932
1676104290.1761844,256,1676104290,172595584,base_link,0.003608365310356021,-0.003941636998206377,-0.0020410113502293825,-0.002049269727599405,0.0018883318516461336,-0.0005195277859974808
1676104290.2082741,257,1676104290,202595584,base_link,0.0038950974121689796,-0.004051124677062035,-0.0022577582858502865,0.0022410823042579874,0.00038817649082026345,0.0025672292205171613
1676104290.241276,258,1676104290,232599936,base_link,0.003876517992466688,-0.004288506228476763,-0.0022740638814866543,0.0007422513660289013,0.0003078229241855153,-0.00014456202345791653
1676104290.276134,259,1676104290,272599936,base_link,0.0037395141553133726,-0.0040643722750246525,-0.002013945719227195,-0.00034782348325281535,-0.0001584369981368558,-0.0009196405408438838
1676104290.3096776,260,1676104290,302599936,base_link,0.0039039014372974634,-0.003927173558622599,-0.001981939421966672,0.002222613918156778,-0.0009755315274966561,-0.0007402171528954388
1676104290.3420985,261,1676104290,332604032,base_link,0.0037025848869234324,-0.0038258021231740713,-0.0022603734396398067,-0.002001568068621092,-0.0009418911337844435,-0.0012311154121960048
1676104290.3751504,262,1676104290,372604032,base_link,0.0035407484974712133,-0.004013632424175739,-0.002245231531560421,0.0019952345907475522,0.001069458533812421,0.00020275431816127267
1676104290.408825,263,1676104290,402604032,base_link,0.0036237032618373632,-0.004097219556570053,-0.002358600264415145,-0.00019689651682572922,-0.0007017170889500824,-0.0006809531108584644
1676104290.441839,264,1676104290,432608640,base_link,0.003567848587408662,-0.004366124980151653,-0.002277146326377988,-0.0030052369871889084,-0.000170794283442183,-0.0017117558558820013
1676104290.4784503,265,1676104290,472608640,base_link,0.0035792423877865076,-0.004826006013900042,-0.0021034504752606153,0.0007416413070985271,-0.0014050988524574994,0.001122301198578428
1676104290.5106118,266,1676104290,502608640,base_link,0.003533362178131938,-0.004838172812014818,-0.0019798879511654377,0.0012745637450790788,0.0010382748402791924,-0.000927805528341823
1676104290.5408473,267,1676104290,531612992,base_link,0.003363461932167411,-0.005039725918322802,-0.001848528510890901,0.00040944253014630185,-1.0316642634238032e-05,0.000181797704343653
1676104290.575109,268,1676104290,571612992,base_link,0.0033709194976836443,-0.005021949764341116,-0.0017191210063174367,0.001900019809258703,-0.00010601579440855235,-0.0006629755793241546
1676104290.610339,269,1676104290,602612992,base_link,0.0035066779237240553,-0.004932864103466272,-0.0016295696841552854,0.0014546240022095293,-0.00018265557280642956,0.00025535679872556213
1676104290.6420095,270,1676104290,631617600,base_link,0.0031308885663747787,-0.005029694642871618,-0.0014340411871671677,-0.0016322548453664833,-0.00043379765849520154,-0.0008074012829076186
1676104290.6754212,271,1676104290,671617600,base_link,0.003154381876811385,-0.005111078731715679,-0.0015438151312991977,-0.002067292122484078,-0.0006035996073392165,-0.0008367958869520226
1676104290.7084467,272,1676104290,701617600,base_link,0.0032261707819998264,-0.005178073886781931,-0.00145550980232656,0.0017947957456316802,0.0008827461661151774,0.0004633764602316783
1676104290.7415185,273,1676104290,731622208,base_link,0.0033859468530863523,-0.0054491301998496056,-0.001502661150880158,-0.0005388510241762371,-0.0019330511193897946,0.001081195621469068
1676104290.7763283,274,1676104290,771622208,base_link,0.003785874927416444,-0.0055518136359751225,-0.001382357208058238,-0.0006770753044875455,0.0010413526516305437,0.00015961531068737
1676104290.8080976,275,1676104290,801622208,base_link,0.00364317512139678,-0.005479160230606794,-0.00120250484906137,0.0008123749602957559,-0.0012707195584716073,-7.943501873408965e-05
1676104290.8409142,276,1676104290,831626816,base_link,0.0038045065011829138,-0.00540597690269351,-0.001366744632832706,-0.001119106152190768,-0.0013273604508766265,0.0007804374623965359
1676104290.875837,277,1676104290,861626816,base_link,0.0034864493645727634,-0.005364426877349615,-0.0011796735925599933,0.0019636837088859256,6.135205998877555e-07,0.0005648049045150425
1676104290.9087832,278,1676104290,896626816,base_link,0.0037120627239346504,-0.005423347931355238,-0.001050540478900075,-0.001549509485820815,-0.00030779738021965205,-0.000949849925831076
1676104290.9413126,279,1676104290,936631424,base_link,0.003965386189520359,-0.005423203110694885,-0.001055150874890387,-0.000701804450284559,0.0009205480899746052,0.0003056099507422434
1676104290.9752572,280,1676104290,966631424,base_link,0.004057805519551039,-0.005530781112611294,-0.0012477547861635685,0.0026605307788421704,-0.00027651575246715653,0.002288986656153506
1676104291.0104997,281,1676104291,6635776,base_link,0.004463134799152613,-0.00571996346116066,-0.001430308329872787,0.0021061351403931436,0.0002464798139765429,0.001099993280337099
1676104291.0429664,282,1676104291,36635776,base_link,0.004489912185817957,-0.005717629566788673,-0.0015488611534237862,0.002321405109285002,0.0019874572330840605,0.0008312640853253392
1676104291.0762002,283,1676104291,66635776,base_link,0.004412057343870401,-0.005676917731761932,-0.0015736487694084644,-0.002311939111656896,0.00011316581264917257,-0.0009966221807945566
1676104291.1089783,284,1676104291,106635776,base_link,0.004433964379131794,-0.005589163396507502,-0.0018586956430226564,0.0015811276822134748,0.0011625617301136441,0.00023427057462954668
1676104291.1445315,285,1676104291,136639872,base_link,0.004385408479720354,-0.005492188036441803,-0.001626318320631981,-0.0020149204450250245,0.00024014242065206436,0.0008615722782604511
1676104291.174892,286,1676104291,166639872,base_link,0.004285629838705063,-0.005479985848069191,-0.001653153682127595,-0.0012234954959799713,0.0006910275734908188,0.0001660342376814281
1676104291.2103322,287,1676104291,206644480,base_link,0.004167709033936262,-0.005702128168195486,-0.0017762845382094383,-0.003486933554700199,0.0004381100657236009,0.0008955871774204259
1676104291.2432318,288,1676104291,236644480,base_link,0.004009187687188387,-0.0059892479330301285,-0.001716381055302918,-0.0004030357820341033,-0.0009405962173055689,0.00034647025652980194
1676104291.2758868,289,1676104291,266644480,base_link,0.004076700191944838,-0.006083054468035698,-0.0015237838961184025,0.0009594526270060508,-0.0015111785158298094,-0.0008853000212736225
1676104291.3096068,290,1676104291,306644480,base_link,0.004198447335511446,-0.006059276405721903,-0.00144581263884902,0.0006291597864164016,0.00016426041939085728,0.0010156488163273758
1676104291.3407793,291,1676104291,336648832,base_link,0.004248775076121092,-0.006012302823364735,-0.001492451992817223,-0.0013542269829893172,0.0001602179025047551,-0.0003144498082480461
1676104291.3744423,292,1676104291,366648832,base_link,0.004138002172112465,-0.0060455650091171265,-0.001534639042802155,0.0010883860276333854,0.0022366344840202552,-0.0004399982968823751
1676104291.4101512,293,1676104291,406653440,base_link,0.004193219356238842,-0.005830697249621153,-0.001825734507292509,0.0022640041605947827,-2.653151214943741e-05,0.000677963684861795
1676104291.444364,294,1676104291,436653440,base_link,0.003950712736696005,-0.005914902780205011,-0.0017608002526685596,-0.0009674509594274815,-0.0006352051023889004,5.095388728389116e-05
1676104291.4761007,295,1676104291,466653440,base_link,0.0037805342581123114,-0.005929039791226387,-0.001546783372759819,0.0011791764638995137,0.0018265473930079103,0.0009372371300651539
1676104291.5100713,296,1676104291,506658048,base_link,0.0037724790163338184,-0.005949077662080526,-0.0016309958882629871,0.00028166435534538516,0.00012012924766128932,0.0007637641020077012
1676104291.540992,297,1676104291,535658048,base_link,0.0036803456023335457,-0.005832919385284185,-0.0014980467967689037,0.003131823074788108,0.0014477793999292483,0.0004093386670772385
1676104291.575935,298,1676104291,566658048,base_link,0.003535559633746743,-0.005874518770724535,-0.0014908285811543465,-0.0028396948569417604,0.00038830700651860283,-0.000583561486685343
1676104291.6098626,299,1676104291,605662656,base_link,0.0038018079940229654,-0.006373636424541473,-0.0013128488790243864,-0.002711241694480199,-0.0006706808568279635,-0.0004023977672877064
1676104291.6430533,300,1676104291,635662656,base_link,0.0036082740407437086,-0.0065807620994746685,-0.0012690962757915258,0.00033192508533430663,3.8427877894271665e-05,-0.0006635511725972049
1676104291.6761467,301,1676104291,666662656,base_link,0.0035367291420698166,-0.00659239711239934,-0.0012540749739855528,0.001026757205790091,0.00041565716510457297,0.0013200173312470321
1676104291.7093885,302,1676104291,705662656,base_link,0.003594975685700774,-0.006623271387070417,-0.0008740796474739909,-0.0022443199085617487,-0.0013315313635270008,0.0018679332524454528
1676104291.7447746,303,1676104291,735667264,base_link,0.003310471074655652,-0.006539014633744955,-0.000832445512060076,-0.00015229787269544002,-6.0126726870628974e-05,-0.0006975524614267394
1676104291.7756693,304,1676104291,765667264,base_link,0.0033476275857537985,-0.006406350526958704,-0.0008327006362378597,4.290459577387207e-05,-0.0018599423733204517,-0.0013704796571073733
1676104291.8095276,305,1676104291,805667264,base_link,0.0031059053726494312,-0.006243170239031315,-0.000727998383808881,-0.0011260145783221222,-1.0663164470382096e-05,0.0014230841800153726
1676104291.840913,306,1676104291,835671872,base_link,0.0030228958930820227,-0.00623824680224061,-0.0007103704265318811,0.0029413499552237562,-0.0017571620809188543,0.00022420184252087375
1676104291.8750374,307,1676104291,865671872,base_link,0.0027708946727216244,-0.006028014700859785,-0.00042238994501531124,0.0009067812950274014,0.0001754598792826873,0.0006983212391528191
1676104291.9103067,308,1676104291,905676736,base_link,0.002481218660250306,-0.006097100209444761,-0.00035602590651251376,0.0023687497628750278,-0.0009981396978951786,0.00038137903380294053
1676104291.944746,309,1676104291,935676736,base_link,0.0024713119491934776,-0.005938095506280661,-0.00048344925744459033,0.002129183249150016,0.0002781661438873498,-0.00078134047052325
1676104291.9769769,310,1676104291,965676736,base_link,0.0022672954946756363,-0.006038874387741089,-0.0002455324283801019,0.0005016732806608544,0.00039571662243743135,-0.00035117627895688653
1676104292.0103278,311,1676104292,5681344,base_link,0.0021240082569420338,-0.005977678578346968,-0.0002968793851323426,5.534788952956365e-06,-0.00023939105415550675,0.001275348587447154
1676104292.0453978,312,1676104292,35681344,base_link,0.002180455019697547,-0.006015798542648554,4.155596252530813e-05,-0.0016554567950144141,-0.004030195918291167,0.0004849975781531212
1676104292.0762906,313,1676104292,65681344,base_link,0.0018537495052441955,-0.005988520570099354,-8.816933586786035e-06,0.0020670495410623877,-0.0003943930425656669,-0.0003943399982115017
1676104292.110468,314,1676104292,105681344,base_link,0.0016600004164502025,-0.005889364518225193,-6.662079249508679e-05,-0.0018092669441577072,-0.001008128488118595,-0.000776024296428693
1676104292.1431234,315,1676104292,135685184,base_link,0.001216390635818243,-0.006033677142113447,-5.4746407840866596e-05,-0.0009252709868323493,0.00011476025485377856,0.0009421368801854342
1676104292.1759489,316,1676104292,165685184,base_link,0.0011193775571882725,-0.006009121425449848,9.176615276373923e-05,0.0021459422422266815,-0.0005076398042848152,0.0008867777398561592
1676104292.2091825,317,1676104292,205685184,base_link,0.0011745496885851026,-0.006186038721352816,0.0003694061015266925,-0.0005377127745372525,0.0019123051265768254,0.00043729192975916183
1676104292.2420053,318,1676104292,235689792,base_link,0.000774519459810108,-0.006326611619442701,0.0004361631872598082,0.003890673914444671,-0.00025223959540996045,0.00024414942687937455
1676104292.2775753,319,1676104292,265689792,base_link,0.0004662115825340152,-0.006513955071568489,0.0005949470796622336,-0.0029778312581593986,0.0005946134361201227,0.0010377332851902652
1676104292.3098283,320,1676104292,305689792,base_link,0.0006528920494019985,-0.006601198576390743,0.0005905996658839285,0.00035442592466527746,0.0008034511615601014,0.00022632491923250971
1676104292.3420954,321,1676104292,335694912,base_link,0.0002570322249084711,-0.00662090303376317,0.0005101662827655673,0.0022354968422425483,-0.0026313028788352627,0.0010407930141646446
1676104292.3759494,322,1676104292,365694912,base_link,-5.4994390666252e-05,-0.006374749355018139,0.0006015285616740584,-0.0023692351959285346,-0.00028947199887514766,-0.0006222862299276636
1676104292.408093,323,1676104292,405694912,base_link,-0.0002223477786174044,-0.006330761127173901,0.0008249829988926649,-0.0007320243485799555,0.0013627509631768994,-0.0010967565975431271
1676104292.4409032,324,1676104292,435699776,base_link,-0.0005571679794229567,-0.0063630868680775166,0.0008623717003501952,-0.0026746209295008673,-0.0004348234881657749,-0.0011584011322892673
1676104292.4744844,325,1676104292,465699776,base_link,-0.0006575805018655956,-0.0062200347892940044,0.0007766449707560241,-0.002964214887479423,-0.0031403231113171287,-0.0023419239288488196
1676104292.510033,326,1676104292,505704640,base_link,-0.0009403756121173501,-0.0060549150221049786,0.0010553376050665975,-0.0018244414338823014,-0.0006713550186220409,-0.00035843413435286247
1676104292.5431008,327,1676104292,535704640,base_link,-0.0010397956939414144,-0.00610513286665082,0.001290005398914218,0.001314829076929794,-0.0008468532198787564,0.000489840988744025
1676104292.5767798,328,1676104292,564704640,base_link,-0.0012412422802299261,-0.00600960198789835,0.0010413459967821836,0.003045881721484741,0.0020561209199173474,-0.0018181386313361292
1676104292.6094916,329,1676104292,605704640,base_link,-0.0014778341865167022,-0.0061734942719340324,0.0013915760209783912,-0.0011622253933859222,-0.00043441617577455005,-9.058304146391315e-05
1676104292.6419957,330,1676104292,635708992,base_link,-0.0016605263808742166,-0.006170551758259535,0.001506454311311245,0.0007685435909975485,0.0016723291721107278,0.0006152939684653764
1676104292.6766076,331,1676104292,664708992,base_link,-0.0015578533057123423,-0.0062176925130188465,0.001319295261055231,0.0007862260127561551,8.010130171574958e-05,0.0012764301919841426
1676104292.7081459,332,1676104292,705708992,base_link,-0.0016267700120806694,-0.00635682325810194,0.0017748614773154259,-0.0011588482384780013,0.0011910663146766619,5.7967787284718635e-05
1676104292.74121,333,1676104292,734713856,base_link,-0.0019653995987027884,-0.0065416269935667515,0.0015795397339388728,0.002067405332965118,0.001488965248782369,0.0008148948744504936
1676104292.7754538,334,1676104292,764713856,base_link,-0.0021513791289180517,-0.006842613220214844,0.0015547838993370533,-0.002572034202899911,-0.0011477760976792923,0.0005266179865701223
1676104292.8101,335,1676104292,804713856,base_link,-0.0022258637472987175,-0.00687807984650135,0.0016234550857916474,0.0022846780693915685,0.0006784241448468754,0.0009634364067733484
1676104292.8421226,336,1676104292,834719488,base_link,-0.0022306260652840137,-0.006666833534836769,0.001622684532776475,0.0009266513855610759,0.001050195048996204,8.892445890864507e-05
1676104292.8758574,337,1676104292,864719488,base_link,-0.0022649404127150774,-0.006700864061713219,0.0015092381509020925,-0.00045931851928532726,0.0008029878119355672,-0.00033868983113671044
1676104292.9084167,338,1676104292,904719488,base_link,-0.0023029574658721685,-0.006697449833154678,0.0018507123459130526,0.0015795427110064139,-0.0010343592456222139,0.0006189112987801306
1676104292.9420276,339,1676104292,934724096,base_link,-0.0022934465669095516,-0.00664821220561862,0.002063262742012739,-0.0014589710577024688,-0.0010555071144269044,-0.0013353653213608618
1676104292.9740155,340,1676104292,964724096,base_link,-0.0024457385297864676,-0.006596943363547325,0.001991152996197343,0.0017297723891713274,0.00018820639196146123,0.0023271902973573547
1676104293.0097423,341,1676104293,4728704,base_link,-0.002533557126298547,-0.006220490671694279,0.0021034344099462032,0.0027117661557681414,-0.00011925644228077663,5.1559878909785804e-05
1676104293.043273,342,1676104293,34728704,base_link,-0.0026765107177197933,-0.006140805780887604,0.0022743726149201393,-0.0010019408728725605,0.00039432280484457105,0.00039138129427444086
1676104293.07651,343,1676104293,64728704,base_link,-0.0026679171714931726,-0.0059967972338199615,0.002294689416885376,0.0013690492446168194,-0.0006775755913206459,0.0016326663060664134
1676104293.1091619,344,1676104293,104728704,base_link,-0.002583816647529602,-0.005949347745627165,0.0025825819466263056,-0.0022801619215034458,-0.0005313518114814553,0.0001453983952474668
1676104293.1405993,345,1676104293,134731520,base_link,-0.0027374213095754385,-0.006170555949211121,0.002671855268999934,0.0011626949622147076,-0.0007949175787986929,0.0007457340693048489
1676104293.17595,346,1676104293,164731520,base_link,-0.002758791670203209,-0.006129689048975706,0.0027642652858048677,0.0016709921777441758,-0.0005124334276595277,-0.0001984411893813264
1676104293.2096934,347,1676104293,204731520,base_link,-0.0023877257481217384,-0.00601086113601923,0.002782160649076104,0.001666686321014815,0.0017660681326819622,0.0012601817698122987
1676104293.241994,348,1676104293,234735872,base_link,-0.0024027402978390455,-0.006129972171038389,0.0027627937961369753,-0.0002245073337521787,0.0013738396723421112,-0.000461242243038262
1676104293.2757063,349,1676104293,264735872,base_link,-0.002040406921878457,-0.00618709996342659,0.002727005397900939,-0.0025562987100064185,0.00021214436427344932,-0.0008936203549777483
1676104293.3079584,350,1676104293,304735872,base_link,-0.0019575664773583412,-0.006023201625794172,0.002682284452021122,0.0021230472825697864,-0.0005870854627788509,-0.00018408958101850782
1676104293.3409796,351,1676104293,334740480,base_link,-0.0019238550448790193,-0.005660729017108679,0.0027429733891040087,0.00019177992179907055,-0.0003047742164855046,0.001629140089520576
1676104293.3747938,352,1676104293,364740480,base_link,-0.0019946815446019173,-0.005697284825146198,0.003011511405929923,0.0017635961171133994,-0.0008203179868167779,-0.0018099688784559353
1676104293.4097748,353,1676104293,404745344,base_link,-0.0021648029796779156,-0.0054999287240207195,0.003017250681295991,-0.0015656443417638051,0.0012624660193188424,-0.0009037597763092134
1676104293.4448383,354,1676104293,434745344,base_link,-0.0020839907228946686,-0.005613379180431366,0.003063834272325039,-0.002071712367069496,-0.00016341317096831319,-0.0008302061548891795
1676104293.4765546,355,1676104293,464745344,base_link,-0.0022570800501853228,-0.005784623324871063,0.00315884524025023,-0.00021114178523968543,0.001221403457489884,-0.0004710231590665219
1676104293.5100245,356,1676104293,504749696,base_link,-0.0020029342267662287,-0.005465467926114798,0.0033308297861367464,0.0026710444834181484,0.0008805027578498182,0.00210960104897268
1676104293.5410209,357,1676104293,534749696,base_link,-0.001747090253047645,-0.0051114317029714584,0.0034854072146117687,-0.000566087475750903,-0.0006556002921582457,-0.0005369459465861568
1676104293.5746331,358,1676104293,564749696,base_link,-0.0015565733192488551,-0.004827124997973442,0.0037374545354396105,0.0008103628616796943,-0.0006441747890809303,-0.0011633332797240119
1676104293.6111991,359,1676104293,604755840,base_link,-0.0015408372273668647,-0.004797721281647682,0.0037370771169662476,0.0015678656184413351,0.0009073536506083458,0.0014723231490918801
1676104293.6436498,360,1676104293,634755840,base_link,-0.001529288594610989,-0.004605532623827457,0.0037514357827603817,0.003684383040717085,-0.000751950427622515,-0.0007889928391241619
1676104293.6759112,361,1676104293,663755840,base_link,-0.0014710373943671584,-0.0044899131171405315,0.0038897874765098095,0.0014838775676242985,0.0007390799089620887,0.0002810245788207004
1676104293.709481,362,1676104293,704755840,base_link,-0.0013958929339423776,-0.004421493038535118,0.0038860351778566837,0.0009755054743085099,0.0018301771369363738,0.0005601090667303636
1676104293.7422323,363,1676104293,734759936,base_link,-0.0012715068878605962,-0.0043648541904985905,0.0038429892156273127,-0.0013828409761144026,-0.0016684036357661675,-0.0018654373876605644
1676104293.7752461,364,1676104293,763759936,base_link,-0.0009560949401929975,-0.004163521341979504,0.0037097064778208733,-0.0022839401300190003,0.0017262757168927266,-0.00020931131159294006
1676104293.8098006,365,1676104293,803759936,base_link,-0.0009770565666258335,-0.004048698581755161,0.0038785780780017376,0.0006272250212199951,0.00024613168714055487,-0.0009253311892462072
1676104293.848543,366,1676104293,843765312,base_link,0.002483193762600422,-0.004041626583784819,0.004063377622514963,0.0006272250212199951,0.00024613168714055487,-0.0009253311892462072
1676104293.8741288,367,1676104293,863765312,base_link,-0.0016253142384812236,-0.005640442483127117,-0.00012363141286186874,0.005552167673305892,0.050811854832946035,-0.02993166705492688
1676104293.9103327,368,1676104293,903770176,base_link,-0.004192732740193605,-0.006154233124107122,0.0030489733908325434,0.01173396765575115,-0.039567427898364954,0.14733351694820526
1676104293.9436584,369,1676104293,933770176,base_link,0.000614551012404263,-0.010755730792880058,0.004741202108561993,0.03779529350673012,-0.02969096324018117,-0.00723572563386223
1676104293.981188,370,1676104293,973770176,base_link,0.04479150474071503,-0.02210993319749832,0.007718254812061787,0.23169378329180798,0.3586286526228541,-0.05008656772096586
1676104294.0097742,371,1676104294,3770176,base_link,0.07321485131978989,-0.027245361357927322,0.018144754692912102,0.14065843434823877,0.6624562034266132,0.040392064327377616
1676104294.0422194,372,1676104294,33777088,base_link,0.08049444109201431,-0.02142271213233471,0.02016594260931015,0.14937851367877514,0.9007730414918621,-0.013644331543414687
1676104294.0759447,373,1676104294,63777088,base_link,0.06708308309316635,-0.02142214961349964,0.014983152970671654,0.11114939448919242,0.719000195108244,0.01421793598022915
1676104294.1087425,374,1676104294,103777088,base_link,0.040021732449531555,-0.023651232942938805,0.01094568707048893,0.16373849278593788,0.607364632470219,-0.011977144933832375
1676104294.141024,375,1676104294,133781952,base_link,0.023146657273173332,-0.02077399007976055,0.004310011398047209,0.1946893963190849,0.2878057132082079,0.0014170192091464897
1676104294.1750822,376,1676104294,163781952,base_link,0.008872490376234055,-0.019784701988101006,0.002097326796501875,0.01243076006709947,0.08596577444547243,0.054117846041832764
1676104294.2112632,377,1676104294,203787328,base_link,0.00323893572203815,-0.014323519542813301,0.0017567431787028909,-0.0019290260469044444,-0.007826877137211207,-0.019526895506467773
1676104294.2440882,378,1676104294,233787328,base_link,0.004221675451844931,-0.011203332804143429,0.0037119309417903423,-0.04162146548056245,-0.0539798231935834,-0.0012606710606630543
1676104294.2769067,379,1676104294,273787328,base_link,0.013671141117811203,-0.0095827030017972,0.003092025639489293,-0.0038173941975283344,0.04866378331627815,-0.019923201806078154
1676104294.3145137,380,1676104294,303787328,base_link,0.01728660985827446,-0.012875201180577278,0.0020739727187901735,0.09943202122030813,0.055497954803695175,-0.02727890053286696
1676104294.3423595,381,1676104294,333793984,base_link,0.014898757450282574,-0.012277822941541672,0.006654009222984314,0.01683615363265825,0.108159770896012,-0.023372388835897408
1676104294.3769915,382,1676104294,373793984,base_link,0.015592365525662899,-0.012431264854967594,0.005777365993708372,0.06262205688829675,0.0773051264207668,-0.022214923171160098
1676104294.4115345,383,1676104294,403800128,base_link,0.011761163361370564,-0.013756591826677322,0.0066545638255774975,0.025364459519274348,0.08501295925436396,0.004239211875392199
1676104294.4435587,384,1676104294,433800128,base_link,0.011998459696769714,-0.009429647587239742,0.009469298645853996,-0.025836393813069472,0.0545821772834064,-0.015552792482718262
1676104294.4766743,385,1676104294,473800128,base_link,0.010824606753885746,-0.014174146577715874,0.00308197527192533,0.12722003160044257,0.038155952579163835,0.002964656959533304
1676104294.5105612,386,1676104294,503806016,base_link,0.010603603906929493,-0.011812358163297176,0.003016500500962138,-0.13273445886297672,0.06060300320613926,0.004296149671309996
1676104294.5447943,387,1676104294,533806016,base_link,0.006434683222323656,-0.009843835607171059,0.004130376037210226,0.010028271854970865,0.019575718657662944,-0.018449812705418688
1676104294.5774953,388,1676104294,573806016,base_link,0.007786470465362072,-0.011287120170891285,0.0013945773243904114,0.12280809374580494,0.0030945347494588664,-0.039160491617534106
1676104294.610626,389,1676104294,603812160,base_link,0.004279054701328278,-0.009144548326730728,0.005803958512842655,-0.04528503598498327,0.03606763166928697,0.006158931556333765
1676104294.6428564,390,1676104294,633812160,base_link,0.00506262993440032,-0.00754352705553174,0.006381325889378786,-0.059596170179125565,0.0031581970329209717,-0.01715110039760465
1676104294.6760397,391,1676104294,663812160,base_link,0.0007412196137011051,-0.009536654688417912,0.009360453113913536,0.04847661603703329,0.002991788130865321,0.023594634146072307
1676104294.7098396,392,1676104294,703812160,base_link,0.0025027315132319927,-0.0077377124689519405,0.0044351848773658276,-0.1495079154823758,0.014211699727697176,0.01646833260500685
1676104294.7416577,393,1676104294,733817792,base_link,0.0002556315448600799,-0.006773746572434902,0.009067957289516926,-0.04517155392280774,0.02064616020369095,-0.007752987944844102
1676104294.7764611,394,1676104294,762817792,base_link,0.0010382020846009254,-0.0048232716508209705,0.009903562255203724,0.1186831941823036,-0.03397689984728007,-0.024584372299627462
1676104294.8107598,395,1676104294,803824704,base_link,-0.00012974858691450208,-0.0035506992135196924,0.00777811324223876,-0.048802074301369104,0.048906329033151244,0.028522565500772534
1676104294.8426154,396,1676104294,832824704,base_link,-0.00160732411313802,-0.0010406456422060728,0.0072737522423267365,0.02176566476797054,-0.036506269520377096,-0.04246714783640034
1676104294.876859,397,1676104294,872824704,base_link,-0.006508831866085529,-0.001121863373555243,0.008161116391420364,-0.082429650826885,-0.01622626752329224,-0.005036326744778732
1676104294.9089053,398,1676104294,902824704,base_link,-0.004865951836109161,2.1315834601409733e-05,0.005436818115413189,0.009810567546070542,0.0023716293199993427,0.020473220172430338
1676104294.9419765,399,1676104294,932832128,base_link,-0.008011109195649624,-0.0023602463770657778,0.007468114141374826,-0.07028092972976184,-0.0001942083917559062,0.010742442521604714
1676104294.9758544,400,1676104294,962832128,base_link,-0.007620793301612139,-0.00018089795776177198,0.0076192752458155155,-0.05304210525786965,-0.016441480863805393,-0.01971200971720563
1676104295.011395,401,1676104295,2839040,base_link,-0.007596418261528015,-0.0023352738935500383,0.007637101225554943,0.023653329133250973,0.010396300045377423,0.03559764873524688
1676104295.0455096,402,1676104295,32839040,base_link,-0.009192883968353271,-1.0392104741185904e-05,0.010663160122931004,-0.12770665735068082,0.02357592762656863,0.008540355986606423
1676104295.0778427,403,1676104295,72839040,base_link,-0.007142344489693642,-0.0010274662636220455,0.0025317962281405926,0.17143601667053376,0.0007564141050117147,-0.035112382804384154
1676104295.1098378,404,1676104295,102846208,base_link,-0.010009748861193657,0.0012677677441388369,0.006663161795586348,-0.07567568420988839,0.026320576903513863,0.002120328047078482
1676104295.1431632,405,1676104295,132846208,base_link,-0.009271601215004921,0.004029113799333572,0.006060957908630371,-0.08983422137089109,-0.023318713920053066,-0.030650653435780443
1676104295.1767933,406,1676104295,172846208,base_link,-0.012506620958447456,0.0005537430988624692,0.005024015437811613,0.01182982287188082,0.010023723322940799,-0.024070497377326503
1676104295.2103603,407,1676104295,202846208,base_link,-0.011075956746935844,0.0029643489979207516,0.005994340404868126,-0.02061816712423296,0.00037249212151202726,0.026729063676794392
1676104295.2424479,408,1676104295,232853120,base_link,-0.013199971988797188,-0.00028541305800899863,0.0064431470818817616,-0.034369934827009015,0.027142980268579822,-0.022196837882837977
1676104295.27902,409,1676104295,272853120,base_link,-0.009820332750678062,0.0006535225547850132,0.0019794839899986982,0.083693182320601,0.00014112661922857466,0.02564568692155157
1676104295.309716,410,1676104295,302861056,base_link,-0.010931888595223427,-0.0026128916069865227,0.0014591480139642954,-0.07375875826149156,-0.008798818792140162,-0.04124509563561966
1676104295.342211,411,1676104295,332861056,base_link,-0.010328038595616817,0.0008724767831154168,0.00264957407489419,0.06339301998449401,0.02390276702382989,0.029467111352562678
1676104295.3755803,412,1676104295,362861056,base_link,-0.01094519067555666,-0.00046244237455539405,-0.0012039050925523043,-0.0106047539648585,0.039247256176430476,0.02406880643175658
1676104295.4116023,413,1676104295,402869504,base_link,-0.012723363004624844,0.0029600413981825113,0.003704622620716691,-0.010380450607246794,-0.03809230684411508,-0.0280636892543658
1676104295.4463825,414,1676104295,432869504,base_link,-0.014868544414639473,0.0005050307954661548,0.002052227035164833,0.03354290196221969,0.006948233751436803,0.020039919914200947
1676104295.47803,415,1676104295,472869504,base_link,-0.012307013384997845,0.004186050035059452,0.004060514271259308,-0.05157578276077682,-0.05413559093788168,-0.024178292851653245
1676104295.510908,416,1676104295,502877696,base_link,-0.032566413283348083,-0.044958505779504776,0.01396365649998188,0.09143777951992028,0.024977521849551345,-0.0016630563383815131
1676104295.5435524,417,1676104295,532877696,base_link,-0.15780188143253326,-0.22291825711727142,0.13992176949977875,4.279082594765261,-2.536307748666271,0.27630044673625476
1676104295.5764906,418,1676104295,572877696,base_link,-0.291576087474823,-0.29476484656333923,0.6235401034355164,2.1169057065017554,-4.09951966887239,-0.19356258668577664
1676104295.6100564,419,1676104295,602886656,base_link,-0.4599488079547882,-0.4662794768810272,1.085096836090088,0.49891802744706065,-2.776067241362444,-0.19956816889769408
1676104295.6424606,420,1676104295,632886656,base_link,-0.6620838046073914,-0.6424221992492676,1.4298430681228638,-0.11335338932262717,-1.6281943551959712,-0.03578558262378242
1676104295.6757698,421,1676104295,662886656,base_link,-0.804189145565033,-0.733377993106842,1.5522605180740356,-1.198259287100449,-0.24693398754807724,-0.19693240421843825
1676104295.711821,422,1676104295,702897152,base_link,-0.8957305550575256,-0.7910261750221252,1.481020450592041,-1.7233838863470934,1.0337674029598705,-0.3206247506316165
1676104295.7449958,423,1676104295,732897152,base_link,-0.9313181638717651,-0.8059133887290955,1.325003743171692,-1.7889668627727031,1.5219639870390418,-0.3151464964720604
1676104295.777583,424,1676104295,772897152,base_link,-0.9652215838432312,-0.8238757252693176,1.0894677639007568,-1.74213656793773,2.009814287511544,-0.2056856944824907
1676104295.8107834,425,1676104295,802906368,base_link,-0.9943878650665283,-0.8281604647636414,0.9172142744064331,-1.5224462715907963,1.9941906336596318,-0.20719247980861968
1676104295.8435314,426,1676104295,831906368,base_link,-1.0220683813095093,-0.828836977481842,0.7994130849838257,-1.29827563988035,1.8179627408641228,-0.19523883929150648
1676104295.8765607,427,1676104295,871906368,base_link,-1.0565074682235718,-0.8140099048614502,0.7248715162277222,-1.1030285955007497,1.7526077873696513,-0.13709850350637437
1676104295.9104056,428,1676104295,902915840,base_link,-1.0688434839248657,-0.7906296253204346,0.7217063307762146,-1.131097757856747,1.7254798831643046,-0.09670193494284815
1676104295.9426596,429,1676104295,932915840,base_link,-1.0633949041366577,-0.7504369616508484,0.747742772102356,-0.9213187238852942,1.6483219576198318,-0.05755526435894523
1676104295.977228,430,1676104295,971915840,base_link,-1.0349762439727783,-0.6888948678970337,0.7857590913772583,-0.7235189249940295,1.5265794621671385,0.00197720321868697
1676104296.0122104,431,1676104296,1925568,base_link,-0.9993526935577393,-0.642680287361145,0.7954860329627991,-0.5380604741888457,1.4258150649706585,-0.10140491071206155
1676104296.047054,432,1676104296,31925568,base_link,-0.9651215076446533,-0.5922799706459045,0.7844323515892029,-0.3273908553128906,1.1606100064832001,-0.038675303933001705
1676104296.0778677,433,1676104296,72925568,base_link,-0.9012981057167053,-0.5232720971107483,0.7401154041290283,-0.28240959131643645,0.8794124601730295,0.007469639951208538
1676104296.111603,434,1676104296,101935552,base_link,-0.8473306894302368,-0.46684280037879944,0.6979408264160156,-0.12347580566706992,0.7287475164747629,0.029681197965248544
1676104296.1451654,435,1676104296,131935552,base_link,-0.7977460622787476,-0.4288245439529419,0.6457765102386475,0.014342340525430958,0.5704196323018436,-0.024696608533439496
1676104296.176959,436,1676104296,171935552,base_link,-0.7147048711776733,-0.3578576445579529,0.5813921093940735,0.20129592173364005,0.30906328211668643,0.028028249802958698
1676104296.2100801,437,1676104296,196946048,base_link,-0.6582985520362854,-0.31235718727111816,0.5463316440582275,0.311213000081839,0.13523315010558365,0.024808380714001585
1676104296.2436152,438,1676104296,236946048,base_link,-0.5719268918037415,-0.2562209665775299,0.5110272765159607,0.42354216834703695,-0.028905010068629777,-0.0552975354138503
1676104296.2764347,439,1676104296,266946048,base_link,-0.5016739964485168,-0.20429344475269318,0.4924706518650055,0.5199555727773876,-0.26932677136100835,-0.1256504006822934
1676104296.3120396,440,1676104296,306956544,base_link,-0.3942721486091614,-0.13334958255290985,0.4710049033164978,0.58566069790342,-0.48422533303776044,0.049770983932392605
1676104296.3456779,441,1676104296,336956544,base_link,-0.3236289620399475,-0.09256039559841156,0.46222415566444397,0.6014691990749041,-0.4510784117461529,-0.09121848091040256
1676104296.3784187,442,1676104296,366956544,base_link,-0.26179593801498413,-0.05590197816491127,0.45439475774765015,0.7107454954505307,-0.8348282894949104,0.04968713963872192
1676104296.4121747,443,1676104296,406967552,base_link,-0.18651357293128967,-0.014033164829015732,0.44813284277915955,0.7364860298870993,-0.9024253464791708,-0.04913409064396926
1676104296.4452186,444,1676104296,436967552,base_link,-0.13792158663272858,0.011287471279501915,0.43684226274490356,0.7177653368548951,-0.8682434985475256,-0.0674066191813058
1676104296.4777637,445,1676104296,466967552,base_link,-0.09331748634576797,0.03501145541667938,0.41947928071022034,0.5817115120882351,-0.9275394274844324,0.007889419799927104
1676104296.512535,446,1676104296,496978560,base_link,-0.048842381685972214,0.058002933859825134,0.40180426836013794,0.6916374707101781,-0.9383849169373556,-0.05738067346991531
1676104296.5432458,447,1676104296,536978560,base_link,0.0013592420145869255,0.07882548868656158,0.37805670499801636,0.5010034083297809,-0.9144024289105858,0.031203392372338358
1676104296.5809946,448,1676104296,566978560,base_link,0.025914698839187622,0.08657658845186234,0.3586183190345764,0.5339447667667636,-0.9614911722780667,0.052077633371784116
1676104296.6108131,449,1676104296,596989568,base_link,0.04983654245734215,0.09895225614309311,0.3445236086845398,0.49979362680615214,-0.93981216908238,-0.00723384393369967
1676104296.643297,450,1676104296,636989568,base_link,0.07205028831958771,0.10189761966466904,0.3306460976600647,0.39934675661775554,-0.8616448608148044,0.013982528040458972
1676104296.6765008,451,1676104296,666989568,base_link,0.08102213591337204,0.10206964612007141,0.32171863317489624,0.30859132324933036,-0.8101499684558836,0.10452863616711797
1676104296.7128782,452,1676104296,707000832,base_link,0.0786762610077858,0.0978938564658165,0.30154335498809814,0.22706177211964812,-0.6530448449817599,-0.0380088728815162
1676104296.745501,453,1676104296,737000832,base_link,0.08263251930475235,0.09457854181528091,0.2887386977672577,0.1620513290758857,-0.5578536610458081,0.05340341292922717
1676104296.7795508,454,1676104296,767000832,base_link,0.08250554651021957,0.09329503774642944,0.27250418066978455,0.05219658873327979,-0.3718334958806262,0.03470862945988627
1676104296.811563,455,1676104296,807012864,base_link,0.06516844034194946,0.07702779024839401,0.245230033993721,0.12887949335798995,-0.3762766488615792,0.029352242911874014
1676104296.845682,456,1676104296,837012864,base_link,0.059171684086322784,0.07305131107568741,0.22921805083751678,0.09791627976491411,-0.22178888404600128,-0.06675718938844734
1676104296.879953,457,1676104296,867012864,base_link,0.049898967146873474,0.0601697601377964,0.2247885763645172,-0.15038594385921877,-0.06331667321316876,-0.027901656467951178
1676104296.9116833,458,1676104296,907024896,base_link,0.026418356224894524,0.04233347997069359,0.211588054895401,-0.06259412884224082,0.0031308105556232865,0.03226767947788499
1676104296.9443173,459,1676104296,936024896,base_link,0.011244112625718117,0.03235716000199318,0.20809940993785858,-0.05721038645277232,0.06816090278801623,-0.1151027523038427
1676104296.976916,460,1676104296,966024896,base_link,-0.0003780703991651535,0.020497946068644524,0.2024124711751938,-0.15970564649650484,0.21984777621385304,0.04537632767480956
1676104297.0121183,461,1676104297,7037184,base_link,-0.022071443498134613,0.0013586626155301929,0.18850325047969818,-0.22925947627163135,0.32633972713870724,0.00874156804299525
1676104297.046196,462,1676104297,37037184,base_link,-0.039558082818984985,-0.011809217743575573,0.18539664149284363,-0.28258077643011825,0.25284095211184426,0.059065089749115354
1676104297.0778527,463,1676104297,67037184,base_link,-0.053977299481630325,-0.023712020367383957,0.18129822611808777,-0.29156355440687753,0.40913917114255327,0.07009662483478162
1676104297.1117659,464,1676104297,106049728,base_link,-0.07070092856884003,-0.035053275525569916,0.16392453014850616,-0.2136170745067289,0.4502470038182065,-0.09332086542245946
1676104297.1437216,465,1676104297,136049728,base_link,-0.08151127398014069,-0.04285050928592682,0.1554778814315796,-0.3795420782011866,0.5325579923832134,-0.005963584406534877
1676104297.1775618,466,1676104297,166049728,base_link,-0.09106079488992691,-0.05222034081816673,0.15439195930957794,-0.32529561295576814,0.4955959343228859,0.011621399332075668
1676104297.2127974,467,1676104297,206062016,base_link,-0.09670448303222656,-0.061997734010219574,0.146267369389534,-0.28289991802932063,0.524707163043571,0.0352216962118538
1676104297.2460096,468,1676104297,236062016,base_link,-0.10051840543746948,-0.06352905184030533,0.1398804783821106,-0.3623068422185097,0.5595234723730985,0.034715421160898034
1676104297.2792964,469,1676104297,266062016,base_link,-0.09956133365631104,-0.06261518597602844,0.13495168089866638,-0.37989375357590627,0.5164949522198554,-0.0556871011078793
1676104297.3119757,470,1676104297,306074816,base_link,-0.09674037992954254,-0.06870152801275253,0.1392473578453064,-0.3889075522988979,0.5372110412436943,0.0047457972977515
1676104297.3448114,471,1676104297,336074816,base_link,-0.09333960711956024,-0.06867305934429169,0.1329292356967926,-0.2303616595872533,0.47293856419458713,-0.02319235276005747
1676104297.3775792,472,1676104297,366074816,base_link,-0.0858023390173912,-0.06406194716691971,0.1224973201751709,-0.26587495008928985,0.4410203844689345,-0.0015753003298191884
1676104297.4132013,473,1676104297,406087872,base_link,-0.06499598175287247,-0.04993271455168724,0.10495278984308243,-0.25569910280915525,0.3337576409850341,0.046954320914437866
1676104297.448374,474,1676104297,436087872,base_link,-0.0515388622879982,-0.04434219375252724,0.09521351009607315,-0.1869239707680483,0.35493475188444673,-0.0453310476792676
1676104297.4795501,475,1676104297,466087872,base_link,-0.03823681175708771,-0.037738192826509476,0.08804086595773697,-0.07217676250378824,0.16946535103022853,-0.05338322505010174
1676104297.5132258,476,1676104297,506100928,base_link,-0.019569095224142075,-0.02491086721420288,0.07107564061880112,-0.05392794107765097,0.14483669970850327,-0.0755971811895761
1676104297.5463634,477,1676104297,536100928,base_link,0.002821812406182289,-0.009999832138419151,0.06274065375328064,-0.09846562454792453,0.09111231960203514,0.038869943363032136
1676104297.5790713,478,1676104297,566100928,base_link,0.02605297975242138,0.0073074037209153175,0.056293636560440063,0.00025302578881711876,0.06152138018263947,-0.02135146317925431
1676104297.6120815,479,1676104297,606114496,base_link,0.04632432013750076,0.01972917467355728,0.053162816911935806,-0.146328285882241,0.043947188747053674,-0.019340413747692454
1676104297.648671,480,1676104297,636114496,base_link,0.0643649622797966,0.032619498670101166,0.0496901199221611,-0.04542955758276812,-0.06858602568317307,0.10204046319686476
1676104297.6787243,481,1676104297,666114496,base_link,0.0840003490447998,0.04795440658926964,0.04587288573384285,0.03244953393244872,-0.21079970034366222,0.1234503639101831
1676104297.7123387,482,1676104297,706128064,base_link,0.11453466862440109,0.069484181702137,0.03368913009762764,0.027660992289538187,-0.20272068984765054,0.1289813730452219
1676104297.7462225,483,1676104297,736128064,base_link,0.13679510354995728,0.08277222514152527,0.029362738132476807,0.12726674201097696,-0.188820106735976,-0.017384285917265124
1676104297.7778552,484,1676104297,766128064,base_link,0.1530841588973999,0.09480100125074387,0.02617626264691353,0.1928386839670578,-0.2642221585576829,-0.13128214975194968
1676104297.8142722,485,1676104297,806142144,base_link,0.16491058468818665,0.1128021627664566,0.021665124222636223,0.20104328952192574,-0.33417270441507163,0.0022446811183384546
1676104297.8467147,486,1676104297,836142144,base_link,0.1768602430820465,0.11953593045473099,0.017521297559142113,0.11438579258406673,-0.2907565364307005,-0.006230873074120254
1676104297.879453,487,1676104297,866142144,base_link,0.18414810299873352,0.12331552058458328,0.017518572509288788,0.21079741586856898,-0.2621830052299826,-0.07028623480923483
1676104297.91379,488,1676104297,906156224,base_link,0.19677260518074036,0.13610784709453583,0.012788748368620872,0.24413439068773243,-0.29187028965205664,0.0019559367131467826
1676104297.9464955,489,1676104297,936156224,base_link,0.2032056748867035,0.14138804376125336,0.008257798850536346,0.14206362078538853,-0.28436826195145826,0.0026641436256439055
1676104297.978603,490,1676104297,965156224,base_link,0.21060748398303986,0.14718152582645416,0.0010505013633519411,0.20526584226106492,-0.2620879995889444,-0.032376091804393735
1676104298.01276,491,1676104298,6170560,base_link,0.20595486462116241,0.1476753205060959,-0.00201397598721087,0.13703246813012296,-0.3209713084236408,0.10332481696304371
1676104298.0469368,492,1676104298,35170560,base_link,0.2060902863740921,0.15130193531513214,-0.007461346685886383,0.143769353292093,-0.28650218502691266,0.0008207381771883239
1676104298.0780704,493,1676104298,65170560,base_link,0.2025650590658188,0.15054312348365784,-0.010707501322031021,0.2102364615582305,-0.19439832732070855,-0.034740687512722114
1676104298.1112587,494,1676104298,105185408,base_link,0.1999732404947281,0.14811544120311737,-0.016820626333355904,0.12166558896193029,-0.255884635013928,0.10380878303062496
1676104298.1470394,495,1676104298,135185408,base_link,0.1923290342092514,0.14785489439964294,-0.023217560723423958,0.15415299665364535,-0.10461350013521005,-0.030553030217431585
1676104298.1801295,496,1676104298,165185408,base_link,0.18772158026695251,0.14811500906944275,-0.02351977862417698,0.03899388743021646,-0.13361751972866773,0.029900622667555908
1676104298.2129629,497,1676104298,205200256,base_link,0.17094597220420837,0.13717280328273773,-0.016685526818037033,0.011957752618955618,-0.035447143553204406,-0.06557493799917705
1676104298.2459164,498,1676104298,235200256,base_link,0.1612061709165573,0.1342996209859848,-0.015633823350071907,0.08415560950698411,-0.09969175384094105,0.031818731120132386
1676104298.2791302,499,1676104298,266200256,base_link,0.15136796236038208,0.12591668963432312,-0.02032666839659214,0.05848223467850532,0.055402638692572455,0.02125850363284553
1676104298.314229,500,1676104298,305215616,base_link,0.1395065188407898,0.11394786089658737,-0.029866760596632957,0.08129706052132851,0.006706654350311824,-0.00027574160776573913
1676104298.3466327,501,1676104298,335215616,base_link,0.1326523870229721,0.11153002083301544,-0.03532925248146057,0.059995672219910666,0.07396234543627747,-0.11101361648937241
1676104298.3799126,502,1676104298,365215616,base_link,0.1254209727048874,0.10653909295797348,-0.03410462290048599,0.015990293223632226,0.09673023482689948,-0.056858346042233915
1676104298.412714,503,1676104298,405230720,base_link,0.10653869807720184,0.08568765968084335,-0.031850818544626236,-0.1626090991699402,0.05326900724885231,0.056225723420580354
1676104298.4473758,504,1676104298,435230720,base_link,0.0944010317325592,0.0769554004073143,-0.0364280566573143,0.06475657965169503,0.0387669759294745,0.03900543954684027
1676104298.4790244,505,1676104298,465230720,base_link,0.09137582033872604,0.07197076827287674,-0.03940000385046005,0.013029995263881785,0.12733955961352048,-0.04798376792455667
1676104298.5136778,506,1676104298,505246848,base_link,0.08809038251638412,0.06566212326288223,-0.03607510030269623,-0.06550228467940969,0.1429031203589681,0.01052976860194977
1676104298.5459256,507,1676104298,535246848,base_link,0.07976497709751129,0.061452675610780716,-0.03936927765607834,-0.14926325791245476,0.12646030475701692,-0.06982367996671748
1676104298.5794017,508,1676104298,565246848,base_link,0.07075441628694534,0.05509449169039726,-0.03827138990163803,-0.17439673097089797,0.10834003835959943,-0.011406606987027331
1676104298.6124034,509,1676104298,605262720,base_link,0.06361040472984314,0.03843510523438454,-0.04087507352232933,-0.10409523590002334,0.13716963839776092,-0.00988712716181784
1676104298.6464965,510,1676104298,635262720,base_link,0.0595095194876194,0.03142893686890602,-0.04298381507396698,-0.09707989271916381,0.1439790409847057,-0.06349164129284418
1676104298.6779501,511,1676104298,665262720,base_link,0.060257770121097565,0.03157414123415947,-0.04327971860766411,-0.2339263091510071,0.09523264113444932,0.06680418252062306
1676104298.7132127,512,1676104298,705278848,base_link,0.06250403821468353,0.03344212472438812,-0.040078889578580856,-0.06591858809215356,0.10378237312437678,0.06827286484061787
1676104298.7456112,513,1676104298,735278848,base_link,0.06185241788625717,0.02899971604347229,-0.0397469587624073,-0.16747444347525825,0.11816374775593849,0.08435630671692433
1676104298.778592,514,1676104298,765278848,base_link,0.06109663471579552,0.02562740072607994,-0.04451244696974754,0.05388210148768706,0.06131933672488185,-0.10963749827076495
1676104298.818191,515,1676104298,805294464,base_link,0.06409656256437302,0.02806711569428444,-0.05243006721138954,-0.2063646875458514,0.056855368707943,0.04112310488223738
1676104298.84566,516,1676104298,835294464,base_link,0.0659116581082344,0.029833883047103882,-0.051600001752376556,-0.10989822878752481,0.09135461436604868,-0.02613991841973899
1676104298.8781157,517,1676104298,865294464,base_link,0.06769341975450516,0.029078111052513123,-0.04612390697002411,0.06958233707583958,0.00740398246771318,-0.010154685595308145
1676104298.9151976,518,1676104298,905310592,base_link,0.06826508790254593,0.02131528966128826,-0.03989376127719879,-0.03462692559762599,-0.010567034512904458,0.007502051819818596
1676104298.9473436,519,1676104298,935310592,base_link,0.0712173655629158,0.024658434092998505,-0.03604889661073685,0.09274192406290205,-0.019603788206937204,0.024041869926757036
1676104298.9804275,520,1676104298,965310592,base_link,0.07334340363740921,0.02978997305035591,-0.038945138454437256,-0.0005556309006873013,0.0317382626774126,0.02362432996799079
1676104299.0159342,521,1676104299,5325952,base_link,0.0776800587773323,0.034354932606220245,-0.04080014303326607,-0.05648743571846522,-0.005057370904658038,0.01584744370946282
1676104299.04743,522,1676104299,34325952,base_link,0.07984638959169388,0.0332607626914978,-0.046044763177633286,-0.06941371152677028,-0.09915752891341943,0.1487042978422791
1676104299.0811145,523,1676104299,74325952,base_link,0.08511526137590408,0.03812006115913391,-0.042362213134765625,-0.010917594584371141,-0.07491210570797054,0.11220326513016624
1676104299.1143732,524,1676104299,104341824,base_link,0.08635058999061584,0.039548326283693314,-0.04275939613580704,0.11529527865690598,-0.10186545098142212,-0.028222408555935087
1676104299.1465497,525,1676104299,135341824,base_link,0.08590541034936905,0.040830764919519424,-0.04437212273478508,-0.017202079557679786,-0.07870972503738115,-0.01255871102176855
1676104299.1808443,526,1676104299,175341824,base_link,0.08862268179655075,0.04440043121576309,-0.03808549791574478,0.04633636077307534,-0.04903183499384903,0.07961576380180452
1676104299.2117026,527,1676104299,204358464,base_link,0.08666164427995682,0.04350834712386131,-0.036134663969278336,0.12837850968258527,-0.09830629667931856,0.0026803136550853797
1676104299.2457583,528,1676104299,234358464,base_link,0.08533778041601181,0.042726144194602966,-0.03771085664629936,-0.0011620417833442685,-0.05159355236641446,0.05237894534797423
1676104299.2788548,529,1676104299,264358464,base_link,0.08412394672632217,0.04596333205699921,-0.03498945012688637,-0.037380236636027145,-0.07311144806112961,0.032762830985497225
1676104299.316867,530,1676104299,304375104,base_link,0.08196312934160233,0.052775975316762924,-0.02630443125963211,0.14595527511347486,-0.028016375673535824,-0.025550358001102662
1676104299.347427,531,1676104299,334375104,base_link,0.07835055887699127,0.04905959591269493,-0.03383513167500496,0.11901576773806757,-0.006651218151986352,-0.10455703122550554
1676104299.3816576,532,1676104299,374375104,base_link,0.07871850579977036,0.04879021644592285,-0.035758133977651596,0.07623047581718065,-0.07046431961542168,0.043401345459299565
1676104299.4166815,533,1676104299,404393024,base_link,0.07425332069396973,0.0431545227766037,-0.046851836144924164,0.24577288780729795,-0.07814847686115166,-0.08759753546141043
1676104299.4475207,534,1676104299,434393024,base_link,0.07324691116809845,0.0449681356549263,-0.05033228173851967,-0.05368858187341823,-0.055631198931671066,0.06454178479038555
1676104299.481233,535,1676104299,474393024,base_link,0.06944140791893005,0.039944812655448914,-0.051457006484270096,-0.030870577213150202,0.027421827145310374,0.037110526601098974
1676104299.5140219,536,1676104299,504409920,base_link,0.06434565037488937,0.03729870170354843,-0.04886156693100929,-0.023605397183436305,-0.0244703067002587,0.059059982595757635
1676104299.5465028,537,1676104299,534409920,base_link,0.0640583261847496,0.037771474570035934,-0.04271373897790909,-0.017030165394611947,-0.06718019763274054,0.062120138574542266
1676104299.579716,538,1676104299,564409920,base_link,0.06248833239078522,0.038295596837997437,-0.03820567950606346,-0.04349584744350352,0.05221768969497032,0.004326616051802329
1676104299.6144173,539,1676104299,604427840,base_link,0.049049247056245804,0.024624843150377274,-0.03108135238289833,0.11347581521452318,-0.00032045772623872477,0.024406654351532688
1676104299.6467626,540,1676104299,634427840,base_link,0.047080058604478836,0.024001162499189377,-0.03214006498456001,-0.08704133981561744,0.023359794524595138,0.013112031901784995
1676104299.6791701,541,1676104299,664427840,base_link,0.046096641570329666,0.026953905820846558,-0.030942361801862717,-0.004737456048865986,0.06513912330995192,-0.01954731031910328
1676104299.716087,542,1676104299,704443968,base_link,0.039990317076444626,0.027832217514514923,-0.030865473672747612,0.04502849564244937,0.037209952708444995,0.01877328223406762
1676104299.7486002,543,1676104299,734443968,base_link,0.03866985812783241,0.024219466373324394,-0.03333263471722603,-0.057871086227164685,0.031099980287153495,-0.02095467911891927
1676104299.781198,544,1676104299,774443968,base_link,0.04080641269683838,0.020478639751672745,-0.03385951742529869,0.04380521514144652,0.08164505024938899,-0.07361964533462827
1676104299.8141706,545,1676104299,804462144,base_link,0.03559768944978714,0.016498925164341927,-0.03641210496425629,0.03740044519104771,-0.003767352783901931,-0.0008848328625904659
1676104299.8476908,546,1676104299,834462144,base_link,0.0340602733194828,0.013299381360411644,-0.047659121453762054,-0.14566696765694165,0.02985895493238265,0.08241496600077755
1676104299.8798704,547,1676104299,864462144,base_link,0.033486053347587585,0.016128303483128548,-0.05440440773963928,0.03885581893382745,0.03516596695111755,-0.0685193859873573
1676104299.9137607,548,1676104299,904480832,base_link,0.030018677935004234,0.016108084470033646,-0.05729425325989723,-0.028625837465161553,0.0228399811155422,0.021433830150265877
1676104299.9473956,549,1676104299,934480832,base_link,0.03001384809613228,0.013657472096383572,-0.04738963022828102,-0.03266704135682534,-0.061066010067273524,0.059205598114366424
1676104299.9789824,550,1676104299,964480832,base_link,0.030802568420767784,0.015456943772733212,-0.03665123134851456,0.04340518021752015,-0.06253341208094217,0.14429263857175015
1676104300.0157104,551,1676104300,4500032,base_link,0.0314888134598732,0.0130321579053998,-0.02406744472682476,0.1639715065252011,-0.062066243147679084,-0.02834329075043064
1676104300.0484552,552,1676104300,34500032,base_link,0.027050886303186417,0.007427860517054796,-0.024366721510887146,0.09126694331676459,0.000907209992898051,-0.057579552839270534
1676104300.0818522,553,1676104300,74500032,base_link,0.025117933750152588,0.009138640016317368,-0.022019123658537865,0.11242949014845471,0.009515376947751283,-0.06177906496678145
1676104300.1153634,554,1676104300,104520256,base_link,0.02103077620267868,0.003771568415686488,-0.02446082979440689,0.03379120452402473,-0.03818812952761367,0.026821774696548246
1676104300.1486015,555,1676104300,133520256,base_link,0.019862601533532143,-0.0034237864892929792,-0.030373992398381233,-0.10270724633187005,0.034912621517606705,-0.029544978627148992
1676104300.1811836,556,1676104300,173520256,base_link,0.016498351469635963,-8.355546742677689e-05,-0.0241607166826725,-0.07147818166074114,0.03957279051530573,-0.0002333475549478131
1676104300.2149854,557,1676104300,203539456,base_link,0.014362268149852753,-0.007531278766691685,-0.029894236475229263,-0.10457550405827924,-0.03484034238374397,0.13222356990935902
1676104300.247228,558,1676104300,233539456,base_link,0.013093804009258747,-0.012066121213138103,-0.03590283915400505,0.10003659862858652,-0.015494448646363937,-0.006594151386630077
1676104300.2809079,559,1676104300,273539456,base_link,0.017770731821656227,-0.006780373398214579,-0.032744813710451126,0.09029399057298959,-0.013814802669922365,-0.06167401397117594
1676104300.3157337,560,1676104300,303559168,base_link,0.016329726204276085,-0.012241486459970474,-0.029387107118964195,0.0022786504152854784,0.03410207641733844,-0.058545622056978705
1676104300.346008,561,1676104300,333559168,base_link,0.01477515697479248,-0.017965074628591537,-0.027154913172125816,-0.05668172483623152,-0.018608216047533765,0.010935464215112704
1676104300.3816354,562,1676104300,373559168,base_link,0.013819258660078049,-0.02168791927397251,-0.024505410343408585,0.039876429117235226,-0.08417762355100403,0.006316361941717331
1676104300.414642,563,1676104300,403578112,base_link,0.013579451479017735,-0.02269504964351654,-0.016573797911405563,-0.08382465384827892,-0.05099995863613322,0.022697639398046532
1676104300.4485323,564,1676104300,433578112,base_link,0.011158923618495464,-0.02836405672132969,-0.012584979645907879,-0.007663943788263419,0.03294359965827787,-0.12332640935749768
1676104300.4794085,565,1676104300,463578112,base_link,0.008332133293151855,-0.033257756382226944,-0.014357815496623516,0.018924615358357686,-0.014461372965017719,-0.09254748550633618
1676104300.5185087,566,1676104300,503598080,base_link,0.001305883750319481,-0.029380692169070244,-0.022722598165273666,-0.15602375303774377,-0.032137446751162514,0.04703984136884056
1676104300.5483847,567,1676104300,533598080,base_link,8.563423762097955e-05,-0.028577735647559166,-0.02428864873945713,0.05616900648777678,-0.0069636213816221555,-0.07934701182555025
1676104300.58208,568,1676104300,573598080,base_link,0.004428154788911343,-0.03818212077021599,-0.02452024817466736,-0.0209130416675405,0.06576490757236472,-0.05561700277766386
1676104300.617589,569,1676104300,603618304,base_link,0.0034491103142499924,-0.03751823678612709,-0.021196311339735985,-0.07758519542868675,0.08893606720440275,-0.04049145667793415
1676104300.6478722,570,1676104300,633618304,base_link,0.00018239353084936738,-0.03452947363257408,-0.01638689823448658,-0.07300691818749505,-0.02347491510457355,0.04964204449190926
1676104300.6812785,571,1676104300,673618304,base_link,-0.004827387165278196,-0.03734762221574783,-0.0060798367485404015,-0.07633622172590733,0.008887590251505685,-0.04979644207514914
1676104300.7176692,572,1676104300,703638784,base_link,-0.0036325783003121614,-0.038054101169109344,-0.002729640807956457,-0.02686226051588634,-0.02304721553546966,0.06141616050400301
