Time,header.seq,header.stamp.secs,header.stamp.nsecs,header.frame_id,pose.position.x,pose.position.y,pose.position.z,pose.orientation.x,pose.orientation.y,pose.orientation.z,pose.orientation.w
1676104290.042148,73,1676104289,563161109,world,-0.41223493218421936,0.5218788385391235,0.12515424191951752,0.004147473722696304,-0.004404536448419094,-0.04043986648321152,0.9991637468338013
1676104290.0421584,74,1676104289,573130627,world,-0.41223639249801636,0.5218771696090698,0.12514719367027283,0.0041359043680131435,-0.004420087207108736,-0.04043528437614441,0.9991638660430908
1676104290.0422435,75,1676104289,573286127,world,-0.41222864389419556,0.5218697786331177,0.1251421719789505,0.004218044690787792,-0.0044077602215111256,-0.04034215211868286,0.9991673827171326
1676104290.0424495,76,1676104289,573361738,world,-0.4122255742549896,0.5218744277954102,0.12514673173427582,0.004148215986788273,-0.004471426829695702,-0.040344156324863434,0.999167263507843
1676104290.0425296,77,1676104289,583113830,world,-0.41222384572029114,0.5218623876571655,0.12514299154281616,0.004297040402889252,-0.004434420261532068,-0.04027991741895676,0.9991694092750549
1676104290.0425398,78,1676104289,583298886,world,-0.41223230957984924,0.52187579870224,0.1251518875360489,0.004236237611621618,-0.004401137121021748,-0.040350545197725296,0.9991669654846191
1676104290.0426583,79,1676104289,593180941,world,-0.4122074842453003,0.5218342542648315,0.12515932321548462,0.004044542089104652,-0.004440242424607277,-0.04001585394144058,0.9991810321807861
1676104290.0427582,81,1676104289,593331626,world,-0.41222649812698364,0.5218816995620728,0.12514279782772064,0.004134053364396095,-0.004405823536217213,-0.040344301611185074,0.9991675615310669
1676104290.0427673,82,1676104289,603122088,world,-0.4122433662414551,0.5218760967254639,0.1251533031463623,0.004111504647880793,-0.004414676688611507,-0.04045801982283592,0.9991630911827087
1676104290.0428898,83,1676104289,613147143,world,-0.4122333228588104,0.5218806862831116,0.1251540631055832,0.004206680227071047,-0.00429774634540081,-0.04041897505521774,0.9991647601127625
1676104290.0448205,84,1676104289,613222143,world,-0.4122158885002136,0.5218667984008789,0.12514318525791168,0.0042035761289298534,-0.004526789300143719,-0.04022751376032829,0.9991714954376221
1676104290.048112,85,1676104289,623617772,world,-0.41224363446235657,0.5218918323516846,0.12514804303646088,0.004243727307766676,-0.004424593411386013,-0.0405418798327446,0.9991590976715088
1676104290.0508363,86,1676104289,643146660,world,-0.4122025668621063,0.5218321084976196,0.1251477599143982,0.0040102736093103886,-0.004517088178545237,-0.03994062542915344,0.9991838335990906
1676104290.050891,87,1676104289,643359437,world,-0.412238210439682,0.521876335144043,0.1251455694437027,0.004227313678711653,-0.004486997611820698,-0.040443532168865204,0.9991628527641296
1676104290.0509257,90,1676104289,643582178,world,-0.4122331440448761,0.5218861103057861,0.12515230476856232,0.004228891804814339,-0.004437943920493126,-0.04048053175210953,0.9991615414619446
1676104290.0509765,91,1676104289,643766123,world,-0.41223227977752686,0.5218862891197205,0.12514925003051758,0.004229774232953787,-0.004342405591160059,-0.04045495018362999,0.9991629719734192
1676104290.0511425,93,1676104289,643913919,world,-0.4122316241264343,0.5218712091445923,0.12515239417552948,0.004188907332718372,-0.004441726021468639,-0.04031805694103241,0.9991682171821594
1676104290.051175,94,1676104289,653155363,world,-0.412214457988739,0.5218478441238403,0.1251606047153473,0.004005031194537878,-0.004415180068463087,-0.04011262580752373,0.9991773962974548
1676104290.0560133,95,1676104289,653235252,world,-0.412224680185318,0.5218868851661682,0.1251518577337265,0.004261352121829987,-0.0044801803305745125,-0.040473613888025284,0.9991615414619446
1676104290.056088,96,1676104289,663140992,world,-0.41221386194229126,0.5218474864959717,0.1251629889011383,0.0039911773055791855,-0.004410312045365572,-0.04012252390384674,0.9991771578788757
1676104290.0585282,97,1676104289,664054195,world,-0.4122390151023865,0.5218891501426697,0.12514656782150269,0.004212859086692333,-0.004461980890482664,-0.04053511843085289,0.9991592764854431
1676104290.0585897,98,1676104289,673141380,world,-0.4122365415096283,0.5218812227249146,0.12514890730381012,0.004199008923023939,-0.0044386121444404125,-0.04048558697104454,0.999161422252655
1676104290.0586963,99,1676104289,673838454,world,-0.41223302483558655,0.5218770503997803,0.12514518201351166,0.0042480966076254845,-0.004475085996091366,-0.04042430967092514,0.9991635680198669
1676104290.0587113,100,1676104289,673937787,world,-0.4122430980205536,0.521885097026825,0.1251513659954071,0.004238709807395935,-0.0043632579036056995,-0.040511392056941986,0.999160647392273
1676104290.0587392,101,1676104289,683061398,world,-0.4122304618358612,0.5218720436096191,0.1251443475484848,0.0042147268541157246,-0.00455049192532897,-0.04034964367747307,0.9991663694381714
1676104290.0587776,102,1676104289,683131379,world,-0.4122297763824463,0.5218721628189087,0.12513844668865204,0.004212276078760624,-0.0043885475024580956,-0.040406741201877594,0.999164879322052
1676104290.0588205,103,1676104289,693278490,world,-0.4122203588485718,0.5218526124954224,0.12515978515148163,0.00410695094615221,-0.004434257745742798,-0.040222495794296265,0.9991725087165833
1676104290.058829,104,1676104289,693430805,world,-0.4122401475906372,0.5218823552131653,0.12514802813529968,0.004218174144625664,-0.004351610317826271,-0.040474530309438705,0.9991622567176819
1676104290.0588412,105,1676104289,693495786,world,-0.41222548484802246,0.5218744874000549,0.12515051662921906,0.004201050847768784,-0.0045466069132089615,-0.040375418961048126,0.9991654753684998
1676104290.0595312,106,1676104289,703211582,world,-0.4122317433357239,0.5218720436096191,0.12514443695545197,0.004139058757573366,-0.004391180817037821,-0.040396902710199356,0.9991655349731445
1676104290.0595489,107,1676104289,703310656,world,-0.4122362732887268,0.5218763947486877,0.1251429170370102,0.004211792256683111,-0.004435400478541851,-0.04051591083407402,0.9991602301597595
1676104290.0596075,108,1676104289,713119174,world,-0.4122322201728821,0.5218818783760071,0.12514348328113556,0.00425610039383173,-0.004502730444073677,-0.04038914665579796,0.9991648197174072
1676104290.0596251,109,1676104289,713276340,world,-0.412234365940094,0.5218814611434937,0.1251487135887146,0.004318437539041042,-0.004430714529007673,-0.04042554274201393,0.9991634488105774
1676104290.059654,110,1676104289,723091729,world,-0.4122210741043091,0.5218468308448792,0.12516039609909058,0.003987625241279602,-0.004501651041209698,-0.040142010897397995,0.9991759657859802
1676104290.0596893,111,1676104289,723277914,world,-0.412228524684906,0.5218790769577026,0.1251399666070938,0.0042919740080833435,-0.004398401360958815,-0.040351592004299164,0.99916672706604
1676104290.059699,112,1676104289,733111395,world,-0.41222819685935974,0.5218730568885803,0.125151589512825,0.004091667477041483,-0.004465007688850164,-0.04039881005883217,0.9991653561592102
1676104290.0597177,113,1676104289,733296395,world,-0.4122256636619568,0.521856963634491,0.12515228986740112,0.004069575108587742,-0.00442984513938427,-0.04027885943651199,0.9991704225540161
1676104290.0597696,114,1676104289,733363395,world,-0.41223806142807007,0.5218797922134399,0.12514753639698029,0.004099129233509302,-0.00447221240028739,-0.04045037552714348,0.9991631507873535
1676104290.0597785,115,1676104289,743103412,world,-0.4122369885444641,0.5218775272369385,0.12515342235565186,0.0041080075316131115,-0.004416442941874266,-0.04036901891231537,0.9991666674613953
1676104290.059834,117,1676104289,743260394,world,-0.4122278392314911,0.5218751430511475,0.125151127576828,0.0041936240158975124,-0.0044537503272295,-0.04035928100347519,0.9991664886474609
1676104290.0598662,118,1676104289,753179690,world,-0.41223636269569397,0.521889865398407,0.1251472681760788,0.00426511513069272,-0.004462975077331066,-0.040519654750823975,0.9991596937179565
1676104290.05992,119,1676104289,753257893,world,-0.41223374009132385,0.5218847393989563,0.12515024840831757,0.004308742471039295,-0.004489433020353317,-0.04050472378730774,0.9991600513458252
1676104290.059937,120,1676104289,763067782,world,-0.41223475337028503,0.5218784213066101,0.1251492202281952,0.004080775659531355,-0.004385359585285187,-0.040396325290203094,0.9991657733917236
1676104290.0599477,121,1676104289,763233837,world,-0.41224750876426697,0.5218906402587891,0.1251496970653534,0.004131144378334284,-0.004326815716922283,-0.040586940944194794,0.9991581439971924
1676104290.0601742,122,1676104289,773155299,world,-0.41220206022262573,0.5218312740325928,0.12515807151794434,0.0039848932065069675,-0.00443272665143013,-0.03999016433954239,0.9991823434829712
1676104290.0601928,124,1676104289,773322874,world,-0.4122218191623688,0.5218544602394104,0.1251528263092041,0.004071605857461691,-0.004379868507385254,-0.04028066620230675,0.9991704821586609
1676104290.0602047,125,1676104289,783160410,world,-0.412223219871521,0.5218709707260132,0.12514953315258026,0.004145458340644836,-0.004483481869101524,-0.04030740261077881,0.9991687536239624
1676104290.060217,126,1676104289,783241428,world,-0.41224801540374756,0.5219001173973083,0.12514004111289978,0.004293721169233322,-0.004359289538115263,-0.040665045380592346,0.9991540908813477
1676104290.0602398,127,1676104289,803493964,world,-0.4122368097305298,0.5218785405158997,0.12515167891979218,0.004228345584124327,-0.004438605159521103,-0.04037611186504364,0.9991657733917236
1676104290.0602603,131,1676104289,803854594,world,-0.4122482240200043,0.5218945145606995,0.12514284253120422,0.004248743411153555,-0.00435637217015028,-0.04061950743198395,0.9991561770439148
1676104290.0602727,132,1676104289,813099149,world,-0.4122214615345001,0.5218616724014282,0.1251543015241623,0.004104027058929205,-0.004422866739332676,-0.04023925960063934,0.9991718530654907
1676104290.0605648,133,1676104289,813251056,world,-0.4122233986854553,0.5218796730041504,0.12515322864055634,0.004175671376287937,-0.0044271070510149,-0.040380604565143585,0.9991658926010132
1676104290.0606763,134,1676104289,813317686,world,-0.4122336804866791,0.5218613147735596,0.12516430020332336,0.004117864649742842,-0.00444604828953743,-0.04026801884174347,0.9991705417633057
1676104290.060692,135,1676104289,823070167,world,-0.41223645210266113,0.5218843817710876,0.1251460760831833,0.004207775462418795,-0.004448891617357731,-0.040447089821100235,0.9991629719734192
1676104290.0607538,136,1676104289,823238574,world,-0.41222867369651794,0.5218670964241028,0.12514488399028778,0.0041960678063333035,-0.004436172544956207,-0.04032887890934944,0.999167799949646
1676104290.0611837,137,1676104289,833173481,world,-0.41223618388175964,0.5218786597251892,0.1251567155122757,0.004080845974385738,-0.0044531673192977905,-0.04034188389778137,0.9991676807403564
1676104290.0613973,138,1676104289,833381870,world,-0.4122312664985657,0.5218707919120789,0.12514740228652954,0.00400313176214695,-0.00447316188365221,-0.04030505567789078,0.9991694092750549
1676104290.061453,139,1676104289,843752980,world,-0.412239670753479,0.5218814015388489,0.1251540184020996,0.004262907430529594,-0.004402879625558853,-0.040438730269670486,0.9991632103919983
1676104290.0614886,140,1676104289,843837147,world,-0.41220664978027344,0.5218330025672913,0.12515652179718018,0.003964252304285765,-0.004486252553761005,-0.03995785862207413,0.9991834759712219
1676104290.0615215,141,1676104289,853195017,world,-0.41223806142807007,0.5218760967254639,0.12515871226787567,0.004165334161370993,-0.004428052809089422,-0.040420789271593094,0.9991642832756042
1676104290.0615396,143,1676104289,853333609,world,-0.4122270941734314,0.5218769907951355,0.12515009939670563,0.00416787713766098,-0.004456961993128061,-0.04037291929125786,0.9991660714149475
1676104290.0615525,144,1676104289,863295720,world,-0.4122270941734314,0.521869421005249,0.12514932453632355,0.004177901428192854,-0.004454142414033413,-0.04036751762032509,0.9991663098335266
1676104290.0615802,145,1676104289,863367201,world,-0.4122272729873657,0.5218849182128906,0.12514756619930267,0.004269741475582123,-0.004459257237613201,-0.04049897566437721,0.9991605877876282
1676104290.0615983,146,1676104289,873140645,world,-0.41223984956741333,0.5218883156776428,0.12514498829841614,0.0042497445829212666,-0.004292893223464489,-0.040462978184223175,0.9991627931594849
1676104290.0616155,147,1676104289,873326923,world,-0.412224680185318,0.5218693614006042,0.12515397369861603,0.004188933875411749,-0.004496115725487471,-0.04027034714818001,0.9991698861122131
1676104290.063008,148,1676104289,873401904,world,-0.41223016381263733,0.5218626260757446,0.12515594065189362,0.004154023248702288,-0.004454740788787603,-0.040336623787879944,0.9991676211357117
1676104290.0636256,149,1676104289,883088070,world,-0.4122333824634552,0.5218821167945862,0.1251499056816101,0.00416127685457468,-0.004434993956238031,-0.04040740802884102,0.9991648197174072
1676104290.0637867,150,1676104289,883291218,world,-0.4122248888015747,0.5218682289123535,0.12515105307102203,0.004034522920846939,-0.0044885557144880295,-0.04033464938402176,0.9991680383682251
1676104290.0641558,151,1676104289,893187810,world,-0.41221851110458374,0.5218515396118164,0.1251487135887146,0.004076175857335329,-0.004530697595328093,-0.04018331691622734,0.9991737604141235
1676104290.0641847,153,1676104289,893358181,world,-0.4122369885444641,0.5218886137008667,0.12515249848365784,0.004342065192759037,-0.004396827891469002,-0.04047215357422829,0.9991616010665894
1676104290.0641987,154,1676104289,903115124,world,-0.4122256338596344,0.5218645930290222,0.1251504123210907,0.0041899289935827255,-0.004396216943860054,-0.040324706584215164,0.9991682171821594
1676104290.067094,155,1676104289,903195513,world,-0.41223087906837463,0.5218740701675415,0.12514890730381012,0.004103490617126226,-0.004396997857838869,-0.0403812900185585,0.9991662502288818
1676104290.0672688,156,1676104289,913190068,world,-0.4122296869754791,0.5218785405158997,0.1251479685306549,0.004141544923186302,-0.004444309044629335,-0.04034096375107765,0.9991675019264221
1676104290.067282,158,1676104289,913339679,world,-0.4122375547885895,0.5218786597251892,0.12515397369861603,0.004222693853080273,-0.0044110678136348724,-0.04044294357299805,0.9991632699966431
1676104290.0672948,159,1676104289,933229511,world,-0.41224050521850586,0.5218870639801025,0.1251467764377594,0.004282587207853794,-0.004331731703132391,-0.04058137908577919,0.999157726764679
1676104290.067305,162,1676104289,933447456,world,-0.412217378616333,0.5218437314033508,0.12516172230243683,0.004072702955454588,-0.004407517146319151,-0.04014192894101143,0.999176025390625
1676104290.067316,163,1676104289,943104937,world,-0.4122258722782135,0.521873950958252,0.12515553832054138,0.004061785526573658,-0.004450901877135038,-0.04027155041694641,0.9991706013679504
1676104290.067341,164,1676104289,943735344,world,-0.4122311770915985,0.5218780040740967,0.12514294683933258,0.004225479438900948,-0.004399171564728022,-0.040517259389162064,0.9991602897644043
1676104290.0673509,165,1676104289,943823011,world,-0.4122171401977539,0.5218558311462402,0.12514904141426086,0.004067322704941034,-0.004517024848610163,-0.040242500603199005,0.9991714358329773
1676104290.0673845,166,1676104289,953138658,world,-0.41223153471946716,0.5218726992607117,0.1251506805419922,0.004161308519542217,-0.004479654598981142,-0.04041628912091255,0.9991642832756042
1676104290.067408,167,1676104289,953350121,world,-0.4122297465801239,0.52187579870224,0.1251543164253235,0.004138787742704153,-0.004309455398470163,-0.04041091725230217,0.9991652965545654
1676104290.067438,168,1676104289,963124510,world,-0.4122454822063446,0.5218924283981323,0.12514328956604004,0.004317435435950756,-0.004287689924240112,-0.040677886456251144,0.9991537928581238
1676104290.0674772,169,1676104289,963293287,world,-0.4122317135334015,0.5218772888183594,0.12514816224575043,0.0042675030417740345,-0.004537889733910561,-0.04030492529273033,0.9991679787635803
1676104290.0675392,170,1676104289,973101731,world,-0.4122489094734192,0.5219011902809143,0.1251354217529297,0.0042346627451479435,-0.004458014853298664,-0.04065896198153496,0.9991541504859924
1676104290.067551,171,1676104289,973266083,world,-0.4122112989425659,0.521848201751709,0.12516003847122192,0.004095202311873436,-0.004412858281284571,-0.04013201966881752,0.9991763234138489
1676104290.0680306,172,1676104289,983136193,world,-0.41223573684692383,0.5218830704689026,0.1251547783613205,0.004225467331707478,-0.004478671122342348,-0.040436774492263794,0.9991630911827087
1676104290.0687127,173,1676104289,983318360,world,-0.41223883628845215,0.5218773484230042,0.12515687942504883,0.004168389365077019,-0.004418401047587395,-0.04036249965429306,0.9991666078567505
1676104290.0687394,174,1676104289,983388860,world,-0.4122282862663269,0.5218769311904907,0.1251458078622818,0.004128564149141312,-0.004449579864740372,-0.04041358828544617,0.9991646409034729
1676104290.068755,175,1676104289,993124526,world,-0.4122229814529419,0.5218684673309326,0.12514933943748474,0.004220501519739628,-0.00442191306501627,-0.04031793773174286,0.9991682767868042
1676104290.068765,176,1676104289,993212934,world,-0.41224217414855957,0.5218846797943115,0.12514598667621613,0.004290381446480751,-0.004425338935106993,-0.04053487628698349,0.9991590976715088
1676104290.0687785,177,1676104289,993396063,world,-0.41224339604377747,0.521896243095398,0.1251525580883026,0.004140576813369989,-0.004537226166576147,-0.040583930909633636,0.9991572499275208
1676104290.06934,178,1676104290,4518933,world,-0.4122345447540283,0.5218784809112549,0.1251496970653534,0.004241197369992733,-0.004374171141535044,-0.04042467474937439,0.9991639852523804
1676104290.0703475,179,1676104290,5401618,world,-0.41223302483558655,0.5218833684921265,0.12514789402484894,0.004213898442685604,-0.004507864825427532,-0.04043976962566376,0.9991629719734192
1676104290.0704134,180,1676104290,13125766,world,-0.41224151849746704,0.5218919515609741,0.12514829635620117,0.004170873202383518,-0.004374177195131779,-0.040573716163635254,0.9991583228111267
1676104290.0704594,181,1676104290,13303525,world,-0.4122137129306793,0.5218467712402344,0.12516197562217712,0.00396468210965395,-0.004414179362356663,-0.040068455040454865,0.9991794228553772
1676104290.0704737,182,1676104290,13381025,world,-0.41223469376564026,0.5218806862831116,0.1251520812511444,0.004084412008523941,-0.004383055027574301,-0.040561504662036896,0.9991590976715088
1676104290.070511,183,1676104290,23104524,world,-0.41223734617233276,0.5218794941902161,0.12514685094356537,0.004298961255699396,-0.0043452163226902485,-0.040487002581357956,0.999161422252655
1676104290.07054,184,1676104290,23278135,world,-0.41223254799842834,0.521880030632019,0.12514586746692657,0.004117678385227919,-0.004445290192961693,-0.040450066328048706,0.9991632103919983
1676104290.0710192,185,1676104290,33192339,world,-0.41222622990608215,0.5218679308891296,0.12515538930892944,0.004114361479878426,-0.004446643404662609,-0.04037105292081833,0.9991663694381714
1676104290.0710313,186,1676104290,33277857,world,-0.4122351408004761,0.5218865275382996,0.12514464557170868,0.004245985299348831,-0.00447355629876256,-0.0404202938079834,0.999163806438446
1676104290.0713003,187,1676104290,43130597,world,-0.4122387766838074,0.5218849778175354,0.12514114379882812,0.0042726886458694935,-0.004380976781249046,-0.040520839393138885,0.9991599917411804
1676104290.0715365,188,1676104290,43220023,world,-0.41223400831222534,0.5218833088874817,0.12514831125736237,0.0043103452771902084,-0.004378993064165115,-0.04048822075128555,0.9991611838340759
1676104290.0771391,189,1676104290,53130374,world,-0.4122409224510193,0.5218940377235413,0.12514764070510864,0.004292330704629421,-0.004398311488330364,-0.04060214012861252,0.9991565346717834
1676104290.0771852,190,1676104290,53375171,world,-0.41223064064979553,0.5218866467475891,0.12515246868133545,0.004185151308774948,-0.0043083601631224155,-0.0404326356947422,0.9991642236709595
1676104290.0771978,191,1676104290,53454819,world,-0.4122352600097656,0.5218806862831116,0.1251518279314041,0.004261778201907873,-0.004493402782827616,-0.04049752652645111,0.9991605281829834
1676104290.0773177,192,1676104290,64548281,world,-0.4122321307659149,0.5218796133995056,0.1251460611820221,0.00417938269674778,-0.004441650118678808,-0.040436044335365295,0.9991635084152222
1676104290.0773714,194,1676104290,64725929,world,-0.4122234284877777,0.5218701362609863,0.12514300644397736,0.004214873071759939,-0.0045181745663285255,-0.04034251719713211,0.9991667866706848
1676104290.0774717,195,1676104290,73115540,world,-0.4122433066368103,0.5218906402587891,0.125143900513649,0.004266072064638138,-0.004442128352820873,-0.04053964838385582,0.999159038066864
1676104290.0775583,196,1676104290,73290781,world,-0.4122379720211029,0.5218778252601624,0.12515030801296234,0.004197477828711271,-0.004427233245223761,-0.04042324796319008,0.9991641044616699
1676104290.086437,197,1676104290,83275336,world,-0.4122297763824463,0.5218794345855713,0.12515249848365784,0.004143976606428623,-0.004509624559432268,-0.04038132727146149,0.9991655349731445
1676104290.086445,198,1676104290,83356224,world,-0.41223636269569397,0.5218857526779175,0.1251407116651535,0.004217096138745546,-0.004335037432610989,-0.040536291897296906,0.9991597533226013
1676104290.0941286,199,1676104290,93173131,world,-0.4122321605682373,0.5218720436096191,0.1251503974199295,0.004207937512546778,-0.004426951054483652,-0.04036468639969826,0.9991663694381714
1676104290.0941498,200,1676104290,93259279,world,-0.4122399091720581,0.5218861699104309,0.1251441091299057,0.004266213625669479,-0.00439808052033186,-0.0404774509370327,0.9991617202758789
1676104290.1048062,201,1676104290,103610019,world,-0.4122307598590851,0.5218742489814758,0.1251509040594101,0.004266398027539253,-0.0043890029191970825,-0.040381282567977905,0.9991655945777893
1676104290.1048281,203,1676104290,103747982,world,-0.41222625970840454,0.5218757390975952,0.1251543164253235,0.00416478281840682,-0.00444737309589982,-0.040376584976911545,0.9991660118103027
1676104290.1149733,204,1676104290,113118074,world,-0.412233829498291,0.5218678712844849,0.1251494586467743,0.004188499413430691,-0.0044266656041145325,-0.040357306599617004,0.9991667866706848
1676104290.1149828,205,1676104290,113194463,world,-0.41223418712615967,0.5218858122825623,0.125155508518219,0.004167542792856693,-0.004397268872708082,-0.040429819375276566,0.9991639852523804
1676104290.1252968,206,1676104290,123079315,world,-0.4122258126735687,0.5218701362609863,0.12514574825763702,0.004136114381253719,-0.004392571747303009,-0.040334105491638184,0.9991680383682251
1676104290.125333,208,1676104290,123259907,world,-0.41223421692848206,0.521876871585846,0.12514236569404602,0.0042659565806388855,-0.004363905638456345,-0.04046230763196945,0.999162495136261
1676104290.1340075,209,1676104290,133073333,world,-0.4122432470321655,0.521882951259613,0.1251520961523056,0.004229737911373377,-0.0043549793772399426,-0.04048485681414604,0.9991617798805237
1676104290.1340744,210,1676104290,133249777,world,-0.41224250197410583,0.5218875408172607,0.1251513659954071,0.004217802546918392,-0.004349344875663519,-0.04058351367712021,0.9991578459739685
1676104290.1445634,211,1676104290,143131776,world,-0.41221562027931213,0.5218532085418701,0.12515738606452942,0.00407496327534318,-0.004417738877236843,-0.040213171392679214,0.9991730451583862
1676104290.1550307,212,1676104290,153233498,world,-0.41223007440567017,0.5218850374221802,0.12514916062355042,0.004118309356272221,-0.004428528714925051,-0.040503185242414474,0.9991611838340759
1676104290.155163,215,1676104290,153495442,world,-0.4122369587421417,0.5218832492828369,0.12515205144882202,0.004174475558102131,-0.00451031606644392,-0.04047355800867081,0.9991617798805237
1676104290.1647127,216,1676104290,163105238,world,-0.41223981976509094,0.5218915939331055,0.12515360116958618,0.0042608133517205715,-0.004427959211170673,-0.040595464408397675,0.9991567730903625
1676104290.1648276,217,1676104290,163321090,world,-0.4122358560562134,0.5218738913536072,0.12515000998973846,0.0041725183837115765,-0.004416766110807657,-0.04039546474814415,0.9991652965545654
1676104290.1653728,218,1676104290,163415738,world,-0.41223713755607605,0.5218821167945862,0.12514805793762207,0.004209013190120459,-0.004420723766088486,-0.04044244438409805,0.9991632699966431
1676104290.1741686,219,1676104290,173094275,world,-0.4122401773929596,0.5218912363052368,0.12514278292655945,0.004332963842898607,-0.004418740049004555,-0.04053172841668129,0.9991590976715088
1676104290.174179,220,1676104290,173263867,world,-0.41223809123039246,0.5218858122825623,0.12515723705291748,0.004183788783848286,-0.004362205043435097,-0.04050598666071892,0.9991610050201416
1676104290.1864302,221,1676104290,183148737,world,-0.41223448514938354,0.5218886137008667,0.12515026330947876,0.004256310872733593,-0.004443660378456116,-0.04049477353692055,0.9991608262062073
1676104290.187003,222,1676104290,183254848,world,-0.4122242033481598,0.5218717455863953,0.12515442073345184,0.004128661006689072,-0.004499729722738266,-0.04034682363271713,0.9991671442985535
1676104290.1959057,223,1676104290,193142866,world,-0.4122285544872284,0.5218804478645325,0.12515978515148163,0.004072040785104036,-0.004502969328314066,-0.04038991034030914,0.9991655349731445
1676104290.1959221,224,1676104290,193323477,world,-0.41221627593040466,0.5218366980552673,0.1251649260520935,0.004069097340106964,-0.00447795819491148,-0.03999453783035278,0.9991815686225891
1676104290.2048254,225,1676104290,203067439,world,-0.41223299503326416,0.5218786597251892,0.1251503825187683,0.004255864303559065,-0.0043412260711193085,-0.04038197547197342,0.9991658329963684
1676104290.2048914,226,1676104290,203571828,world,-0.41222426295280457,0.5218685269355774,0.1251465082168579,0.004101149272173643,-0.004445290192961693,-0.04029066860675812,0.9991697072982788
1676104290.2140028,227,1676104290,213212217,world,-0.412237286567688,0.5218812823295593,0.12515252828598022,0.0041757370345294476,-0.0043262904509902,-0.04045673832297325,0.9991632699966431
1676104290.2239738,228,1676104290,223113549,world,-0.4122004806995392,0.5218300819396973,0.12516701221466064,0.003992460668087006,-0.00450642965734005,-0.039942774921655655,0.9991838932037354
1676104290.226499,229,1676104290,223821401,world,-0.4122343957424164,0.5218721032142639,0.1251484751701355,0.0041553424671292305,-0.004356418736279011,-0.04034154862165451,0.999167799949646
1676104290.226695,232,1676104290,224102512,world,-0.4122408628463745,0.5218878984451294,0.1251491755247116,0.004200873896479607,-0.004356334451586008,-0.0405750498175621,0.9991582036018372
1676104290.2339196,233,1676104290,233141327,world,-0.4122123718261719,0.521841824054718,0.12516234815120697,0.003955222200602293,-0.004484307020902634,-0.04016384482383728,0.9991753101348877
1676104290.234462,234,1676104290,233322252,world,-0.412230521440506,0.5218822956085205,0.1251586526632309,0.004105473402887583,-0.004393324721604586,-0.04039523005485535,0.9991657137870789
1676104290.2345176,235,1676104290,233473086,world,-0.4122236669063568,0.5218656063079834,0.12514181435108185,0.004047031980007887,-0.0044593061320483685,-0.040338825434446335,0.9991679787635803
1676104290.2439246,236,1676104290,243106030,world,-0.4122304916381836,0.5218774080276489,0.12515389919281006,0.004157158080488443,-0.004425967577844858,-0.04033220186829567,0.9991679191589355
1676104290.2445095,237,1676104290,243402752,world,-0.4122418463230133,0.5218899846076965,0.12514862418174744,0.0042771329171955585,-0.004488829057663679,-0.040523480623960495,0.9991593956947327
1676104290.2540002,238,1676104290,253329381,world,-0.41222935914993286,0.5218744277954102,0.12514454126358032,0.004191395826637745,-0.004405909683555365,-0.04039915278553963,0.9991651773452759
1676104290.254869,239,1676104290,253533362,world,-0.41224515438079834,0.5218927264213562,0.12514691054821014,0.004079706501215696,-0.004351923242211342,-0.040610574185848236,0.9991573095321655
1676104290.26534,240,1676104290,263076195,world,-0.4122430384159088,0.5218900442123413,0.1251491755247116,0.00431260047480464,-0.004462680779397488,-0.040520187467336655,0.9991595149040222
1676104290.265394,241,1676104290,263158028,world,-0.41220685839653015,0.5218438506126404,0.12515822052955627,0.004029440693557262,-0.00450801569968462,-0.04005592316389084,0.9991791844367981
1676104290.2739863,242,1676104290,273109732,world,-0.41223037242889404,0.521879255771637,0.12515276670455933,0.0041434322483837605,-0.004264728631824255,-0.04041023552417755,0.9991655349731445
1676104290.274645,243,1676104290,273303880,world,-0.4122263491153717,0.5218755602836609,0.12515202164649963,0.004147025756537914,-0.004387228284031153,-0.04041522368788719,0.9991648197174072
1676104290.2748528,244,1676104290,273386028,world,-0.41223374009132385,0.5218904614448547,0.12514637410640717,0.004250476602464914,-0.004349716007709503,-0.040530528873205185,0.9991598129272461
1676104290.2850099,245,1676104290,283110286,world,-0.4122297167778015,0.521865963935852,0.1251484900712967,0.00422250758856535,-0.004432871472090483,-0.040359802544116974,0.9991664886474609
1676104290.2850957,246,1676104290,283336712,world,-0.4122348427772522,0.5218793749809265,0.12514865398406982,0.004152389708906412,-0.00441915774717927,-0.040449392050504684,0.9991632103919983
1676104290.2941005,247,1676104290,293128415,world,-0.41222983598709106,0.5218721032142639,0.12515300512313843,0.004170348402112722,-0.004410297144204378,-0.04037534072995186,0.9991661906242371
1676104290.2941873,248,1676104290,293313045,world,-0.4122336208820343,0.5218816995620728,0.12515543401241302,0.004184446297585964,-0.004399914760142565,-0.040450867265462875,0.9991630911827087
1676104290.2942014,249,1676104290,293389564,world,-0.41222745180130005,0.5218755006790161,0.12514933943748474,0.004239742178469896,-0.004492867272347212,-0.04036414995789528,0.999165952205658
1676104290.3049955,250,1676104290,303147045,world,-0.41223886609077454,0.521888017654419,0.12514670193195343,0.004181790631264448,-0.004424571059644222,-0.040588706731796265,0.9991574287414551
1676104290.3052008,251,1676104290,303782915,world,-0.41222524642944336,0.5218753814697266,0.12514576315879822,0.004245447460561991,-0.004453133791685104,-0.04030701890587807,0.9991684556007385
1676104290.3152645,252,1676104290,313127414,world,-0.41223105788230896,0.521866500377655,0.12515026330947876,0.004240170121192932,-0.004536599386483431,-0.04028823599219322,0.999168872833252
1676104290.315278,253,1676104290,313302840,world,-0.41223037242889404,0.5218724012374878,0.12514270842075348,0.004143642261624336,-0.004416892770677805,-0.04033678025007248,0.9991678595542908
1676104290.315289,254,1676104290,313376748,world,-0.41223371028900146,0.5218808054924011,0.12514501810073853,0.004249394405633211,-0.004361873026937246,-0.04047848656773567,0.9991618394851685
1676104290.3249578,255,1676104290,323114488,world,-0.4122292995452881,0.5218572020530701,0.12516556680202484,0.004117795266211033,-0.004454209469258785,-0.04018465429544449,0.9991738796234131
1676104290.3250744,256,1676104290,323218599,world,-0.41223981976509094,0.5218818783760071,0.12514425814151764,0.00425142515450716,-0.0044099572114646435,-0.040491122752428055,0.9991611838340759
1676104290.3351834,257,1676104290,333172913,world,-0.4122266471385956,0.5218678116798401,0.1251489371061325,0.004096836317330599,-0.004499024245887995,-0.04024718701839447,0.9991711974143982
1676104290.3353138,258,1676104290,333251172,world,-0.4122324287891388,0.5218828320503235,0.1251436024904251,0.004165405873209238,-0.0043755327351391315,-0.04056259244680405,0.9991587400436401
1676104290.3355181,259,1676104290,333488154,world,-0.412230521440506,0.5218744874000549,0.12514901161193848,0.004205738659948111,-0.004415564704686403,-0.040304817259311676,0.9991688132286072
1676104290.3441603,260,1676104290,343402653,world,-0.41223275661468506,0.5218839049339294,0.12514159083366394,0.004184252582490444,-0.00437895068898797,-0.04051656648516655,0.9991605877876282
1676104290.3450253,261,1676104290,344103190,world,-0.412240207195282,0.5218823552131653,0.1251467913389206,0.0042163715697824955,-0.0042580850422382355,-0.040471553802490234,0.9991627931594849
1676104290.35369,262,1676104290,353116819,world,-0.41224291920661926,0.521887481212616,0.12515293061733246,0.004318170715123415,-0.0044852374121546745,-0.040490515530109406,0.9991605281829834
1676104290.354608,263,1676104290,353306023,world,-0.4122356176376343,0.5218847393989563,0.12514938414096832,0.004227206576615572,-0.004466387443244457,-0.040432460606098175,0.9991633892059326
1676104290.3656516,264,1676104290,363112985,world,-0.41223588585853577,0.5218778848648071,0.1251448541879654,0.004258648492395878,-0.004336229059845209,-0.04037719964981079,0.9991660714149475
1676104290.3656642,265,1676104290,363320800,world,-0.4122236967086792,0.5218663215637207,0.12515275180339813,0.0041082678362727165,-0.00439661368727684,-0.04027782380580902,0.9991704821586609
1676104290.365803,266,1676104290,363401171,world,-0.41222262382507324,0.5218762159347534,0.1251462996006012,0.0041205319575965405,-0.00447120564058423,-0.04031526297330856,0.9991685748100281
1676104290.3748395,267,1676104290,373113633,world,-0.4122280478477478,0.5218713283538818,0.1251496523618698,0.004114523995667696,-0.004417026415467262,-0.040293995290994644,0.9991697072982788
1676104290.3748584,268,1676104290,373298263,world,-0.412212610244751,0.5218437910079956,0.1251627802848816,0.003951938357204199,-0.004494373220950365,-0.040096212178468704,0.9991779327392578
1676104290.3851292,269,1676104290,383091410,world,-0.41222840547561646,0.5218721628189087,0.12515248358249664,0.00427565723657608,-0.0044308253563940525,-0.04035906866192818,0.9991662502288818
1676104290.3851469,270,1676104290,383309892,world,-0.41223374009132385,0.5218819379806519,0.12515424191951752,0.004197818227112293,-0.004422406200319529,-0.040429700165987015,0.999163806438446
1676104290.3940217,271,1676104290,393094187,world,-0.4122290015220642,0.5218780040740967,0.12514515221118927,0.004167463164776564,-0.004520143382251263,-0.04034297168254852,0.9991669654846191
1676104290.3941627,272,1676104290,393280187,world,-0.4122354984283447,0.5218896865844727,0.12515254318714142,0.004281566012650728,-0.004433447029441595,-0.04052601009607315,0.9991594552993774
1676104290.394176,273,1676104290,393354576,world,-0.4122273921966553,0.5218662023544312,0.1251513510942459,0.004186923149973154,-0.004383416846394539,-0.04027784615755081,0.999170184135437
1676104290.405566,274,1676104290,403097816,world,-0.41223156452178955,0.521876871585846,0.12514428794384003,0.004234321415424347,-0.004339250270277262,-0.04046868905425072,0.9991623759269714
1676104290.4064717,275,1676104290,403185853,world,-0.4122328758239746,0.521874725818634,0.12515290081501007,0.004111649934202433,-0.004461586009711027,-0.04036376625299454,0.9991666078567505
1676104290.4147475,276,1676104290,413135112,world,-0.4122409224510193,0.5218849182128906,0.12515835464000702,0.004221102688461542,-0.004339707084000111,-0.04043838381767273,0.9991636872291565
1676104290.4147673,278,1676104290,413407186,world,-0.4122260808944702,0.5218827724456787,0.1251465082168579,0.004219595342874527,-0.004391199443489313,-0.04046928882598877,0.9991621971130371
1676104290.424294,279,1676104290,423076037,world,-0.4122282862663269,0.521883487701416,0.12515045702457428,0.004174443893134594,-0.004501414485275745,-0.040460698306560516,0.9991623163223267
1676104290.4342718,280,1676104290,433129240,world,-0.41222789883613586,0.5218839049339294,0.12515129148960114,0.0043327705934643745,-0.004459850024431944,-0.04051055386662483,0.9991597533226013
1676104290.4344625,281,1676104290,433336333,world,-0.41223350167274475,0.5218812227249146,0.12514731287956238,0.004198693670332432,-0.004388455767184496,-0.04052351787686348,0.9991601705551147
1676104290.4344926,282,1676104290,433424685,world,-0.412227600812912,0.5218762159347534,0.12515200674533844,0.00409943051636219,-0.004414398688822985,-0.0404038168489933,0.9991652369499207
1676104290.4451437,283,1676104290,443285740,world,-0.41215845942497253,0.521881103515625,0.12510749697685242,0.003871483728289604,-0.004736953880637884,-0.04038938134908676,0.9991652965545654
1676104290.4452705,285,1676104290,443477184,world,-0.4122253656387329,0.5218620300292969,0.1251489371061325,0.004189445171505213,-0.004420642741024494,-0.04034769535064697,0.9991672039031982
1676104290.4549582,286,1676104290,453133869,world,-0.4122365117073059,0.5218774080276489,0.12515193223953247,0.0041618142277002335,-0.0044402433559298515,-0.04037082940340042,0.9991662502288818
1676104290.45497,287,1676104290,453214961,world,-0.4122243821620941,0.5218722224235535,0.12514561414718628,0.0042633977718651295,-0.004361413419246674,-0.04032484441995621,0.9991680383682251
1676104290.4638884,288,1676104290,463249961,world,-0.412235826253891,0.5218779444694519,0.12515667080879211,0.004196671769022942,-0.004411027766764164,-0.04030894860625267,0.9991687536239624
1676104290.4644332,289,1676104290,463586146,world,-0.4122338593006134,0.5218766927719116,0.12515300512313843,0.004198169801384211,-0.004502746742218733,-0.040385644882917404,0.9991652369499207
1676104290.4764895,290,1676104290,473160349,world,-0.4122416377067566,0.5218906402587891,0.12514080107212067,0.004315060097724199,-0.0044400449842214584,-0.04062609374523163,0.9991552233695984
1676104290.4765944,291,1676104290,473354645,world,-0.41223031282424927,0.5218801498413086,0.12515075504779816,0.004114741459488869,-0.004557440523058176,-0.040375471115112305,0.9991657137870789
1676104290.4766588,292,1676104290,473433608,world,-0.41222938895225525,0.521883487701416,0.12515684962272644,0.004184506367892027,-0.004440875258296728,-0.04041788727045059,0.9991642236709595
1676104290.4839308,293,1676104290,483138534,world,-0.4122140109539032,0.5218508839607239,0.12515851855278015,0.003955323714762926,-0.004462862387299538,-0.04015345871448517,0.9991757869720459
1676104290.4847438,294,1676104290,483446330,world,-0.4122355580329895,0.521877110004425,0.12513865530490875,0.0042291670106351376,-0.0043363734148442745,-0.04046059399843216,0.9991628527641296
1676104290.4848282,295,1676104290,483561793,world,-0.41222691535949707,0.5218729376792908,0.12514768540859222,0.004228245001286268,-0.004411906003952026,-0.040380727499723434,0.9991657733917236
1676104290.4948337,296,1676104290,493147718,world,-0.4122273623943329,0.5218775868415833,0.12514831125736237,0.004229268524795771,-0.004478083457797766,-0.04037817195057869,0.9991655349731445
1676104290.494881,297,1676104290,493233644,world,-0.41223978996276855,0.5218909978866577,0.12514235079288483,0.004145585931837559,-0.004360910505056381,-0.040608782321214676,0.9991570711135864
1676104290.5042892,298,1676104290,503077588,world,-0.4122236669063568,0.521869421005249,0.12514810264110565,0.004197531379759312,-0.0044719744473695755,-0.040273502469062805,0.9991699457168579
1676104290.5154343,299,1676104290,513138106,world,-0.4122374653816223,0.5218797326087952,0.1251521110534668,0.004285634029656649,-0.004446843173354864,-0.04044413939118385,0.9991627335548401
1676104290.5162745,300,1676104290,513338402,world,-0.4122290313243866,0.5218701362609863,0.12514716386795044,0.004107909742742777,-0.004383676685392857,-0.04037301614880562,0.9991666674613953
1676104290.516288,302,1676104290,513503495,world,-0.4122318625450134,0.5218832492828369,0.1251533478498459,0.004122091922909021,-0.004514999687671661,-0.040485117584466934,0.999161422252655
1676104290.5247757,303,1676104290,523228439,world,-0.4122375249862671,0.5218859314918518,0.12515880167484283,0.0042164865881204605,-0.004383780527859926,-0.04051908478140831,0.9991602897644043
1676104290.524824,304,1676104290,523409217,world,-0.41222938895225525,0.5218685865402222,0.1251448541879654,0.004160721320658922,-0.004351902287453413,-0.0403633788228035,0.9991669058799744
1676104290.534286,305,1676104290,533083975,world,-0.41223612427711487,0.5218837261199951,0.12514537572860718,0.004240681417286396,-0.004337146412581205,-0.04046852886676788,0.9991624355316162
1676104290.5343866,306,1676104290,533257809,world,-0.41222473978996277,0.5218657851219177,0.1251535713672638,0.0040174322202801704,-0.004322543740272522,-0.040241580456495285,0.9991726279258728
1676104290.5439444,307,1676104290,543099512,world,-0.4122355580329895,0.5218789577484131,0.12514640390872955,0.004268933553248644,-0.0044694808311760426,-0.04041610285639763,0.9991638660430908
1676104290.5449817,308,1676104290,543301308,world,-0.4122284948825836,0.5218693614006042,0.1251409947872162,0.004153464455157518,-0.004455811344087124,-0.040357302874326706,0.99916672706604
1676104290.5541067,309,1676104290,553108622,world,-0.4122334122657776,0.5218861699104309,0.12514588236808777,0.0042661940678954124,-0.004425195511430502,-0.040431130677461624,0.9991635084152222
1676104290.5562036,310,1676104290,553294326,world,-0.4122198522090912,0.5218473672866821,0.12516914308071136,0.003985597286373377,-0.004432802554219961,-0.040098026394844055,0.9991780519485474
1676104290.5575552,311,1676104290,553378955,world,-0.4122365713119507,0.5218771696090698,0.1251486837863922,0.004176334943622351,-0.0044518718495965,-0.04042831063270569,0.9991638660430908
1676104290.5641854,312,1676104290,563083399,world,-0.41221415996551514,0.5218513607978821,0.12515336275100708,0.004064146429300308,-0.004343326203525066,-0.04015038534998894,0.9991759657859802
1676104290.5652165,313,1676104290,563276344,world,-0.41223427653312683,0.5218842029571533,0.12514369189739227,0.004154672846198082,-0.004397616721689701,-0.0405501127243042,0.9991592168807983
1676104290.574814,314,1676104290,573101325,world,-0.41222551465034485,0.5218758583068848,0.12515075504779816,0.0041062901727855206,-0.004395859781652689,-0.04035567119717598,0.999167263507843
1676104290.5748594,315,1676104290,573274139,world,-0.4122355580329895,0.5218775868415833,0.1251460611820221,0.004256876651197672,-0.004425292368978262,-0.040425170212984085,0.9991637468338013
1676104290.5844686,316,1676104290,583109602,world,-0.4122316241264343,0.5218827128410339,0.12514948844909668,0.004254544619470835,-0.004464573226869106,-0.0404537133872509,0.9991623759269714
1676104290.5844839,317,1676104290,583295102,world,-0.4122318923473358,0.5218812227249146,0.1251518875360489,0.004176419228315353,-0.004442768637090921,-0.04039580002427101,0.9991651773452759
1676104290.5940611,318,1676104290,593090157,world,-0.41223379969596863,0.5218769311904907,0.1251453310251236,0.0041966671124100685,-0.004319577943533659,-0.040489472448825836,0.9991618394851685
1676104290.5951548,319,1676104290,593259898,world,-0.41223135590553284,0.521878719329834,0.12514613568782806,0.004208861850202084,-0.004441290162503719,-0.04033868387341499,0.9991673231124878
1676104290.5951762,321,1676104290,593412435,world,-0.4122360348701477,0.5218837857246399,0.12514294683933258,0.004318003077059984,-0.004425728693604469,-0.04050195962190628,0.9991603493690491
1676104290.6038926,322,1676104290,603097915,world,-0.4122276306152344,0.5218706727027893,0.12514935433864594,0.004172297194600105,-0.004448384512215853,-0.04034052789211273,0.9991673827171326
1676104290.6261835,323,1676104290,623079192,world,-0.4122394621372223,0.5218859314918518,0.12514613568782806,0.004198424983769655,-0.004405326675623655,-0.040559072047472,0.9991586804389954
1676104290.6261985,324,1676104290,623263711,world,-0.4122333526611328,0.5218779444694519,0.12515130639076233,0.004199093673378229,-0.004366133827716112,-0.04045978933572769,0.9991628527641296
1676104290.6262398,328,1676104290,623583822,world,-0.41223108768463135,0.5218738913536072,0.12515661120414734,0.004140835255384445,-0.004386077634990215,-0.04031791165471077,0.9991686940193176
1676104290.634023,329,1676104290,633147043,world,-0.41223204135894775,0.5218721032142639,0.12514488399028778,0.0042014699429273605,-0.00440341467037797,-0.04033631086349487,0.9991676211357117
1676104290.6343741,330,1676104290,633361080,world,-0.41223400831222534,0.5218827724456787,0.12514503300189972,0.004199709743261337,-0.004429622553288937,-0.04050176963210106,0.999160885810852
1676104290.6445749,331,1676104290,643097839,world,-0.41223207116127014,0.5218780040740967,0.1251533180475235,0.004077793098986149,-0.0043876683339476585,-0.04042080044746399,0.9991648197174072
1676104290.6446264,332,1676104290,643283024,world,-0.41224217414855957,0.5218930244445801,0.12515577673912048,0.004244366195052862,-0.004397179931402206,-0.040569934993982315,0.9991580843925476
1676104290.6539822,333,1676104290,653128301,world,-0.41222959756851196,0.5218775272369385,0.12514930963516235,0.004231192171573639,-0.0043973070569336414,-0.040369663387537,0.9991661906242371
1676104290.654452,334,1676104290,653306598,world,-0.4122363328933716,0.521881103515625,0.1251484602689743,0.004267035983502865,-0.004344445653259754,-0.040474943816661835,0.9991620779037476
1676104290.6659894,335,1676104290,663107171,world,-0.4122316837310791,0.5218738913536072,0.12515033781528473,0.004277805797755718,-0.004482632502913475,-0.04036163538694382,0.999165952205658
1676104290.6660006,336,1676104290,663306319,world,-0.4122340977191925,0.5218725204467773,0.12514671683311462,0.004216846078634262,-0.004379423335194588,-0.040443580597639084,0.9991633296012878
1676104290.666067,337,1676104290,663384578,world,-0.4122210741043091,0.5218554735183716,0.12516790628433228,0.00398216350004077,-0.00432507274672389,-0.04020880162715912,0.9991740584373474
1676104290.675191,338,1676104290,673177133,world,-0.4122312068939209,0.5218895077705383,0.12515369057655334,0.004266078118234873,-0.00436489237472415,-0.040536366403102875,0.9991593956947327
1676104290.6752071,339,1676104290,673266745,world,-0.412243127822876,0.5218837261199951,0.1251448541879654,0.00434822216629982,-0.004407187458127737,-0.04056589677929878,0.999157726764679
1676104290.685524,340,1676104290,683110540,world,-0.4122231602668762,0.5218671560287476,0.12514671683311462,0.004083175212144852,-0.0044516525231301785,-0.040338173508644104,0.9991678595542908
1676104290.6855373,341,1676104290,683329466,world,-0.4122312664985657,0.5218831896781921,0.12515467405319214,0.004187403712421656,-0.00446295877918601,-0.04041984677314758,0.9991640448570251
1676104290.6855855,342,1676104290,683416022,world,-0.41220879554748535,0.521842896938324,0.12516029179096222,0.004053477663546801,-0.004468159284442663,-0.04001256451010704,0.9991809725761414
1676104290.6940675,343,1676104290,693159336,world,-0.41222187876701355,0.5218707323074341,0.12515310943126678,0.004121599718928337,-0.004520101007074118,-0.04029993712902069,0.9991689324378967
1676104290.6941888,344,1676104290,693243780,world,-0.4122159481048584,0.521852433681488,0.12516172230243683,0.004080618731677532,-0.004392055794596672,-0.04010213911533356,0.9991776943206787
1676104290.7344756,345,1676104290,733161056,world,-0.41222742199897766,0.5218753814697266,0.12515293061733246,0.004136329982429743,-0.004538720939308405,-0.04036036133766174,0.9991663694381714
1676104290.7349446,346,1676104290,733394204,world,-0.4122287333011627,0.5218820571899414,0.12514325976371765,0.0041494485922157764,-0.004471970722079277,-0.04041855409741402,0.9991642832756042
1676104290.7349904,347,1676104290,733489815,world,-0.41221752762794495,0.5218521952629089,0.1251581609249115,0.004029679112136364,-0.004439646378159523,-0.04015148803591728,0.9991756677627563
1676104290.7446876,348,1676104290,743131574,world,-0.4122334420681,0.5218857526779175,0.12515033781528473,0.004236636217683554,-0.00439424766227603,-0.04052596166729927,0.9991598725318909
1676104290.7447011,349,1676104290,743459611,world,-0.41221296787261963,0.5218459963798523,0.12515272200107574,0.0040974789299070835,-0.004531657788902521,-0.04011140018701553,0.9991766214370728
1676104290.744713,350,1676104290,743585222,world,-0.4122384190559387,0.5218812227249146,0.1251523196697235,0.004223279654979706,-0.004441082011908293,-0.04038313031196594,0.9991654753684998
1676104290.7495775,351,1676104290,745911018,world,-0.4122234880924225,0.5218690633773804,0.12515152990818024,0.004084019456058741,-0.004443223588168621,-0.04032199829816818,0.9991685152053833
1676104290.749639,357,1676104290,746464888,world,-0.41224271059036255,0.521902322769165,0.12515154480934143,0.004237745888531208,-0.0043601542711257935,-0.040649764239788055,0.9991550445556641
1676104290.7539282,358,1676104290,753239055,world,-0.4122298061847687,0.5218824148178101,0.12515196204185486,0.004169529769569635,-0.004400947596877813,-0.04038958251476288,0.9991655945777893
1676104290.7553623,359,1676104290,753463036,world,-0.4122380018234253,0.5218877792358398,0.12515006959438324,0.004174584988504648,-0.004465271718800068,-0.04053042083978653,0.9991596341133118
1676104290.7648578,360,1676104290,763526961,world,-0.4122307300567627,0.5218851566314697,0.12513765692710876,0.004201170057058334,-0.0043867710046470165,-0.04050101339817047,0.9991610646247864
1676104290.7649107,361,1676104290,763669258,world,-0.41222822666168213,0.5218733549118042,0.1251438856124878,0.0041506607085466385,-0.004463890567421913,-0.04035969823598862,0.9991666674613953
1676104290.7759464,362,1676104290,773096090,world,-0.41223374009132385,0.521887481212616,0.12514761090278625,0.004097322002053261,-0.004396627191454172,-0.04046154394745827,0.9991630911827087
1676104290.7759728,363,1676104290,773265868,world,-0.41220593452453613,0.5218351483345032,0.1251634657382965,0.0040569487027823925,-0.004385340493172407,-0.039973482489585876,0.9991828799247742
1676104290.7760203,364,1676104290,773343776,world,-0.41223978996276855,0.5218851566314697,0.12514887750148773,0.004263245966285467,-0.0044256518594920635,-0.04046034812927246,0.9991622567176819
1676104290.7852666,365,1676104290,783070905,world,-0.4122106432914734,0.5218375325202942,0.12516151368618011,0.004064377397298813,-0.004455223213881254,-0.04002109542489052,0.9991806745529175
1676104290.785282,366,1676104290,783264108,world,-0.4122324287891388,0.521882951259613,0.12515118718147278,0.004184741992503405,-0.004475087858736515,-0.04044173285365105,0.9991631507873535
1676104290.793853,367,1676104290,793118478,world,-0.4122351408004761,0.5218858122825623,0.1251499056816101,0.004225526470690966,-0.004357438068836927,-0.04049347713589668,0.999161422252655
1676104290.7947721,368,1676104290,793308608,world,-0.4122346043586731,0.5218847990036011,0.12514632940292358,0.004302754066884518,-0.004364205989986658,-0.040489740669727325,0.9991612434387207
1676104290.7948315,369,1676104290,793385700,world,-0.4122371971607208,0.5218854546546936,0.1251494288444519,0.004208861850202084,-0.004358181729912758,-0.04054570198059082,0.9991593360900879
1676104290.8049364,370,1676104290,803115811,world,-0.4122328460216522,0.5218836665153503,0.12514935433864594,0.004123571794480085,-0.004421780817210674,-0.040421970188617706,0.9991644620895386
1676104290.8057585,371,1676104290,803671311,world,-0.4122364819049835,0.5218759775161743,0.12514686584472656,0.004209959879517555,-0.00448443042114377,-0.04041169956326485,0.9991642236709595
1676104290.8146195,372,1676104290,813123236,world,-0.4122341573238373,0.5218852162361145,0.12515027821063995,0.004121168050915003,-0.004392995033413172,-0.04043255373835564,0.9991641640663147
1676104290.8146353,373,1676104290,813308384,world,-0.4122091829776764,0.5218392014503479,0.12516160309314728,0.004099051468074322,-0.004466756712645292,-0.04006683826446533,0.9991786479949951
1676104290.823964,374,1676104290,823386624,world,-0.41224077343940735,0.5218849778175354,0.12514467537403107,0.004293716046959162,-0.004442081321030855,-0.04056423902511597,0.9991579055786133
1676104290.8248587,375,1676104290,823564958,world,-0.4122367799282074,0.5218746662139893,0.12515340745449066,0.0042647141963243484,-0.004330341704189777,-0.04035359248518944,0.9991670250892639
1676104290.8248713,376,1676104290,823643550,world,-0.4122128486633301,0.5218479037284851,0.12516330182552338,0.004040887579321861,-0.004400529433041811,-0.040140315890312195,0.9991762638092041
1676104290.8343356,377,1676104290,833189161,world,-0.4122246503829956,0.5218714475631714,0.12515053153038025,0.004114937037229538,-0.004410900641232729,-0.040336042642593384,0.9991679787635803
1676104290.8344824,378,1676104290,833272790,world,-0.41223645210266113,0.5218812823295593,0.12514886260032654,0.004361074883490801,-0.004474340006709099,-0.0404515415430069,0.999161958694458
1676104290.8442767,379,1676104290,843110753,world,-0.4122292995452881,0.5218837261199951,0.1251475065946579,0.004281276371330023,-0.004376362077891827,-0.04043958708643913,0.9991632699966431
1676104290.845508,380,1676104290,843314623,world,-0.41223904490470886,0.5218892693519592,0.1251484602689743,0.004256984684616327,-0.004319488070905209,-0.04061130806803703,0.9991567134857178
1676104290.855056,381,1676104290,853209882,world,-0.41224226355552673,0.5218972563743591,0.12515084445476532,0.0042904955334961414,-0.004370075650513172,-0.040642090141773224,0.9991550445556641
1676104290.8551013,383,1676104290,853391530,world,-0.41223615407943726,0.5218876004219055,0.12514488399028778,0.0043039810843765736,-0.004459829069674015,-0.040524303913116455,0.9991593956947327
1676104290.865255,384,1676104290,863247715,world,-0.4122394025325775,0.5218896865844727,0.1251496821641922,0.004272994585335255,-0.004375060088932514,-0.04053916782140732,0.9991592764854431
1676104290.8656218,385,1676104290,863443344,world,-0.4122292399406433,0.5218780040740967,0.1251455694437027,0.00409735506400466,-0.004442586563527584,-0.040407802909612656,0.9991650581359863
1676104290.8656528,386,1676104290,863531289,world,-0.41222864389419556,0.5218696594238281,0.12515544891357422,0.004279023502022028,-0.004482720512896776,-0.04031481593847275,0.999167799949646
1676104290.875428,387,1676104290,873096955,world,-0.41222497820854187,0.5218756794929504,0.1251501441001892,0.004138548392802477,-0.004398384131491184,-0.040377482771873474,0.9991663098335266
1676104290.8756719,388,1676104290,873266992,world,-0.4122233986854553,0.5218737721443176,0.12514743208885193,0.004145330749452114,-0.004505850840359926,-0.04027806222438812,0.9991698265075684
1676104290.8848846,389,1676104290,883098121,world,-0.41222307085990906,0.5218687057495117,0.1251474916934967,0.004183077719062567,-0.004452752880752087,-0.0403498150408268,0.9991669058799744
1676104290.8849008,390,1676104290,883294917,world,-0.4122251570224762,0.5218626856803894,0.12514713406562805,0.004163307603448629,-0.004402658902108669,-0.04027824103832245,0.999170184135437
1676104290.8938944,391,1676104290,893083268,world,-0.41223156452178955,0.5218781232833862,0.12514907121658325,0.004186057019978762,-0.0044846124947071075,-0.040390633046627045,0.9991651773452759
1676104290.8940625,392,1676104290,893238935,world,-0.412229984998703,0.5218800902366638,0.12515905499458313,0.004199319519102573,-0.00450277840718627,-0.040435053408145905,0.9991632103919983
1676104290.8941286,393,1676104290,893308731,world,-0.41222265362739563,0.5218753814697266,0.12514728307724,0.004092531744390726,-0.004447304178029299,-0.04039286449551582,0.9991656541824341
1676104290.904555,394,1676104290,903631583,world,-0.4122295379638672,0.5218759179115295,0.12514571845531464,0.004156467039138079,-0.0043992833234369755,-0.040456488728523254,0.999163031578064
1676104290.9051876,395,1676104290,903872638,world,-0.4122299551963806,0.5218789577484131,0.1251409500837326,0.004191278014332056,-0.0044260709546506405,-0.040451474487781525,0.9991629719734192
1676104290.9151187,396,1676104290,913198378,world,-0.41222691535949707,0.5218697786331177,0.12513881921768188,0.0042415098287165165,-0.004470377694815397,-0.040345944464206696,0.9991667866706848
1676104290.9151309,397,1676104290,913381193,world,-0.41223132610321045,0.5218740105628967,0.12515056133270264,0.004160277079790831,-0.004388268571346998,-0.040369752794504166,0.9991664886474609
1676104290.9258554,398,1676104290,923107655,world,-0.4122328460216522,0.5218818187713623,0.12514859437942505,0.004166857805103064,-0.004412272945046425,-0.04045668616890907,0.9991629123687744
1676104290.9258673,399,1676104290,923352526,world,-0.41224125027656555,0.5218947529792786,0.12514373660087585,0.004234796855598688,-0.004380474332720041,-0.0406632237136364,0.9991543889045715
1676104290.9259307,400,1676104290,923587581,world,-0.4122313857078552,0.5218730568885803,0.12514637410640717,0.004161731339991093,-0.0043494305573403835,-0.04044489189982414,0.9991636872291565
1676104290.9347978,401,1676104290,933201896,world,-0.41222599148750305,0.5218769907951355,0.1251431107521057,0.004102661274373531,-0.004493274260312319,-0.0403386726975441,0.9991675615310669
1676104290.9348297,403,1676104290,933372784,world,-0.4122403860092163,0.5218794345855713,0.12515029311180115,0.004098887555301189,-0.0043556964956223965,-0.04044027626514435,0.9991640448570251
1676104290.9443119,404,1676104290,943145339,world,-0.41222667694091797,0.5218749046325684,0.12514810264110565,0.00418147724121809,-0.004515735432505608,-0.04033716768026352,0.9991672039031982
1676104290.9445443,405,1676104290,943350432,world,-0.41223421692848206,0.5218796133995056,0.1251509189605713,0.0042420183308422565,-0.0043268208391964436,-0.040434062480926514,0.9991638660430908
1676104290.9649155,406,1676104290,963098357,world,-0.41221582889556885,0.5218638777732849,0.12514369189739227,0.004181192722171545,-0.004500991199165583,-0.040267154574394226,0.9991701245307922
1676104290.9649434,407,1676104290,963296116,world,-0.41224217414855957,0.5219060182571411,0.12515126168727875,0.004320716019719839,-0.004545287694782019,-0.040641408413648605,0.9991541504859924
1676104290.9649584,409,1676104290,963450135,world,-0.4122284948825836,0.5218735337257385,0.1251559555530548,0.0041274079121649265,-0.004419094417244196,-0.04028558358550072,0.9991699457168579
1676104290.9751046,410,1676104290,973150838,world,-0.41223248839378357,0.5218741297721863,0.12515005469322205,0.00419083284214139,-0.004361421801149845,-0.04037874564528465,0.9991661310195923
1676104290.975121,411,1676104290,973362467,world,-0.41222551465034485,0.5218678712844849,0.1251422017812729,0.00424027256667614,-0.004475623834878206,-0.040347326546907425,0.99916672706604
1676104290.9751897,412,1676104290,973456504,world,-0.41219595074653625,0.5218381285667419,0.125161811709404,0.004037154838442802,-0.004538747947663069,-0.04002825543284416,0.9991801381111145
1676104290.9846377,413,1676104290,983201726,world,-0.4122343957424164,0.521879255771637,0.1251489669084549,0.004228214267641306,-0.0044874027371406555,-0.040480080991983414,0.9991613626480103
1676104290.9847808,414,1676104290,983294800,world,-0.41222941875457764,0.5218666195869446,0.12514790892601013,0.004177388735115528,-0.004517816938459873,-0.04032416641712189,0.9991677403450012
1676104290.9937925,415,1676104290,993090318,world,-0.41223347187042236,0.5218741297721863,0.12515464425086975,0.004188275430351496,-0.004459151066839695,-0.040372658520936966,0.9991660118103027
1676104290.99423,416,1676104290,993270448,world,-0.41222241520881653,0.5218719244003296,0.12514977157115936,0.004095602314919233,-0.004449877887964249,-0.04031393676996231,0.9991687536239624
1676104290.9942431,417,1676104290,993342818,world,-0.41222065687179565,0.5218716859817505,0.12514762580394745,0.0041307322680950165,-0.004408273380249739,-0.04029669612646103,0.9991694688796997
1676104291.0071154,418,1676104291,3115725,world,-0.4122163951396942,0.5218415856361389,0.12516163289546967,0.00403768103569746,-0.004296801518648863,-0.040075864642858505,0.9991793036460876
