Time,header.seq,header.stamp.secs,header.stamp.nsecs,header.frame_id,pose.position.x,pose.position.y,pose.position.z,pose.orientation.x,pose.orientation.y,pose.orientation.z,pose.orientation.w
1676104290.0418189,1971,1676104289,583271830,world,-0.3601813018321991,-0.6238942742347717,0.1392369568347931,-0.008245812729001045,0.012221826240420341,0.019082196056842804,-0.9997093081474304
1676104290.0418336,1972,1676104289,593008015,world,-0.36018115282058716,-0.6239026784896851,0.13924504816532135,-0.008141139522194862,0.012291871011257172,0.01898985728621483,-0.9997109770774841
1676104290.042043,1973,1676104289,593238478,world,-0.36018383502960205,-0.6238939762115479,0.13924139738082886,-0.008252614177763462,0.01223707664757967,0.019043749198317528,-0.9997097849845886
1676104290.0420575,1974,1676104289,593308144,world,-0.3601803779602051,-0.623891294002533,0.139238178730011,-0.008254818618297577,0.012316305190324783,0.019011419266462326,-0.9997093677520752
1676104290.0422056,1975,1676104289,603050403,world,-0.36018621921539307,-0.6239097714424133,0.1392330378293991,-0.00825269240885973,0.012317209504544735,0.01899535395205021,-0.9997097253799438
1676104290.0423923,1976,1676104289,613081236,world,-0.3601818382740021,-0.6238954663276672,0.1392396241426468,-0.008450401946902275,0.012376178987324238,0.019031131640076637,-0.9997065663337708
1676104290.0424583,1977,1676104289,613199828,world,-0.36018362641334534,-0.6239004731178284,0.1392427235841751,-0.008151266723871231,0.012316648848354816,0.019042888656258583,-0.9997096061706543
1676104290.0424674,1978,1676104289,623545105,world,-0.36018311977386475,-0.6238948702812195,0.1392441689968109,-0.008242776617407799,0.012180661782622337,0.019119935110211372,-0.9997090101242065
1676104290.042602,1979,1676104289,643062808,world,-0.36018672585487366,-0.6239135265350342,0.1392475664615631,-0.008032308891415596,0.012384967878460884,0.01919723115861416,-0.9997067451477051
1676104290.0426679,1980,1676104289,643329678,world,-0.36018285155296326,-0.6239053010940552,0.13923951983451843,-0.008189938962459564,0.01230575330555439,0.018996158614754677,-0.9997103214263916
1676104290.0426764,1983,1676104289,643556567,world,-0.3601798713207245,-0.62389075756073,0.13923119008541107,-0.008234997279942036,0.012291020713746548,0.01910269446671009,-0.9997081160545349
1676104290.0428042,1984,1676104289,643738511,world,-0.36017948389053345,-0.623894214630127,0.13923190534114838,-0.008080840110778809,0.01226845197379589,0.019042817875742912,-0.9997107982635498
1676104290.0428143,1986,1676104289,643889752,world,-0.3601803779602051,-0.6238996982574463,0.13924415409564972,-0.008277706801891327,0.012306715361773968,0.019067194312810898,-0.9997082352638245
1676104290.0448635,1987,1676104289,653004474,world,-0.3601926565170288,-0.623903214931488,0.13924551010131836,-0.008090044371783733,0.012232321314513683,0.01914500817656517,-0.9997091889381409
1676104290.048033,1988,1676104289,653210696,world,-0.36018264293670654,-0.6239028573036194,0.13923296332359314,-0.008032459765672684,0.01221101637929678,0.019060783088207245,-0.9997115731239319
1676104290.0508244,1989,1676104289,663076158,world,-0.3601871132850647,-0.6238909959793091,0.1392398476600647,-0.00820279773324728,0.01216340996325016,0.019052889198064804,-0.9997109174728394
1676104290.0508833,1990,1676104289,663672399,world,-0.36018484830856323,-0.6238938570022583,0.13923297822475433,-0.008192474953830242,0.012248443439602852,0.019099773839116096,-0.9997090697288513
1676104290.0509205,1991,1676104289,673067528,world,-0.3601836562156677,-0.6238987445831299,0.13923795521259308,-0.008077713660895824,0.012179643847048283,0.01904560625553131,-0.9997118711471558
1676104290.0509582,1992,1676104289,673758472,world,-0.36018410325050354,-0.6238979697227478,0.1392284780740738,-0.008072404190897942,0.012277517467737198,0.019027292728424072,-0.9997110962867737
1676104290.0509882,1993,1676104289,673908361,world,-0.36018359661102295,-0.6239004135131836,0.13924142718315125,-0.008205651305615902,0.012329330667853355,0.01909228414297104,-0.9997081160545349
1676104290.0509992,1994,1676104289,683000953,world,-0.3601790964603424,-0.6238924264907837,0.13923469185829163,-0.008397283032536507,0.012164904735982418,0.019099365919828415,-0.999708354473114
1676104290.0630076,1995,1676104289,683107861,world,-0.36018645763397217,-0.6238946318626404,0.13924680650234222,-0.008428574539721012,0.01218047458678484,0.019141554832458496,-0.999707043170929
1676104290.0692205,1996,1676104289,693212805,world,-0.3601803183555603,-0.6238940954208374,0.13924507796764374,-0.008336683735251427,0.012193847447633743,0.01913219317793846,-0.9997079372406006
1676104290.0700738,1997,1676104289,693402508,world,-0.3601885139942169,-0.6238974332809448,0.13923823833465576,-0.008336679078638554,0.012227511033415794,0.019090786576271057,-0.9997082352638245
1676104290.070089,1998,1676104289,693473286,world,-0.3601815700531006,-0.6239036321640015,0.1392386555671692,-0.008223812095820904,0.012300942093133926,0.019027043133974075,-0.9997095465660095
1676104290.0701022,1999,1676104289,703032508,world,-0.36018648743629456,-0.6238957047462463,0.1392321139574051,-0.008248993195593357,0.012188144959509373,0.019162535667419434,-0.9997080564498901
1676104290.070132,2000,1676104289,703282656,world,-0.3601762652397156,-0.6238980889320374,0.13924330472946167,-0.008204793557524681,0.012264088727533817,0.019039751961827278,-0.9997098445892334
1676104290.0701492,2001,1676104289,713017674,world,-0.3601900041103363,-0.6239060759544373,0.1392446607351303,-0.008086270652711391,0.012412263080477715,0.019227473065257072,-0.99970543384552
1676104290.0701878,2002,1676104289,713248433,world,-0.3601813316345215,-0.6239039897918701,0.13923580944538116,-0.007965009659528732,0.012326384894549847,0.019015271216630936,-0.9997115731239319
1676104290.070198,2003,1676104289,723020488,world,-0.36017906665802,-0.6238933801651001,0.13924047350883484,-0.008371012285351753,0.012238405644893646,0.01906421035528183,-0.9997082948684692
1676104290.0702324,2004,1676104289,723247155,world,-0.3601822555065155,-0.6238927841186523,0.13924917578697205,-0.008404106833040714,0.012233412824571133,0.019125979393720627,-0.9997069835662842
1676104290.0702627,2005,1676104289,733009598,world,-0.3601912558078766,-0.6238934993743896,0.13924430310726166,-0.00829407013952732,0.012242143042385578,0.01906544528901577,-0.9997089505195618
1676104290.0702834,2006,1676104289,733269969,world,-0.3601822853088379,-0.6238951086997986,0.13924060761928558,-0.008167434483766556,0.01239100657403469,0.019054992124438286,-0.999708354473114
1676104290.0702937,2007,1676104289,733339987,world,-0.3601841926574707,-0.6238961815834045,0.1392398178577423,-0.008174131624400616,0.012207375839352608,0.019062325358390808,-0.9997103810310364
1676104290.0703418,2008,1676104289,743036246,world,-0.360192209482193,-0.623908281326294,0.13925497233867645,-0.008219625800848007,0.012325446121394634,0.019223930314183235,-0.9997054934501648
1676104290.0703554,2010,1676104289,743237301,world,-0.3601815402507782,-0.6238992214202881,0.13923777639865875,-0.008154024370014668,0.012251683510839939,0.019074123352766037,-0.9997098445892334
1676104290.0704203,2011,1676104289,753008579,world,-0.3601909279823303,-0.6239010691642761,0.13925600051879883,-0.008228983730077744,0.012249402701854706,0.019313016906380653,-0.9997046589851379
1676104290.0704424,2012,1676104289,753232893,world,-0.36018913984298706,-0.623896598815918,0.139244943857193,-0.008259915746748447,0.01223242562264204,0.01904768869280815,-0.9997096657752991
1676104290.0704708,2013,1676104289,762997911,world,-0.3601836860179901,-0.6238966584205627,0.13923762738704681,-0.00830681063234806,0.012317512184381485,0.019058234989643097,-0.9997079968452454
1676104290.0704985,2014,1676104289,763210596,world,-0.36018410325050354,-0.623895525932312,0.13923992216587067,-0.00828560907393694,0.012253914959728718,0.019051048904657364,-0.9997091293334961
1676104290.0705228,2015,1676104289,773087540,world,-0.3601783812046051,-0.6239003539085388,0.13924771547317505,-0.00840089377015829,0.012230398133397102,0.01927856169641018,-0.999704122543335
1676104290.070542,2017,1676104289,773296466,world,-0.36018452048301697,-0.6238924264907837,0.13923753798007965,-0.008478160947561264,0.012203152291476727,0.01917334459722042,-0.9997058510780334
1676104290.0705523,2018,1676104289,783001095,world,-0.36018091440200806,-0.6239004731178284,0.13923175632953644,-0.008246486075222492,0.012265306897461414,0.019013138487935066,-0.9997100234031677
1676104290.070567,2019,1676104289,783217706,world,-0.3601915240287781,-0.6238980889320374,0.13924479484558105,-0.008308013901114464,0.012239279225468636,0.01906643994152546,-0.9997087717056274
1676104290.070577,2020,1676104289,803045631,world,-0.3601810038089752,-0.6238927841186523,0.1392480880022049,-0.0084708696231246,0.012303631752729416,0.01903688535094261,-0.9997072219848633
1676104290.0705938,2021,1676104289,803624835,world,-0.36019086837768555,-0.623907744884491,0.1392439901828766,-0.008169705979526043,0.012315457686781883,0.019260279834270477,-0.9997053742408752
1676104290.0706253,2024,1676104289,803832649,world,-0.3601840138435364,-0.6238929629325867,0.13924267888069153,-0.00833297148346901,0.012271791696548462,0.01906484179198742,-0.9997082352638245
1676104290.0706983,2025,1676104289,812995297,world,-0.36019018292427063,-0.6239064335823059,0.13924476504325867,-0.008141732774674892,0.01239869836717844,0.01916235312819481,-0.9997063875198364
1676104290.0707097,2026,1676104289,813225852,world,-0.36018529534339905,-0.6238998174667358,0.13924235105514526,-0.008054994978010654,0.012327517382800579,0.01907235011458397,-0.9997096657752991
1676104290.0707512,2027,1676104289,813294038,world,-0.3601807653903961,-0.6238980293273926,0.13923379778862,-0.008324118331074715,0.012261936441063881,0.019117390736937523,-0.9997074007987976
1676104290.070782,2028,1676104289,823005241,world,-0.36017751693725586,-0.6239022016525269,0.1392361968755722,-0.008165872655808926,0.012270072475075722,0.019012417644262314,-0.9997106790542603
1676104290.0708113,2029,1676104289,823214296,world,-0.36018943786621094,-0.6239064335823059,0.1392413228750229,-0.008288034237921238,0.012376701459288597,0.019264480099081993,-0.9997035264968872
1676104290.070829,2030,1676104289,833011722,world,-0.36018043756484985,-0.6239055395126343,0.13923785090446472,-0.00814304780215025,0.01232148427516222,0.01899692788720131,-0.9997104406356812
1676104290.0727384,2031,1676104289,833351333,world,-0.36019307374954224,-0.6239110827445984,0.13924619555473328,-0.008156217634677887,0.012387752532958984,0.019110627472400665,-0.9997074007987976
1676104290.0727563,2032,1676104289,843676702,world,-0.36018308997154236,-0.6238964200019836,0.13923504948616028,-0.008244208991527557,0.012337496504187584,0.019041938707232475,-0.9997085928916931
1676104290.0727654,2033,1676104289,843810758,world,-0.3601832091808319,-0.6239043474197388,0.1392449289560318,-0.008019804023206234,0.012393293902277946,0.019182203337550163,-0.9997071027755737
1676104290.0742474,2034,1676104289,853009405,world,-0.3601820468902588,-0.6239001750946045,0.13923689723014832,-0.008200036361813545,0.012259108014404774,0.019089654088020325,-0.9997090101242065
1676104290.0742676,2035,1676104289,853247072,world,-0.3601844906806946,-0.6238877177238464,0.13923701643943787,-0.00821351446211338,0.012234926223754883,0.019146189093589783,-0.9997081756591797
1676104290.0742855,2036,1676104289,853312109,world,-0.36018577218055725,-0.6239011883735657,0.13923443853855133,-0.008298052474856377,0.012281247414648533,0.019100571051239967,-0.9997076988220215
1676104290.074318,2037,1676104289,863232775,world,-0.36018139123916626,-0.6238895058631897,0.13924697041511536,-0.008475882932543755,0.012309499084949493,0.019070247188210487,-0.9997064471244812
1676104290.0743291,2038,1676104289,863345368,world,-0.36018040776252747,-0.6239001154899597,0.13924001157283783,-0.008194180205464363,0.012189723551273346,0.01908782683312893,-0.999709963798523
1676104290.074341,2039,1676104289,873067145,world,-0.36018532514572144,-0.6238905787467957,0.13924181461334229,-0.008357211016118526,0.012207691557705402,0.019086875021457672,-0.9997084140777588
1676104290.0743544,2040,1676104289,873302034,world,-0.36018532514572144,-0.6238995790481567,0.13923758268356323,-0.008161748759448528,0.0123002203181386,0.01902875304222107,-0.9997100234031677
1676104290.079016,2041,1676104289,873374960,world,-0.3601819574832916,-0.6238974928855896,0.13923747837543488,-0.008173098787665367,0.012278344482183456,0.019012700766324997,-0.9997105002403259
1676104290.0790422,2042,1676104289,883014237,world,-0.3601840138435364,-0.623889148235321,0.13924944400787354,-0.008149946108460426,0.012228255160152912,0.01908574439585209,-0.9997099041938782
1676104290.0790613,2043,1676104289,883260848,world,-0.3601786494255066,-0.6239022016525269,0.13923701643943787,-0.008119294419884682,0.012257260270416737,0.019035816192626953,-0.999710738658905
1676104290.0816495,2044,1676104289,893000477,world,-0.36017292737960815,-0.6238979697227478,0.1392388939857483,-0.008413923904299736,0.012245981954038143,0.019114987924695015,-0.9997069239616394
1676104290.0835629,2045,1676104289,893253458,world,-0.3601774573326111,-0.6238949298858643,0.13923901319503784,-0.008150645531713963,0.01230035163462162,0.018999652937054634,-0.9997106194496155
1676104290.0837622,2046,1676104289,893330218,world,-0.3601854741573334,-0.623904824256897,0.13924607634544373,-0.008254527114331722,0.012344869785010815,0.019196294248104095,-0.99970543384552
1676104290.0838296,2047,1676104289,903039958,world,-0.3601773977279663,-0.6238981485366821,0.13923779129981995,-0.008356548845767975,0.012196743860840797,0.01912953518331051,-0.9997077584266663
1676104290.0839481,2048,1676104289,903167921,world,-0.3601817190647125,-0.623892605304718,0.13924239575862885,-0.00831088237464428,0.012257849797606468,0.01904638111591339,-0.9997089505195618
1676104290.083956,2049,1676104289,913124198,world,-0.3601840138435364,-0.623898983001709,0.13924717903137207,-0.008233509957790375,0.012286548502743244,0.01923288218677044,-0.9997056722640991
1676104290.0840242,2051,1676104289,913316309,world,-0.3601856231689453,-0.6238946318626404,0.13923165202140808,-0.008214364759624004,0.012276941910386086,0.019110677763819695,-0.9997082352638245
1676104290.084214,2052,1676104289,933005456,world,-0.3601859509944916,-0.623894989490509,0.1392419934272766,-0.00836141500622034,0.01224009320139885,0.019043385982513428,-0.9997088313102722
1676104290.084257,2053,1676104289,933291123,world,-0.360188364982605,-0.6238927245140076,0.13924214243888855,-0.008144252933561802,0.012236562557518482,0.01905047707259655,-0.9997105002403259
1676104290.0842683,2055,1676104289,933423530,world,-0.3601829707622528,-0.6238952279090881,0.1392369568347931,-0.00819872971624136,0.012246419675648212,0.019082874059677124,-0.9997093081474304
1676104290.0842822,2056,1676104289,943025085,world,-0.36018818616867065,-0.6238943934440613,0.1392432451248169,-0.008086401969194412,0.012245062738656998,0.01903330534696579,-0.9997111558914185
1676104290.0843058,2057,1676104289,943656659,world,-0.3601846694946289,-0.6239004135131836,0.13924531638622284,-0.00835886225104332,0.01235363632440567,0.01918669603765011,-0.9997046589851379
1676104290.0843158,2058,1676104289,943798863,world,-0.36018821597099304,-0.6238992214202881,0.13924822211265564,-0.008374637924134731,0.012292240746319294,0.01914721168577671,-0.9997061491012573
1676104290.084335,2059,1676104289,953071251,world,-0.36017972230911255,-0.623898446559906,0.13924279808998108,-0.00826920848339796,0.012107443064451218,0.019082829356193542,-0.9997104406356812
1676104290.0843446,2060,1676104289,953319714,world,-0.36018067598342896,-0.6238970756530762,0.139244943857193,-0.008302601054310799,0.012204776518046856,0.01903453655540943,-0.9997099041938782
1676104290.0843587,2061,1676104289,963052602,world,-0.3601788580417633,-0.623898446559906,0.1392359435558319,-0.008058653213083744,0.012238659895956516,0.019070755690336227,-0.9997107982635498
1676104290.084367,2062,1676104289,963266510,world,-0.36018434166908264,-0.6239057183265686,0.1392490416765213,-0.008405247703194618,0.012300089001655579,0.019238270819187164,-0.9997039437294006
1676104290.0843747,2063,1676104289,973004583,world,-0.3601810932159424,-0.6238988041877747,0.13922899961471558,-0.008027413859963417,0.012324590235948563,0.01908566989004612,-0.9997097253799438
1676104290.084397,2064,1676104289,973237935,world,-0.360186368227005,-0.6238906979560852,0.13923780620098114,-0.00817505456507206,0.012261209078133106,0.019108252599835396,-0.999708890914917
1676104290.0844243,2065,1676104289,983062360,world,-0.3601856827735901,-0.6238967180252075,0.13923972845077515,-0.008045036345720291,0.01230637077242136,0.018986251205205917,-0.9997116923332214
1676104290.0844457,2066,1676104289,983293805,world,-0.36018455028533936,-0.6238923072814941,0.1392449587583542,-0.008323339745402336,0.012343079783022404,0.019046366214752197,-0.9997077584266663
1676104290.0844636,2067,1676104289,983363712,world,-0.3601817786693573,-0.6238962411880493,0.1392413228750229,-0.008197098970413208,0.01220904290676117,0.01911342144012451,-0.9997091889381409
1676104290.0844772,2068,1676104289,993013359,world,-0.3601878583431244,-0.6238896250724792,0.13925179839134216,-0.008270948193967342,0.012292205356061459,0.01903841458261013,-0.9997090101242065
1676104290.0844913,2069,1676104289,993182193,world,-0.36018332839012146,-0.6239058971405029,0.1392434686422348,-0.008241764269769192,0.01229165680706501,0.019238919019699097,-0.99970543384552
1676104290.084504,2070,1676104289,993371526,world,-0.36018311977386475,-0.6239012479782104,0.1392372101545334,-0.008329047821462154,0.012318113818764687,0.019067781046032906,-0.9997076988220215
1676104290.084512,2071,1676104290,4439655,world,-0.36018016934394836,-0.6238947510719299,0.13923686742782593,-0.008267190307378769,0.012325429357588291,0.019033534452319145,-0.9997087717056274
1676104290.0845206,2072,1676104290,5310488,world,-0.36018383502960205,-0.6238935589790344,0.13924254477024078,-0.008303727954626083,0.012238427065312862,0.018999135121703148,-0.9997101426124573
1676104290.084539,2073,1676104290,13009858,world,-0.3601784110069275,-0.6238973736763,0.13923290371894836,-0.00829556304961443,0.012234160676598549,0.019084138795733452,-0.9997086524963379
1676104290.0845475,2074,1676104290,13268951,world,-0.3601810932159424,-0.6238977909088135,0.13923445343971252,-0.008193553425371647,0.012142578139901161,0.01912396214902401,-0.9997098445892334
1676104290.0845647,2075,1676104290,13357377,world,-0.3601842224597931,-0.6238998174667358,0.13923490047454834,-0.008231014013290405,0.012306985445320606,0.0189937986433506,-0.999709963798523
1676104290.0845754,2076,1676104290,23032024,world,-0.3601880669593811,-0.6239032745361328,0.13924412429332733,-0.008151546120643616,0.012352054007351398,0.019217753782868385,-0.9997058510780334
1676104290.0845845,2077,1676104290,23253469,world,-0.3601788580417633,-0.6238969564437866,0.13923616707324982,-0.00815513264387846,0.012224538251757622,0.01904633827507496,-0.9997106194496155
1676104290.0846071,2078,1676104290,33113246,world,-0.3601865768432617,-0.6239100098609924,0.13924065232276917,-0.008162294514477253,0.01236952655017376,0.019180547446012497,-0.9997062087059021
1676104290.0846224,2079,1676104290,33250005,world,-0.3601844906806946,-0.6238963603973389,0.1392403095960617,-0.008166004903614521,0.012255143374204636,0.019098427146673203,-0.9997091889381409
1676104290.084632,2080,1676104290,43053005,world,-0.36018696427345276,-0.6239051818847656,0.13925118744373322,-0.0082054128870368,0.012341652065515518,0.019226472824811935,-0.9997053146362305
1676104290.0846496,2081,1676104290,43191523,world,-0.36019012331962585,-0.6238918304443359,0.13923877477645874,-0.008328661322593689,0.012301638722419739,0.019062748178839684,-0.9997079372406006
1676104290.0846574,2082,1676104290,53024078,world,-0.36018624901771545,-0.6239065527915955,0.13924820721149445,-0.008019935339689255,0.012211576104164124,0.01925814524292946,-0.9997078776359558
1676104290.0846713,2083,1676104290,53327634,world,-0.36018115282058716,-0.6238963007926941,0.13923297822475433,-0.008165033534169197,0.012263067066669464,0.019076596945524216,-0.9997094869613647
1676104290.0855036,2084,1676104290,53429615,world,-0.3601800799369812,-0.623897135257721,0.13923528790473938,-0.008159909397363663,0.012323105707764626,0.019080117344856262,-0.9997087717056274
1676104290.0858898,2085,1676104290,64467151,world,-0.3601824939250946,-0.6238999962806702,0.1392420530319214,-0.008398051373660564,0.012306101620197296,0.01909460872411728,-0.9997067451477051
1676104290.08652,2087,1676104290,64697837,world,-0.360188752412796,-0.6238986253738403,0.13924644887447357,-0.008350465446710587,0.012231607921421528,0.01906662993133068,-0.9997085928916931
1676104290.0871718,2088,1676104290,72998410,world,-0.3601842522621155,-0.6238914728164673,0.13924220204353333,-0.008340817876160145,0.012258877046406269,0.01908213086426258,-0.9997080564498901
1676104290.0872004,2089,1676104290,73257929,world,-0.36019137501716614,-0.6239055395126343,0.13925248384475708,-0.008039270527660847,0.012402409687638283,0.019202526658773422,-0.9997063875198364
1676104290.0872786,2090,1676104290,83195873,world,-0.3601807951927185,-0.6238973736763,0.1392328292131424,-0.008178554475307465,0.012271635234355927,0.019103454425930977,-0.9997087717056274
1676104290.0872946,2091,1676104290,83330428,world,-0.3601784110069275,-0.6238914728164673,0.13923177123069763,-0.008390873670578003,0.012274139560759068,0.019068362191319466,-0.9997076988220215
1676104290.0934975,2092,1676104290,93005316,world,-0.3601893186569214,-0.6238988041877747,0.13924428820610046,-0.008354091085493565,0.012194202281534672,0.019090231508016586,-0.9997085928916931
1676104290.0936716,2093,1676104290,93233465,world,-0.3601820170879364,-0.6238932013511658,0.13924622535705566,-0.00842149369418621,0.012262416072189808,0.019065259024500847,-0.9997075796127319
1676104290.1045232,2094,1676104290,103542631,world,-0.3601868748664856,-0.6239014863967896,0.13925163447856903,-0.008176716975867748,0.012297369539737701,0.019206741824746132,-0.9997065663337708
1676104290.1045692,2096,1676104290,103726575,world,-0.36018285155296326,-0.6239047050476074,0.13924312591552734,-0.008041833527386189,0.012334576807916164,0.019183754920959473,-0.9997075796127319
1676104290.1138847,2097,1676104290,113046704,world,-0.3601841628551483,-0.623894989490509,0.13923151791095734,-0.008052595891058445,0.012301035225391388,0.019097398966550827,-0.9997095465660095
1676104290.1139333,2098,1676104290,113170519,world,-0.36018404364585876,-0.6238924860954285,0.13924060761928558,-0.008063598535954952,0.012258358299732208,0.019037213176488876,-0.9997110962867737
1676104290.124158,2099,1676104290,123012444,world,-0.360179603099823,-0.6238928437232971,0.1392342448234558,-0.008043380454182625,0.012279042042791843,0.019052604213356972,-0.999710738658905
1676104290.124171,2101,1676104290,123232889,world,-0.3601943850517273,-0.6239075660705566,0.13924378156661987,-0.008412851952016354,0.012214482761919498,0.019363194704055786,-0.9997025728225708
1676104290.1336029,2102,1676104290,132985684,world,-0.36018306016921997,-0.6238934397697449,0.13923664391040802,-0.008154300041496754,0.012272551655769348,0.01902514323592186,-0.9997105002403259
1676104290.1341956,2103,1676104290,133216573,world,-0.3601853549480438,-0.623893678188324,0.13923056423664093,-0.008234269917011261,0.012198968790471554,0.019071904942393303,-0.9997097849845886
1676104290.1440363,2104,1676104290,143045387,world,-0.36017757654190063,-0.6239041686058044,0.13923844695091248,-0.008344754576683044,0.012297890149056911,0.019055018201470375,-0.9997080564498901
1676104290.1535854,2105,1676104290,153025702,world,-0.36018213629722595,-0.6239089965820312,0.13923697173595428,-0.00825327169150114,0.012342621572315693,0.018989723175764084,-0.99970942735672
1676104290.1540992,2106,1676104290,153300942,world,-0.3601873815059662,-0.6238919496536255,0.13923658430576324,-0.008244642987847328,0.012223640456795692,0.019095759838819504,-0.9997090101242065
1676104290.154111,2108,1676104290,153472313,world,-0.3601827919483185,-0.6238977909088135,0.13924472033977509,-0.008352059870958328,0.012245592661201954,0.019094284623861313,-0.9997078776359558
1676104290.1638975,2109,1676104290,163029238,world,-0.36018407344818115,-0.6238966584205627,0.13924464583396912,-0.008175669237971306,0.012210543267428875,0.019117146730422974,-0.9997093677520752
1676104290.1651297,2110,1676104290,163276757,world,-0.3601815402507782,-0.6238988637924194,0.13923412561416626,-0.008193355053663254,0.012341216206550598,0.019054442644119263,-0.9997087121009827
1676104290.1654053,2111,1676104290,163382942,world,-0.36018773913383484,-0.6238927841186523,0.13923850655555725,-0.008469333872199059,0.012202621437609196,0.019117534160614014,-0.9997069239616394
1676104290.1738439,2112,1676104290,172989404,world,-0.36018308997154236,-0.6239040493965149,0.13924415409564972,-0.00801005121320486,0.012243092991411686,0.019111359491944313,-0.9997103214263916
1676104290.175509,2113,1676104290,173233589,world,-0.3601902425289154,-0.6239049434661865,0.13924817740917206,-0.008049741387367249,0.012334342114627361,0.0192217156291008,-0.9997068643569946
1676104290.1855497,2114,1676104290,183072478,world,-0.3601852357387543,-0.6238908171653748,0.13924258947372437,-0.008175468072295189,0.012295771390199661,0.01913435384631157,-0.9997079372406006
1676104290.185715,2115,1676104290,183221663,world,-0.3601839244365692,-0.6239078640937805,0.1392381638288498,-0.008282944560050964,0.012288182973861694,0.019268907606601715,-0.9997045993804932
1676104290.1953,2116,1676104290,193067829,world,-0.3601788878440857,-0.6238957643508911,0.13923589885234833,-0.008245953358709812,0.012213120236992836,0.01901826448738575,-0.9997105598449707
1676104290.1953132,2117,1676104290,193290588,world,-0.36018648743629456,-0.6239050030708313,0.13925334811210632,-0.00816147867590189,0.012362554669380188,0.019156893715262413,-0.9997068047523499
1676104290.2043006,2118,1676104290,203002921,world,-0.36018580198287964,-0.6238964796066284,0.13924115896224976,-0.008231939747929573,0.012227826751768589,0.019038699567317963,-0.9997101426124573
1676104290.2044625,2119,1676104290,203508847,world,-0.36018049716949463,-0.6238909959793091,0.13924157619476318,-0.008209384977817535,0.01233691070228815,0.01906566321849823,-0.9997084736824036
1676104290.2138593,2120,1676104290,213140161,world,-0.36018407344818115,-0.6238970160484314,0.13924354314804077,-0.008274412713944912,0.012207410298287868,0.019084671512246132,-0.9997091293334961
1676104290.2236605,2121,1676104290,223042123,world,-0.36018839478492737,-0.6239073276519775,0.13923850655555725,-0.008110646158456802,0.012404890730977058,0.01922447793185711,-0.9997053742408752
1676104290.22539,2122,1676104290,223740290,world,-0.3601803183555603,-0.6238805055618286,0.1392454355955124,-0.008336956612765789,0.012236838229000568,0.019060349091887474,-0.9997087717056274
1676104290.2254355,2125,1676104290,224071346,world,-0.36017635464668274,-0.6238901019096375,0.13924339413642883,-0.008233669213950634,0.01219580415636301,0.019070543348789215,-0.9997099041938782
1676104290.2336586,2126,1676104290,233019660,world,-0.3601926267147064,-0.6239047646522522,0.13925053179264069,-0.008062084205448627,0.012291728518903255,0.01921175606548786,-0.9997074007987976
1676104290.2340646,2127,1676104290,233292141,world,-0.36018550395965576,-0.6238927841186523,0.1392366886138916,-0.008306624367833138,0.012228524312376976,0.019140932708978653,-0.9997075200080872
1676104290.2340784,2128,1676104290,233447178,world,-0.36019039154052734,-0.6239020824432373,0.1392396241426468,-0.008226806297898293,0.012282362207770348,0.01900271140038967,-0.999710202217102
1676104290.243732,2129,1676104290,243031493,world,-0.36018887162208557,-0.6239087581634521,0.13924114406108856,-0.008080381900072098,0.012311773374676704,0.019220653921365738,-0.9997068643569946
1676104290.2444167,2130,1676104290,243373585,world,-0.3601857125759125,-0.6239010095596313,0.13923625648021698,-0.008240662515163422,0.012161361053586006,0.01910478062927723,-0.9997096061706543
1676104290.25394,2131,1676104290,253258344,world,-0.3601767420768738,-0.6238996386528015,0.13923242688179016,-0.008201413787901402,0.012318264693021774,0.018978381529450417,-0.9997103810310364
1676104290.254454,2132,1676104290,253501547,world,-0.36018872261047363,-0.6238923668861389,0.1392437219619751,-0.00817031692713499,0.012209080159664154,0.019096670672297478,-0.9997097253799438
1676104290.2642899,2133,1676104290,263008732,world,-0.3601808547973633,-0.6239010691642761,0.13923640549182892,-0.008195562288165092,0.012295938096940517,0.0191140528768301,-0.9997081756591797
1676104290.2643058,2134,1676104290,263131621,world,-0.36018869280815125,-0.6239071488380432,0.13924524188041687,-0.008311220444738865,0.01228481624275446,0.019279515370726585,-0.999704122543335
1676104290.273605,2135,1676104290,273013120,world,-0.36017754673957825,-0.623899519443512,0.13924281299114227,-0.008149965666234493,0.012138173915445805,0.01912595145404339,-0.9997102618217468
1676104290.274428,2136,1676104290,273276009,world,-0.36019137501716614,-0.6239116787910461,0.13924919068813324,-0.008005688898265362,0.012457084842026234,0.01908879540860653,-0.9997081756591797
1676104290.2745752,2137,1676104290,273356639,world,-0.3601873815059662,-0.6238945722579956,0.13924790918827057,-0.00821442250162363,0.012231235392391682,0.019139688462018967,-0.9997082948684692
1676104290.2845263,2138,1676104290,283036398,world,-0.36017701029777527,-0.6238962411880493,0.1392369121313095,-0.008117237128317356,0.012322946451604366,0.019029181450605392,-0.9997100234031677
1676104290.284576,2139,1676104290,283285786,world,-0.36018696427345276,-0.6238915324211121,0.1392323076725006,-0.008162756450474262,0.012190001085400581,0.019087092950940132,-0.9997102618217468
1676104290.2936063,2140,1676104290,293015693,world,-0.36018869280815125,-0.6239126324653625,0.13924483954906464,-0.008292664773762226,0.012213516049087048,0.019270826131105423,-0.9997053742408752
1676104290.295166,2141,1676104290,293274582,world,-0.3601837754249573,-0.6238893270492554,0.13924643397331238,-0.008419889956712723,0.012308990582823753,0.01902913488447666,-0.9997077584266663
1676104290.2952302,2142,1676104290,293365767,world,-0.3601808547973633,-0.623893141746521,0.13924595713615417,-0.008386663161218166,0.012238039635121822,0.01901305466890335,-0.9997091889381409
1676104290.3041687,2143,1676104290,303075211,world,-0.36017704010009766,-0.623901903629303,0.1392333060503006,-0.008188102394342422,0.012319756671786308,0.019025808200240135,-0.9997096061706543
1676104290.305328,2144,1676104290,303739952,world,-0.3601820468902588,-0.6238955855369568,0.13924112915992737,-0.008257030509412289,0.012283040210604668,0.019059045240283012,-0.999708890914917
1676104290.3136666,2145,1676104290,313048581,world,-0.36018213629722595,-0.6239030361175537,0.1392412781715393,-0.00827326625585556,0.012289882637560368,0.0191496629267931,-0.9997068643569946
1676104290.3150737,2146,1676104290,313271840,world,-0.3601882755756378,-0.6238915324211121,0.13924714922904968,-0.008281332440674305,0.012236922048032284,0.019077343866229057,-0.9997088313102722
1676104290.315088,2147,1676104290,313351803,world,-0.36018022894859314,-0.6238968968391418,0.13924038410186768,-0.008225069381296635,0.012190211564302444,0.019165098667144775,-0.9997082352638245
1676104290.3241916,2148,1676104290,323038025,world,-0.36018818616867065,-0.6239026784896851,0.1392483413219452,-0.008283252827823162,0.012252428568899632,0.019228652119636536,-0.9997057318687439
1676104290.3242064,2149,1676104290,323189099,world,-0.36018553376197815,-0.6238966584205627,0.13924477994441986,-0.00819048285484314,0.012178233824670315,0.019176995381712914,-0.9997084140777588
1676104290.333439,2150,1676104290,332998302,world,-0.3601851165294647,-0.623894214630127,0.13923953473567963,-0.008328122086822987,0.012230541557073593,0.01911763846874237,-0.999707818031311
1676104290.333815,2151,1676104290,333228895,world,-0.36018359661102295,-0.6238996982574463,0.139231875538826,-0.008165636099874973,0.012189212255179882,0.0190935917198658,-0.9997100830078125
1676104290.3338456,2152,1676104290,333300506,world,-0.3601834177970886,-0.6239004135131836,0.13923609256744385,-0.008381030522286892,0.012352103367447853,0.01901506446301937,-0.999707818031311
1676104290.3439243,2153,1676104290,343310209,world,-0.3601866662502289,-0.6238893866539001,0.13924267888069153,-0.008290734142065048,0.012220428325235844,0.019069626927375793,-0.9997091293334961
1676104290.3447285,2154,1676104290,344032894,world,-0.36018773913383484,-0.6239122152328491,0.13924531638622284,-0.008005834184587002,0.012409179471433163,0.019203638657927513,-0.9997065663337708
1676104290.3536763,2155,1676104290,353050819,world,-0.3601771593093872,-0.6238964200019836,0.13924509286880493,-0.008250206708908081,0.01228784304112196,0.019026998430490494,-0.9997094869613647
1676104290.3544087,2156,1676104290,353278116,world,-0.36018121242523193,-0.6238922476768494,0.13924209773540497,-0.008347250521183014,0.012212170287966728,0.019091622903943062,-0.999708354473114
1676104290.3642104,2157,1676104290,363042134,world,-0.360187828540802,-0.6238928437232971,0.1392448991537094,-0.008455273695290089,0.012161536142230034,0.019194364547729492,-0.9997060894966125
1676104290.3642235,2158,1676104290,363289782,world,-0.3601840138435364,-0.6238969564437866,0.1392362117767334,-0.008095689117908478,0.012185716070234776,0.01904791034758091,-0.9997115135192871
1676104290.3643064,2159,1676104290,363373059,world,-0.3601791262626648,-0.623887836933136,0.13923902809619904,-0.008287995122373104,0.01222359761595726,0.019101053476333618,-0.9997084736824036
1676104290.3743126,2160,1676104290,373014911,world,-0.36018097400665283,-0.6238934397697449,0.139242023229599,-0.008331997320055962,0.012236276641488075,0.01901964843273163,-0.9997095465660095
1676104290.3743484,2161,1676104290,373266188,world,-0.3601805865764618,-0.6238877177238464,0.1392359435558319,-0.008420196361839771,0.012227269820868969,0.01909763365983963,-0.9997074604034424
1676104290.3836696,2162,1676104290,383020855,world,-0.3601836860179901,-0.6238988637924194,0.13923485577106476,-0.008092871867120266,0.012325093150138855,0.019083714112639427,-0.9997091889381409
1676104290.3852925,2163,1676104290,383267521,world,-0.36018234491348267,-0.6238924264907837,0.13923929631710052,-0.008166682906448841,0.012272297404706478,0.019001638516783714,-0.9997108578681946
1676104290.393561,2164,1676104290,392991484,world,-0.3601904809474945,-0.6239139437675476,0.13924096524715424,-0.008146790787577629,0.012340829707682133,0.019192490726709366,-0.999706506729126
1676104290.3946211,2165,1676104290,393247502,world,-0.3601873219013214,-0.6238955855369568,0.1392403393983841,-0.008182816207408905,0.012208803556859493,0.019127871841192245,-0.9997090697288513
1676104290.3946357,2166,1676104290,393329410,world,-0.3601813018321991,-0.6238952875137329,0.13924260437488556,-0.008181929588317871,0.0121711241081357,0.019105123355984688,-0.9997099041938782
1676104290.4054422,2167,1676104290,403024390,world,-0.360185444355011,-0.6238909363746643,0.13923346996307373,-0.008238584734499454,0.012291737832129002,0.018957629799842834,-0.9997107982635498
1676104290.4060445,2168,1676104290,403157242,world,-0.36018165946006775,-0.6238967180252075,0.13924500346183777,-0.008321684785187244,0.012330444529652596,0.01903100684285164,-0.9997082948684692
1676104290.4142437,2169,1676104290,413022556,world,-0.3601827621459961,-0.6238957643508911,0.13924041390419006,-0.008082733489573002,0.012246532365679741,0.01909952610731125,-0.9997099041938782
1676104290.4142756,2171,1676104290,413380686,world,-0.3601824939250946,-0.6238961815834045,0.13924026489257812,-0.008329908363521099,0.012163190171122551,0.019084669649600983,-0.9997092485427856
1676104290.4239287,2172,1676104290,423009667,world,-0.3601745069026947,-0.6238941550254822,0.1392419934272766,-0.008332316763699055,0.01230476051568985,0.01910615898668766,-0.9997071027755737
1676104290.4338636,2173,1676104290,433016407,world,-0.3601774275302887,-0.6239022612571716,0.13924401998519897,-0.00801707711070776,0.012234972789883614,0.019007358700037003,-0.999712347984314
1676104290.4345095,2174,1676104290,433298722,world,-0.3601890504360199,-0.6239081025123596,0.13924634456634521,-0.008231937885284424,0.012306064367294312,0.019268104806542397,-0.9997047185897827
1676104290.4345226,2175,1676104290,433395500,world,-0.36018428206443787,-0.6238991022109985,0.13923713564872742,-0.008247323334217072,0.012353132478892803,0.01900256611406803,-0.9997091889381409
1676104290.4443142,2176,1676104290,443200369,world,-0.3601815104484558,-0.6239060759544373,0.13924738764762878,-0.008280660025775433,0.012249179184436798,0.01929500512778759,-0.9997045397758484
1676104290.4443378,2178,1676104290,443447518,world,-0.3601832091808319,-0.6239073872566223,0.13924957811832428,-0.008321690373122692,0.012311547994613647,0.019226957112550735,-0.9997047185897827
1676104290.454384,2179,1676104290,453021702,world,-0.3601835370063782,-0.6238979697227478,0.13923905789852142,-0.008199579082429409,0.012296151369810104,0.019071830436587334,-0.999708890914917
1676104290.454424,2180,1676104290,453189313,world,-0.3601861298084259,-0.6238978505134583,0.13923461735248566,-0.008190413936972618,0.012204126454889774,0.018972842022776604,-0.9997120499610901
1676104290.463689,2181,1676104290,463173257,world,-0.3601856529712677,-0.6238996386528015,0.1392362117767334,-0.00822254829108715,0.012270686216652393,0.019043421372771263,-0.9997095465660095
1676104290.464184,2182,1676104290,463552683,world,-0.3601870834827423,-0.6239020824432373,0.13923819363117218,-0.008156667463481426,0.01220877468585968,0.019045503810048103,-0.9997107982635498
1676104290.4757223,2183,1676104290,473091090,world,-0.3601797819137573,-0.6238928437232971,0.13924053311347961,-0.008056220598518848,0.012217117473483086,0.019031845033168793,-0.999711811542511
1676104290.4767518,2184,1676104290,473326794,world,-0.36018139123916626,-0.6239046454429626,0.13925015926361084,-0.008248237892985344,0.01223925594240427,0.019168315455317497,-0.9997074007987976
1676104290.476767,2185,1676104290,473409923,world,-0.3601893484592438,-0.6238948702812195,0.13924343883991241,-0.00812891498208046,0.012265135534107685,0.019081728532910347,-0.9997096657752991
1676104290.4836621,2186,1676104290,483058367,world,-0.3601906895637512,-0.6238946914672852,0.13924410939216614,-0.008208283223211765,0.012241926975548267,0.019077230244874954,-0.99970942735672
1676104290.4844315,2187,1676104290,483427515,world,-0.36017900705337524,-0.6238951086997986,0.1392364501953125,-0.00813624169677496,0.012260762974619865,0.019075926393270493,-0.9997097849845886
1676104290.484448,2188,1676104290,483527552,world,-0.36018064618110657,-0.6238999366760254,0.13923396170139313,-0.008391416631639004,0.0122984042391181,0.019017202779650688,-0.999708354473114
1676104290.4939718,2189,1676104290,493071792,world,-0.3601857125759125,-0.6238963007926941,0.13923302292823792,-0.008154600858688354,0.012203041464090347,0.019078295677900314,-0.9997103214263916
1676104290.493985,2190,1676104290,493207033,world,-0.3601800799369812,-0.6238961815834045,0.13924254477024078,-0.008186310529708862,0.012261658906936646,0.01903178170323372,-0.9997102618217468
1676104290.5039084,2191,1676104290,503007903,world,-0.3601837456226349,-0.6238922476768494,0.13924214243888855,-0.008420533500611782,0.012236488983035088,0.019095832481980324,-0.9997074007987976
1676104290.5137281,2192,1676104290,513068310,world,-0.36018794775009155,-0.6239067912101746,0.13924160599708557,-0.008197750896215439,0.012248595245182514,0.019192209467291832,-0.9997071623802185
1676104290.516,2193,1676104290,513306532,world,-0.3601822257041931,-0.6238987445831299,0.13924193382263184,-0.008468805812299252,0.012201621197164059,0.01918322592973709,-0.9997056722640991
1676104290.5160706,2195,1676104290,513473643,world,-0.3601900041103363,-0.6238975524902344,0.1392483115196228,-0.00827004760503769,0.012264745309948921,0.019034959375858307,-0.9997094869613647
1676104290.5242093,2196,1676104290,523161420,world,-0.36019134521484375,-0.6238981485366821,0.13924098014831543,-0.00803858321160078,0.012180761434137821,0.019086088985204697,-0.9997113347053528
1676104290.5244968,2197,1676104290,523383124,world,-0.3601820468902588,-0.6239005327224731,0.13924410939216614,-0.008288776502013206,0.012322386726737022,0.019071312621235847,-0.999707818031311
1676104290.533609,2198,1676104290,532993642,world,-0.36018362641334534,-0.6239057183265686,0.13925015926361084,-0.008154995739459991,0.012327959761023521,0.019269045442342758,-0.9997051358222961
1676104290.5346596,2199,1676104290,533217049,world,-0.36018627882003784,-0.6239040493965149,0.13923883438110352,-0.008250027894973755,0.012222537770867348,0.019103001803159714,-0.9997088313102722
1676104290.543574,2200,1676104290,543022789,world,-0.3601835370063782,-0.6239035725593567,0.1392422616481781,-0.008204386569559574,0.012338986620306969,0.01917915791273117,-0.9997063279151917
1676104290.543974,2201,1676104290,543272160,world,-0.3601856231689453,-0.6238996982574463,0.13923683762550354,-0.008222108706831932,0.012264994904398918,0.01908704824745655,-0.9997088313102722
1676104290.5537112,2202,1676104290,553010048,world,-0.3601873815059662,-0.623895525932312,0.13924147188663483,-0.008351518772542477,0.012204242870211601,0.01907993294298649,-0.9997085928916931
1676104290.554123,2203,1676104290,553263141,world,-0.36018362641334534,-0.6238908767700195,0.13924020528793335,-0.00820422638207674,0.012249802239239216,0.019025452435016632,-0.9997103810310364
1676104290.5542943,2204,1676104290,553350418,world,-0.36018106341362,-0.6238940358161926,0.13924244046211243,-0.008261280134320259,0.012261946685612202,0.01904110610485077,-0.99970942735672
1676104290.564127,2205,1676104290,563011751,world,-0.36018961668014526,-0.6239036321640015,0.13924337923526764,-0.008076829835772514,0.012270385399460793,0.01928272657096386,-0.9997062087059021
1676104290.5641973,2206,1676104290,563248084,world,-0.36018380522727966,-0.6238920092582703,0.1392478495836258,-0.008107964880764484,0.012274457141757011,0.01908845640718937,-0.9997096657752991
1676104290.574109,2207,1676104290,572998065,world,-0.3601810038089752,-0.623897910118103,0.1392354965209961,-0.008372044190764427,0.012377011589705944,0.01902993582189083,-0.9997073411941528
1676104290.5742683,2208,1676104290,573244843,world,-0.36018750071525574,-0.6238947510719299,0.1392405927181244,-0.008270305581390858,0.012229670770466328,0.019143695011734962,-0.9997077584266663
1676104290.5837145,2209,1676104290,583035231,world,-0.3601866662502289,-0.6239091157913208,0.13924890756607056,-0.008273749612271786,0.01238138135522604,0.019216477870941162,-0.9997045397758484
1676104290.5842552,2210,1676104290,583267176,world,-0.36018913984298706,-0.6239035725593567,0.13923189043998718,-0.008107556961476803,0.01221601665019989,0.019034501165151596,-0.9997113347053528
1676104290.593576,2211,1676104290,592996120,world,-0.36017924547195435,-0.6238909959793091,0.13923799991607666,-0.008469019085168839,0.012270060367882252,0.019037317484617233,-0.9997076988220215
1676104290.5940769,2212,1676104290,593231601,world,-0.3601788282394409,-0.6238941550254822,0.13924068212509155,-0.008130498230457306,0.012260260991752148,0.01906679943203926,-0.999709963798523
1676104290.5946276,2214,1676104290,593386009,world,-0.36018505692481995,-0.6238976716995239,0.13924042880535126,-0.0083031440153718,0.012292951345443726,0.019079681485891342,-0.9997079968452454
1676104290.6036048,2215,1676104290,603025527,world,-0.3601813018321991,-0.6239101886749268,0.13924197852611542,-0.008123785257339478,0.01231863722205162,0.019163575023412704,-0.9997075200080872
1676104290.6245263,2216,1676104290,623009507,world,-0.3601858913898468,-0.6238945126533508,0.13924112915992737,-0.008154856972396374,0.012250537052750587,0.019087502732872963,-0.9997094869613647
1676104290.6245675,2217,1676104290,623231285,world,-0.36018800735473633,-0.6239091157913208,0.13924673199653625,-0.008146773092448711,0.012345565482974052,0.019212855026125908,-0.9997060894966125
1676104290.624848,2221,1676104290,623552433,world,-0.36017999053001404,-0.6239027976989746,0.13923422992229462,-0.007922399789094925,0.012311536818742752,0.01908300258219242,-0.9997107982635498
1676104290.633737,2222,1676104290,633070043,world,-0.3601765036582947,-0.6238963603973389,0.13923591375350952,-0.008201905526220798,0.012167885899543762,0.019115891307592392,-0.9997096657752991
1676104290.6345937,2223,1676104290,633328358,world,-0.3601841330528259,-0.6239010095596313,0.13923396170139313,-0.00818299688398838,0.012207485735416412,0.019114172086119652,-0.9997093677520752
1676104290.6442025,2224,1676104290,643025598,world,-0.3601857125759125,-0.6238968968391418,0.1392367035150528,-0.00832462776452303,0.012262873351573944,0.019119756296277046,-0.9997074007987976
1676104290.6442537,2225,1676104290,643251450,world,-0.3601776361465454,-0.6238983273506165,0.1392355114221573,-0.008299890905618668,0.012311513535678387,0.01905285194516182,-0.9997082352638245
1676104290.6537507,2226,1676104290,653018209,world,-0.3601848781108856,-0.623903214931488,0.13924725353717804,-0.008114299736917019,0.012268193066120148,0.019235601648688316,-0.9997068643569946
1676104290.6542912,2227,1676104290,653274227,world,-0.36017906665802,-0.6238997578620911,0.13923431932926178,-0.008347444236278534,0.012154588475823402,0.019231591373682022,-0.9997063279151917
1676104290.6654525,2228,1676104290,663036430,world,-0.36018890142440796,-0.6239083409309387,0.13925054669380188,-0.008140034973621368,0.012299520894885063,0.01916111633181572,-0.9997076392173767
1676104290.6654758,2229,1676104290,663269078,world,-0.3601861894130707,-0.6239016056060791,0.13923926651477814,-0.008323290385305882,0.012259992770850658,0.019096899777650833,-0.999707818031311
1676104290.665497,2230,1676104290,663362116,world,-0.3601830005645752,-0.6238936185836792,0.1392366737127304,-0.008202307857573032,0.012186435051262379,0.01906348019838333,-0.9997103810310364
1676104290.6734939,2231,1676104290,673004559,world,-0.3601777255535126,-0.6238945126533508,0.13924042880535126,-0.008249842561781406,0.012260962277650833,0.019061220809817314,-0.9997091293334961
1676104290.6736774,2232,1676104290,673238467,world,-0.3601810038089752,-0.6238946914672852,0.13923880457878113,-0.008180774748325348,0.01218174584209919,0.019075267016887665,-0.9997103810310364
1676104290.6848755,2233,1676104290,683038818,world,-0.3601839244365692,-0.6238926649093628,0.1392408311367035,-0.00823307503014803,0.012226036749780178,0.019063647836446762,-0.9997096061706543
1676104290.6848893,2234,1676104290,683176725,world,-0.3601834774017334,-0.6238945126533508,0.13923895359039307,-0.008282608352601528,0.01232650876045227,0.019079525023698807,-0.9997077584266663
1676104290.684981,2235,1676104290,683387596,world,-0.36018338799476624,-0.6238945722579956,0.13923925161361694,-0.008202376775443554,0.012240462936460972,0.01901302859187126,-0.9997106790542603
1676104290.6934543,2236,1676104290,693000558,world,-0.3601854741573334,-0.6239035725593567,0.13923925161361694,-0.008153260685503483,0.012246320024132729,0.01901349052786827,-0.9997109770774841
1676104290.6937656,2237,1676104290,693214892,world,-0.360185444355011,-0.623894989490509,0.13924196362495422,-0.008089925162494183,0.012309720739722252,0.01906963810324669,-0.9997096657752991
1676104290.7340262,2238,1676104290,733078019,world,-0.36018064618110657,-0.6238961815834045,0.1392347663640976,-0.00811106525361538,0.0122837508097291,0.019106239080429077,-0.9997091293334961
1676104290.7344928,2239,1676104290,733360500,world,-0.36018604040145874,-0.6238999366760254,0.13923999667167664,-0.008029949851334095,0.012211297638714314,0.019066806882619858,-0.9997114539146423
1676104290.7345068,2240,1676104290,733458130,world,-0.36017951369285583,-0.6238850951194763,0.1392383873462677,-0.008386838249862194,0.012300786562263966,0.019058506935834885,-0.9997075796127319
1676104290.7446513,2241,1676104290,743052166,world,-0.36018118262290955,-0.623893141746521,0.1392442137002945,-0.00822564959526062,0.012086057104170322,0.01916707307100296,-0.99970942735672
1676104290.745356,2242,1676104290,743385185,world,-0.3601846992969513,-0.6239025592803955,0.1392422467470169,-0.008118271827697754,0.012377100065350533,0.019222401082515717,-0.9997056722640991
1676104290.7454054,2243,1676104290,743534407,world,-0.36017414927482605,-0.6238889694213867,0.13923592865467072,-0.008289718069136143,0.012222887948155403,0.01904573291540146,-0.9997095465660095
1676104290.747221,2244,1676104290,745676574,world,-0.3601766526699066,-0.6238929033279419,0.1392328292131424,-0.00826014019548893,0.012322936207056046,0.01903594098985195,-0.9997088313102722
1676104290.7473,2250,1676104290,746439648,world,-0.36017918586730957,-0.6239062547683716,0.13924767076969147,-0.008190740831196308,0.012397517450153828,0.019252285361289978,-0.9997042417526245
1676104290.753868,2251,1676104290,753156314,world,-0.3601815402507782,-0.6238870024681091,0.13924618065357208,-0.008262417279183865,0.01227421872317791,0.019111525267362595,-0.9997078776359558
1676104290.755738,2252,1676104290,753431962,world,-0.3601882755756378,-0.6239081621170044,0.13924430310726166,-0.008064314723014832,0.012300985865294933,0.019226515665650368,-0.9997069835662842
1676104290.7645476,2253,1676104290,763016313,world,-0.36018213629722595,-0.6238918304443359,0.13923676311969757,-0.00835326872766018,0.012239806354045868,0.01908077672123909,-0.9997081160545349
1676104290.7646108,2254,1676104290,763642795,world,-0.36017653346061707,-0.6239086985588074,0.13923676311969757,-0.008270499296486378,0.012343527749180794,0.01925300434231758,-0.9997042417526245
1676104290.773548,2255,1676104290,772991757,world,-0.3601789176464081,-0.6238950490951538,0.139241561293602,-0.008207623846828938,0.012320805341005325,0.019053516909480095,-0.9997089505195618
1676104290.7761083,2256,1676104290,773235146,world,-0.36018046736717224,-0.6238902807235718,0.13924303650856018,-0.008450133726000786,0.012257430702447891,0.01907225511968136,-0.9997073411941528
1676104290.7761216,2257,1676104290,773318646,world,-0.3601865768432617,-0.6238902807235718,0.1392398625612259,-0.008362733758985996,0.012190554291009903,0.01910989359021187,-0.9997081160545349
1676104290.7848065,2258,1676104290,783005997,world,-0.3601817488670349,-0.6239101886749268,0.13925041258335114,-0.007989182136952877,0.012333040125668049,0.019179105758666992,-0.9997080564498901
1676104290.7848482,2259,1676104290,783232127,world,-0.36017921566963196,-0.6238915324211121,0.13923591375350952,-0.008280299603939056,0.0122383339330554,0.019089555367827415,-0.9997086524963379
1676104290.793803,2260,1676104290,793010274,world,-0.36018791794776917,-0.6239096522331238,0.13924434781074524,-0.008131342940032482,0.012413088232278824,0.019148843362927437,-0.999706506729126
1676104290.7943804,2261,1676104290,793280034,world,-0.3601803183555603,-0.6238964200019836,0.13923506438732147,-0.008179743774235249,0.012250521220266819,0.019027642905712128,-0.9997105002403259
1676104290.7944114,2262,1676104290,793360311,world,-0.3601856231689453,-0.623888373374939,0.13924889266490936,-0.008257968351244926,0.012224338948726654,0.019144300371408463,-0.9997079372406006
1676104290.8040087,2263,1676104290,803037940,world,-0.36018145084381104,-0.6238945722579956,0.1392395943403244,-0.008143304847180843,0.012320381589233875,0.01905733160674572,-0.9997093677520752
1676104290.8043215,2264,1676104290,803639792,world,-0.3601796329021454,-0.6238921284675598,0.1392354816198349,-0.008213724009692669,0.012266317382454872,0.019118040800094604,-0.9997082352638245
1676104290.8145618,2265,1676104290,813056347,world,-0.3601778447628021,-0.6238974928855896,0.13924166560173035,-0.008315479382872581,0.012209122069180012,0.019097190350294113,-0.9997085332870483
1676104290.8147151,2266,1676104290,813267218,world,-0.36018499732017517,-0.6239033937454224,0.139248788356781,-0.008383272215723991,0.012357121333479881,0.019263172522187233,-0.9997029900550842
1676104290.8239045,2267,1676104290,823318199,world,-0.3601835072040558,-0.6238930821418762,0.1392359882593155,-0.00834647286683321,0.01229016575962305,0.01911328360438347,-0.999707043170929
1676104290.824191,2268,1676104290,823539143,world,-0.36018645763397217,-0.6238973736763,0.13924165070056915,-0.008081645704805851,0.012300544418394566,0.019090432673692703,-0.9997094869613647
1676104290.824203,2269,1676104290,823617198,world,-0.36019426584243774,-0.6239139437675476,0.13923819363117218,-0.008178492076694965,0.012355435639619827,0.0191954355686903,-0.9997060298919678
1676104290.8334918,2270,1676104290,832997291,world,-0.36017686128616333,-0.6238936185836792,0.13924482464790344,-0.008163349702954292,0.012239933013916016,0.019071578979492188,-0.999709963798523
1676104290.8338351,2271,1676104290,833245809,world,-0.3601847290992737,-0.6239024996757507,0.13925161957740784,-0.008197477087378502,0.012269189581274986,0.019204583019018173,-0.9997067451477051
1676104290.844211,2272,1676104290,843031197,world,-0.3601834177970886,-0.6238941550254822,0.13923820853233337,-0.008389211259782314,0.012187456712126732,0.01906542479991913,-0.9997088313102722
1676104290.844289,2273,1676104290,843280605,world,-0.3601810038089752,-0.6238968372344971,0.1392463892698288,-0.008215567097067833,0.01230746228247881,0.01906142383813858,-0.9997088313102722
1676104290.8543704,2274,1676104290,853015678,world,-0.36018165946006775,-0.6239035129547119,0.1392468363046646,-0.008303385227918625,0.012350216507911682,0.019182251766324043,-0.9997052550315857
1676104290.8543847,2276,1676104290,853363715,world,-0.3601870536804199,-0.623898983001709,0.1392349898815155,-0.008314221166074276,0.012213866226375103,0.01912536472082138,-0.9997079968452454
1676104290.8640428,2277,1676104290,863175974,world,-0.3601878881454468,-0.6239027380943298,0.13924936950206757,-0.00804667267948389,0.01215949933975935,0.01903955452144146,-0.9997124671936035
1676104290.8641675,2278,1676104290,863402474,world,-0.3601817488670349,-0.6238962411880493,0.13923616707324982,-0.008271564729511738,0.01221886184066534,0.019046738743782043,-0.9997097849845886
1676104290.8643079,2279,1676104290,863500492,world,-0.3601832985877991,-0.6239005923271179,0.13924536108970642,-0.007949549704790115,0.01230127364397049,0.019198322668671608,-0.9997084140777588
1676104290.8737342,2280,1676104290,872994770,world,-0.36018139123916626,-0.6239016056060791,0.13923989236354828,-0.008260023780167103,0.012301561422646046,0.019085755571722984,-0.9997081160545349
1676104290.8754416,2281,1676104290,873238658,world,-0.36018574237823486,-0.6239057779312134,0.13924209773540497,-0.008111651055514812,0.01225561648607254,0.01929505728185177,-0.9997058510780334
1676104290.8845136,2282,1676104290,883023732,world,-0.3601815402507782,-0.6239014267921448,0.13923951983451843,-0.008221035823225975,0.012297708541154861,0.019002895802259445,-0.9997100830078125
1676104290.8845646,2283,1676104290,883259788,world,-0.3601871430873871,-0.6238998174667358,0.13923779129981995,-0.00830851960927248,0.012333325110375881,0.019031193107366562,-0.9997082948684692
1676104290.8935146,2284,1676104290,892988157,world,-0.36018720269203186,-0.6239100098609924,0.13924479484558105,-0.008077328093349934,0.012300694361329079,0.019168661907315254,-0.9997080564498901
1676104290.8940096,2285,1676104290,893212417,world,-0.3601839542388916,-0.6238968372344971,0.13923418521881104,-0.008192019537091255,0.012246789410710335,0.019117126241326332,-0.9997087121009827
1676104290.8940213,2286,1676104290,893283972,world,-0.3601853549480438,-0.6238898038864136,0.13923902809619904,-0.008176089264452457,0.012242130003869534,0.019027547910809517,-0.9997105598449707
1676104290.9045236,2287,1676104290,903551397,world,-0.360182523727417,-0.6238985657691956,0.13923482596874237,-0.008151739835739136,0.012298381887376308,0.019082767888903618,-0.9997091293334961
1676104290.904568,2288,1676104290,903838453,world,-0.3601861298084259,-0.6238937377929688,0.13924166560173035,-0.008319351822137833,0.012215717695653439,0.019131673499941826,-0.9997077584266663
1676104290.9146636,2289,1676104290,913128563,world,-0.3601882755756378,-0.6239014863967896,0.13924144208431244,-0.008164580911397934,0.012321148999035358,0.019232720136642456,-0.9997057914733887
1676104290.914701,2290,1676104290,913347804,world,-0.3601805567741394,-0.6238994002342224,0.13923880457878113,-0.008299417793750763,0.01228215079754591,0.01905542053282261,-0.9997086524963379
1676104290.9245524,2291,1676104290,923033563,world,-0.3601865768432617,-0.6238903403282166,0.13924603164196014,-0.008397165685892105,0.012235963717103004,0.019127624109387398,-0.9997069239616394
1676104290.9245672,2292,1676104290,923326526,world,-0.3601800799369812,-0.6238940358161926,0.13923881947994232,-0.00823330506682396,0.012222320772707462,0.019154496490955353,-0.9997079372406006
1676104290.9246328,2293,1676104290,923557248,world,-0.3601825535297394,-0.6238864660263062,0.1392398327589035,-0.008131182752549648,0.012255992740392685,0.01902793161571026,-0.9997107982635498
1676104290.933602,2294,1676104290,932993488,world,-0.3601825535297394,-0.6238878965377808,0.13924063742160797,-0.008357669226825237,0.012167961336672306,0.01915162429213524,-0.9997076392173767
1676104290.934195,2295,1676104290,933270247,world,-0.3601830005645752,-0.6239018440246582,0.13923399150371552,-0.008194265887141228,0.012288372963666916,0.019018638879060745,-0.9997100830078125
1676104290.9342427,2296,1676104290,933347303,world,-0.36018162965774536,-0.6238929629325867,0.1392388790845871,-0.008318568579852581,0.01222184207290411,0.019092269241809845,-0.9997084140777588
1676104290.943933,2297,1676104290,943054228,world,-0.36019009351730347,-0.6238988041877747,0.13924139738082886,-0.008374817669391632,0.012231755070388317,0.01911098137497902,-0.9997074604034424
1676104290.9445624,2298,1676104290,943306802,world,-0.3601854741573334,-0.6238961219787598,0.1392328441143036,-0.008174543268978596,0.012236136943101883,0.019075118005275726,-0.9997098445892334
1676104290.9639304,2299,1676104290,963026283,world,-0.36018162965774536,-0.6239055395126343,0.1392466276884079,-0.008077172562479973,0.01238213200122118,0.019192440435290337,-0.9997065663337708
1676104290.9643562,2300,1676104290,963265783,world,-0.36017972230911255,-0.6238912343978882,0.13924145698547363,-0.008254720829427242,0.012201829813420773,0.019092580303549767,-0.9997092485427856
1676104290.9643967,2302,1676104290,963422653,world,-0.360187828540802,-0.6238946318626404,0.13924814760684967,-0.008378717117011547,0.012233837507665157,0.019107341766357422,-0.9997074604034424
1676104290.9744787,2303,1676104290,973073671,world,-0.36018508672714233,-0.6239054799079895,0.13924269378185272,-0.008145788684487343,0.012236444279551506,0.019266901537775993,-0.9997063279151917
1676104290.974504,2304,1676104290,973327412,world,-0.3601856529712677,-0.6238993406295776,0.1392403244972229,-0.008261892013251781,0.01223184447735548,0.01906968466937542,-0.9997092485427856
1676104290.9746184,2305,1676104290,973424560,world,-0.36017918586730957,-0.623896598815918,0.13923868536949158,-0.008210621774196625,0.012296001426875591,0.019077317789196968,-0.9997087121009827
1676104290.9841104,2306,1676104290,983127152,world,-0.3601824641227722,-0.62389075756073,0.13925223052501678,-0.008288726210594177,0.012288985773921013,0.019129378721117973,-0.9997072219848633
