Time,header.seq,header.stamp.secs,header.stamp.nsecs,header.frame_id,twist.linear.x,twist.linear.y,twist.linear.z,twist.angular.x,twist.angular.y,twist.angular.z
1676469335.2734964,1,1676469335,271793365,odom,0.6596171855926514,-0.8322501182556152,1.1381377209395172,0.0,0.0,0.0
1676469335.287229,2,1676469335,283214330,odom,0.6596255302429199,-0.8322272300720215,1.1381413439691066,0.0,0.0,0.0
1676469335.30484,3,1676469335,291460275,odom,0.659644603729248,-0.8322170972824097,1.1381466913282872,0.0,0.0,0.0
1676469335.318235,4,1676469335,311886072,odom,0.6595866680145264,-0.8321980237960815,1.1381679742053152,0.0,0.0,0.0
1676469335.3219595,5,1676469335,320132255,odom,0.6596267223358154,-0.8322402238845825,1.1381725853338838,0.0,0.0,0.0
1676469335.3294053,6,1676469335,323606729,odom,0.6596267223358154,-0.8322402238845825,1.1381725853338838,0.0,0.0,0.0
1676469335.3367887,7,1676469335,332772016,odom,0.659656286239624,-0.8322060108184814,1.1381555454701187,0.0,0.0,0.0
1676469335.3413453,8,1676469335,339958190,odom,0.6596832275390625,-0.8321588039398193,1.1381143165558576,0.0,0.0,0.0
1676469335.3509057,9,1676469335,349623918,odom,0.6597456932067871,-0.8320558071136475,1.1381312111109496,0.0,0.0,0.0
1676469335.3649776,10,1676469335,359808206,odom,0.6598942279815674,-0.8319586515426636,1.1381348050788045,0.0,0.0,0.0
1676469335.370908,11,1676469335,369554281,odom,0.6600360870361328,-0.831950306892395,1.1379838584288955,0.0,0.0,0.0
1676469335.3813093,12,1676469335,380162954,odom,0.6600916385650635,-0.8318737745285034,1.1379874136477708,0.0,0.0,0.0
1676469335.3910658,13,1676469335,389614343,odom,0.6600759029388428,-0.8316646814346313,1.1379086854085325,0.0,0.0,0.0
1676469335.400786,14,1676469335,399651288,odom,0.6599578857421875,-0.8315024375915527,1.1378905024498702,0.0,0.0,0.0
1676469335.4120326,15,1676469335,409676790,odom,0.6595168113708496,-0.8312242031097412,1.1377637835994363,0.0,0.0,0.0
1676469335.4209225,16,1676469335,419577360,odom,0.6589434146881104,-0.8309606313705444,1.137598877629638,0.0,0.0,0.0
1676469335.4349785,17,1676469335,431319713,odom,0.6579611301422119,-0.830613374710083,1.137476275858283,0.0,0.0,0.0
1676469335.4410002,18,1676469335,439737081,odom,0.6557919979095459,-0.8300372362136841,1.1373435993522405,0.0,0.0,0.0
1676469335.451061,19,1676469335,449626207,odom,0.6537938117980957,-0.8297377824783325,1.1372038124084471,0.0,0.0,0.0
1676469335.463893,20,1676469335,461014747,odom,0.650324821472168,-0.8293296098709106,1.1369315620779992,0.0,0.0,0.0
1676469335.4726267,21,1676469335,469678401,odom,0.6477904319763184,-0.8291548490524292,1.1367792398393155,0.0,0.0,0.0
1676469335.4811237,22,1676469335,479585647,odom,0.6450939178466797,-0.828893780708313,1.1368017917454243,0.0,0.0,0.0
1676469335.491037,23,1676469335,489717960,odom,0.6408424377441406,-0.8288309574127197,1.1366224420934916,0.0,0.0,0.0
1676469335.5017958,24,1676469335,499657630,odom,0.6380312442779541,-0.8288464546203613,1.1365977008700372,0.0,0.0,0.0
1676469335.5119946,25,1676469335,509577274,odom,0.633734941482544,-0.8290294408798218,1.136363598909974,0.0,0.0,0.0
1676469335.521652,26,1676469335,519686460,odom,0.6309616565704346,-0.8292719125747681,1.136257368582487,0.0,0.0,0.0
1676469335.5317857,27,1676469335,529565811,odom,0.6284823417663574,-0.8294214010238647,1.1362408808916806,0.0,0.0,0.0
1676469335.5407104,28,1676469335,539608478,odom,0.6248929500579834,-0.8295695781707764,1.136306676658988,0.0,0.0,0.0
1676469335.550756,29,1676469335,549605607,odom,0.6227765083312988,-0.8296980857849121,1.1362425470978021,0.0,0.0,0.0
1676469335.562168,30,1676469335,559703826,odom,0.6209416389465332,-0.8298404216766357,1.136123200240731,0.0,0.0,0.0
1676469335.571637,31,1676469335,569613456,odom,0.6186180114746094,-0.8298680782318115,1.1360375262469053,0.0,0.0,0.0
1676469335.5832403,32,1676469335,580078840,odom,0.617483377456665,-0.8297920227050781,1.1359901943683623,0.0,0.0,0.0
1676469335.5914347,33,1676469335,589629650,odom,0.6162722110748291,-0.8296006917953491,1.135972292339802,0.0,0.0,0.0
1676469335.6008408,34,1676469335,599740266,odom,0.6156363487243652,-0.8294588327407837,1.1359303853183986,0.0,0.0,0.0
1676469335.610953,35,1676469335,609655141,odom,0.6151490211486816,-0.829227089881897,1.1359154863357543,0.0,0.0,0.0
1676469335.621962,36,1676469335,619697332,odom,0.6147193908691406,-0.8288992643356323,1.1358757105082276,0.0,0.0,0.0
1676469335.6309726,37,1676469335,629700183,odom,0.6146273612976074,-0.8286900520324707,1.1358592809408903,0.0,0.0,0.0
1676469335.6409721,38,1676469335,639634609,odom,0.6147160530090332,-0.8284441232681274,1.13582159755826,0.0,0.0,0.0
1676469335.6511164,39,1676469335,649893522,odom,0.6148810386657715,-0.8283265829086304,1.1358167733103037,0.0,0.0,0.0
1676469335.6628954,40,1676469335,659766674,odom,0.6152839660644531,-0.8282369375228882,1.1357777143388987,0.0,0.0,0.0
1676469335.6712887,41,1676469335,670011281,odom,0.6155819892883301,-0.8282191753387451,1.1357933689266444,0.0,0.0,0.0
1676469335.6812599,42,1676469335,679751396,odom,0.6158831119537354,-0.8281600475311279,1.1357590567052365,0.0,0.0,0.0
1676469335.6917126,43,1676469335,689620018,odom,0.6163084506988525,-0.8281502723693848,1.1357774818450215,0.0,0.0,0.0
1676469335.7015631,44,1676469335,699741363,odom,0.616544246673584,-0.8281641006469727,1.135773277580738,0.0,0.0,0.0
1676469335.7121253,45,1676469335,709673404,odom,0.6167354583740234,-0.8281689882278442,1.1357469282746315,0.0,0.0,0.0
1676469335.721665,46,1676469335,719705104,odom,0.6169412136077881,-0.8281642198562622,1.1357649659246205,0.0,0.0,0.0
1676469335.731085,47,1676469335,729596614,odom,0.6170570850372314,-0.8280812501907349,1.135754697445035,0.0,0.0,0.0
1676469335.740964,48,1676469335,739608049,odom,0.6170690059661865,-0.8279677629470825,1.1357664965093135,0.0,0.0,0.0
1676469335.7507687,49,1676469335,749628305,odom,0.6169991493225098,-0.8278865814208984,1.135747160768509,0.0,0.0,0.0
1676469335.763571,50,1676469335,761060714,odom,0.6168951988220215,-0.8277871608734131,1.1357286968797446,0.0,0.0,0.0
1676469335.7716677,51,1676469335,769643068,odom,0.6167392730712891,-0.8276225328445435,1.135657340633869,0.0,0.0,0.0
1676469335.7823029,52,1676469335,779764413,odom,0.6165969371795654,-0.8275920152664185,1.1356903353899719,0.0,0.0,0.0
1676469335.7909808,53,1676469335,789642810,odom,0.6162970066070557,-0.8273855447769165,1.1356553644359113,0.0,0.0,0.0
1676469335.8015726,54,1676469335,800013065,odom,0.6160314083099365,-0.8272590637207031,1.1356434103757145,0.0,0.0,0.0
1676469335.8109415,55,1676469335,809610605,odom,0.615713357925415,-0.8270734548568726,1.1357018825858831,0.0,0.0,0.0
1676469335.8209212,56,1676469335,819594144,odom,0.6155211925506592,-0.826842188835144,1.13563302564919,0.0,0.0,0.0
1676469335.8329637,57,1676469335,829693078,odom,0.6153302192687988,-0.826839804649353,1.1357206370919943,0.0,0.0,0.0
1676469335.8415747,58,1676469335,839582443,odom,0.615025520324707,-0.8267196416854858,1.1356739251971246,0.0,0.0,0.0
1676469335.8517225,59,1676469335,850214004,odom,0.614830493927002,-0.8265711069107056,1.1356420735359192,0.0,0.0,0.0
1676469335.866299,60,1676469335,860551357,odom,0.614678144454956,-0.8265559673309326,1.135679621297121,0.0,0.0,0.0
1676469335.8724723,61,1676469335,869657754,odom,0.6144518852233887,-0.8264287710189819,1.1356605180501937,0.0,0.0,0.0
1676469335.8815298,62,1676469335,879639863,odom,0.6142792701721191,-0.8262113332748413,1.1356282207757236,0.0,0.0,0.0
1676469335.890866,63,1676469335,889597654,odom,0.6140775680541992,-0.8261559009552002,1.1356940746665003,0.0,0.0,0.0
1676469335.9014764,64,1676469335,899631023,odom,0.6139862537384033,-0.8260514736175537,1.135610493117571,0.0,0.0,0.0
1676469335.9115229,65,1676469335,909643173,odom,0.6138210296630859,-0.8259576559066772,1.135664993557334,0.0,0.0,0.0
1676469335.9223516,66,1676469335,920666694,odom,0.6137268543243408,-0.8258068561553955,1.1356044095277786,0.0,0.0,0.0
1676469335.930933,67,1676469335,929784297,odom,0.6136131286621094,-0.8256046772003174,1.1355441742390395,0.0,0.0,0.0
1676469335.9413002,68,1676469335,939692020,odom,0.6134710311889648,-0.8254086971282959,1.1355641493380069,0.0,0.0,0.0
1676469335.951167,69,1676469335,949588537,odom,0.6133937835693359,-0.8253215551376343,1.135510811367631,0.0,0.0,0.0
1676469335.9643974,70,1676469335,961134910,odom,0.6132955551147461,-0.8250656127929688,1.1355096682727337,0.0,0.0,0.0
1676469335.9720247,71,1676469335,970362901,odom,0.6131870746612549,-0.8248634338378906,1.135520963600278,0.0,0.0,0.0
1676469335.982,72,1676469335,980170488,odom,0.6131677627563477,-0.8247404098510742,1.1354677612513304,0.0,0.0,0.0
1676469335.9914384,73,1676469335,989599943,odom,0.6129181385040283,-0.8243931531906128,1.135353219267726,0.0,0.0,0.0
1676469336.0012314,74,1676469335,999659538,odom,0.6122009754180908,-0.823796272277832,1.135064888110757,0.0,0.0,0.0
1676469336.0106652,75,1676469336,9594202,odom,0.6100988388061523,-0.820724368095398,1.1342990920275449,0.0,0.0,0.0
1676469336.0219762,76,1676469336,19832611,odom,0.6073575019836426,-0.8170530796051025,1.1331974197894334,0.0,0.0,0.0
1676469336.0316849,77,1676469336,29611825,odom,0.6039528846740723,-0.8116719722747803,1.1314367824047804,0.0,0.0,0.0
1676469336.0408423,78,1676469336,39676666,odom,0.5982272624969482,-0.8019853830337524,1.1277211815029384,0.0,0.0,0.0
1676469336.0513368,79,1676469336,49631595,odom,0.5942497253417969,-0.7953046560287476,1.1243892536222937,0.0,0.0,0.0
1676469336.0642662,80,1676469336,59702157,odom,0.5885515213012695,-0.7863954305648804,1.1171392420470716,0.0,0.0,0.0
1676469336.0719717,81,1676469336,69651126,odom,0.5849206447601318,-0.7807998657226562,1.1108545450508596,0.0,0.0,0.0
1676469336.0812788,82,1676469336,79854011,odom,0.5813074111938477,-0.7751359939575195,1.1032136143952609,0.0,0.0,0.0
1676469336.0957816,83,1676469336,89622259,odom,0.5755634307861328,-0.7652592658996582,1.0891460492312908,0.0,0.0,0.0
1676469336.1019044,84,1676469336,99553108,odom,0.5714576244354248,-0.7577787637710571,1.077913708153367,0.0,0.0,0.0
1676469336.1115928,85,1676469336,109904050,odom,0.5644698143005371,-0.7450822591781616,1.0587439098536968,0.0,0.0,0.0
1676469336.122866,86,1676469336,120426654,odom,0.5593509674072266,-0.7358185052871704,1.0445909419387578,0.0,0.0,0.0
1676469336.1312857,87,1676469336,129564046,odom,0.5538234710693359,-0.7256346940994263,1.0293084412693978,0.0,0.0,0.0
1676469336.1407566,88,1676469336,139650821,odom,0.5448732376098633,-0.7096908092498779,1.0049807275503875,0.0,0.0,0.0
1676469336.1522706,89,1676469336,149697065,odom,0.5386009216308594,-0.6987589597702026,0.9880238447248936,0.0,0.0,0.0
1676469336.1611562,90,1676469336,159722089,odom,0.531980037689209,-0.6872789859771729,0.9707015783965588,0.0,0.0,0.0
1676469336.171347,91,1676469336,169623374,odom,0.5218088626861572,-0.6696598529815674,0.9444352338552475,0.0,0.0,0.0
1676469336.1832588,92,1676469336,179807662,odom,0.5151498317718506,-0.6581447124481201,0.9268841160535812,0.0,0.0,0.0
1676469336.1912346,93,1676469336,189644575,odom,0.5050160884857178,-0.640589714050293,0.9011986187160015,0.0,0.0,0.0
1676469336.201551,94,1676469336,199764490,odom,0.49824976921081543,-0.628493070602417,0.8843041411221028,0.0,0.0,0.0
1676469336.210916,95,1676469336,209797382,odom,0.49140381813049316,-0.6163127422332764,0.8679930294156074,0.0,0.0,0.0
1676469336.22124,96,1676469336,220038414,odom,0.48110270500183105,-0.5981613397598267,0.8444931827485561,0.0,0.0,0.0
1676469336.2307615,97,1676469336,229489326,odom,0.4742262363433838,-0.5858577489852905,0.8298111819148064,0.0,0.0,0.0
1676469336.2411363,98,1676469336,239683866,odom,0.4637868404388428,-0.5673815011978149,0.8085644983410836,0.0,0.0,0.0
1676469336.251562,99,1676469336,249644279,odom,0.45700573921203613,-0.5550171136856079,0.7953201489329338,0.0,0.0,0.0
1676469336.2646532,100,1676469336,259665966,odom,0.44646739959716797,-0.5362868309020996,0.7763733010768891,0.0,0.0,0.0
1676469336.2732708,101,1676469336,269963264,odom,0.4393198490142822,-0.5235413312911987,0.7645686509013176,0.0,0.0,0.0
1676469336.2819626,102,1676469336,279665231,odom,0.4321630001068115,-0.5108572244644165,0.753342692887783,0.0,0.0,0.0
1676469336.2912307,103,1676469336,289645671,odom,0.42141294479370117,-0.4918020963668823,0.7373412722110748,0.0,0.0,0.0
1676469336.301483,104,1676469336,300281763,odom,0.41425132751464844,-0.47880542278289795,0.7273977167308331,0.0,0.0,0.0
1676469336.3106704,105,1676469336,309600353,odom,0.40314531326293945,-0.45928966999053955,0.7134148226082325,0.0,0.0,0.0
1676469336.3211794,106,1676469336,319715499,odom,0.39586424827575684,-0.44618868827819824,0.7046356146812439,0.0,0.0,0.0
1676469336.3337934,107,1676469336,329709053,odom,0.38852477073669434,-0.433071494102478,0.696331064760685,0.0,0.0,0.0
1676469336.3422415,108,1676469336,340193510,odom,0.37740254402160645,-0.4134103059768677,0.6844511988818646,0.0,0.0,0.0
1676469336.3509722,109,1676469336,349703788,odom,0.36998748779296875,-0.40020596981048584,0.6769266402959824,0.0,0.0,0.0
1676469336.3629,110,1676469336,360094308,odom,0.3625810146331787,-0.3871269226074219,0.6697221713364125,0.0,0.0,0.0
1676469336.373256,111,1676469336,369650602,odom,0.35521817207336426,-0.3740420341491699,0.6627263716459275,0.0,0.0,0.0
1676469336.381318,112,1676469336,380023717,odom,0.34423208236694336,-0.35455191135406494,0.6526805556893349,0.0,0.0,0.0
1676469336.3908992,113,1676469336,389585256,odom,0.3332695960998535,-0.33523428440093994,0.6429141443729401,0.0,0.0,0.0
1676469336.4008262,114,1676469336,399671316,odom,0.3332695960998535,-0.33523428440093994,0.6431106721162797,0.0,0.0,0.0
1676469336.412496,115,1676469336,409781217,odom,0.3260478973388672,-0.32248055934906006,0.6367575373411178,0.0,0.0,0.0
1676469336.4212537,116,1676469336,419785499,odom,0.30852699279785156,-0.29127931594848633,0.6205723914623261,0.0,0.0,0.0
1676469336.430861,117,1676469336,429590940,odom,0.30153536796569824,-0.2789492607116699,0.6143762657761574,0.0,0.0,0.0
1676469336.4408379,118,1676469336,439658403,odom,0.2913787364959717,-0.2609221935272217,0.6047148692965507,0.0,0.0,0.0
1676469336.4535756,119,1676469336,449908971,odom,0.28462767601013184,-0.24913322925567627,0.5983599156975746,0.0,0.0,0.0
1676469336.4652383,120,1676469336,459818840,odom,0.2748076915740967,-0.23183119297027588,0.5885038399219513,0.0,0.0,0.0
1676469336.4733453,121,1676469336,469783544,odom,0.26831960678100586,-0.2204885482788086,0.5820102572083473,0.0,0.0,0.0
1676469336.4818115,122,1676469336,479683160,odom,0.26200175285339355,-0.20946073532104492,0.575290497493744,0.0,0.0,0.0
1676469336.4910984,123,1676469336,489650011,odom,0.25284576416015625,-0.19321656227111816,0.5652155117273331,0.0,0.0,0.0
1676469336.5012817,124,1676469336,499633550,odom,0.24678254127502441,-0.18286359310150146,0.5585176010251045,0.0,0.0,0.0
1676469336.5110233,125,1676469336,509683609,odom,0.23814034461975098,-0.16771340370178223,0.5481551007628441,0.0,0.0,0.0
1676469336.5214756,126,1676469336,519640684,odom,0.232466459274292,-0.15787458419799805,0.5413114874958993,0.0,0.0,0.0
1676469336.5327458,127,1676469336,529622077,odom,0.2269124984741211,-0.14829504489898682,0.5344899744033814,0.0,0.0,0.0
1676469336.5413718,128,1676469336,539769887,odom,0.21903753280639648,-0.13437366485595703,0.524129150235653,0.0,0.0,0.0
1676469336.5507724,129,1676469336,549636363,odom,0.21385931968688965,-0.1253279447555542,0.5173365046024323,0.0,0.0,0.0
1676469336.563339,130,1676469336,561393976,odom,0.20638012886047363,-0.11237192153930664,0.5072021007299423,0.0,0.0,0.0
1676469336.5722656,131,1676469336,569718122,odom,0.2015857696533203,-0.10416960716247559,0.5003192125439644,0.0,0.0,0.0
1676469336.5808775,132,1676469336,579720020,odom,0.19681596755981445,-0.09592580795288086,0.49379010766744613,0.0,0.0,0.0
1676469336.590771,133,1676469336,589614391,odom,0.18998360633850098,-0.08341550827026367,0.48444445409774783,0.0,0.0,0.0
1676469336.6009443,134,1676469336,599678516,odom,0.18566560745239258,-0.07670247554779053,0.47761502801179884,0.0,0.0,0.0
1676469336.6113496,135,1676469336,609695672,odom,0.181257963180542,-0.06935727596282959,0.4713756951570511,0.0,0.0,0.0
1676469336.6214716,136,1676469336,619685649,odom,0.17517423629760742,-0.05896413326263428,0.4622174526453018,0.0,0.0,0.0
1676469336.633062,137,1676469336,630194425,odom,0.17136454582214355,-0.05232584476470947,0.4563731839299202,0.0,0.0,0.0
1676469336.6415956,138,1676469336,639899492,odom,0.16573429107666016,-0.042966365814208984,0.4477949612140656,0.0,0.0,0.0
1676469336.65091,139,1676469336,649775981,odom,0.16211771965026855,-0.036899447441101074,0.44230560561418536,0.0,0.0,0.0
1676469336.6649895,140,1676469336,661129474,odom,0.15702390670776367,-0.028443217277526855,0.4342818088412285,0.0,0.0,0.0
1676469336.6716523,141,1676469336,669570922,odom,0.15361690521240234,-0.023071885108947754,0.4291836854100228,0.0,0.0,0.0
1676469336.6808245,142,1676469336,679642438,odom,0.15046262741088867,-0.017946243286132812,0.4241723009467125,0.0,0.0,0.0
1676469336.6913733,143,1676469336,689604282,odom,0.14598989486694336,-0.010713696479797363,0.41669427987337115,0.0,0.0,0.0
1676469336.7012682,144,1676469336,699638128,odom,0.14309906959533691,-0.006125688552856445,0.4118736488699913,0.0,0.0,0.0
1676469336.7121723,145,1676469336,709854602,odom,0.14026284217834473,-0.0018701553344726562,0.40719610742330553,0.0,0.0,0.0
1676469336.7209694,146,1676469336,719736099,odom,0.13634204864501953,0.004021167755126953,0.4003431935787201,0.0,0.0,0.0
1676469336.7312865,147,1676469336,729611635,odom,0.13379597663879395,0.007756710052490234,0.3959980602025986,0.0,0.0,0.0
1676469336.740841,148,1676469336,739604234,odom,0.13033795356750488,0.012657403945922852,0.38946084074974063,0.0,0.0,0.0
1676469336.751262,149,1676469336,749661207,odom,0.12817764282226562,0.015623807907104492,0.38512096564769743,0.0,0.0,0.0
1676469336.7658648,150,1676469336,760194301,odom,0.12523627281188965,0.019550323486328125,0.3788611024737358,0.0,0.0,0.0
1676469336.7722764,151,1676469336,770237922,odom,0.12320590019226074,0.022104978561401367,0.3749436687111855,0.0,0.0,0.0
1676469336.7816339,152,1676469336,779714345,odom,0.12147879600524902,0.024158000946044922,0.3708150528669357,0.0,0.0,0.0
1676469336.791785,153,1676469336,789612054,odom,0.11885190010070801,0.027228355407714844,0.36472241901159286,0.0,0.0,0.0
1676469336.800745,154,1676469336,799637794,odom,0.11722707748413086,0.02878427505493164,0.36074008351564407,0.0,0.0,0.0
1676469336.8117301,155,1676469336,809654951,odom,0.11503362655639648,0.030951976776123047,0.3548374848484993,0.0,0.0,0.0
1676469336.821375,156,1676469336,819678068,odom,0.11362743377685547,0.031943321228027344,0.350961856174469,0.0,0.0,0.0
1676469336.8311486,157,1676469336,829646587,odom,0.11238884925842285,0.03289628028869629,0.3470892649650574,0.0,0.0,0.0
1676469336.841282,158,1676469336,839637041,odom,0.11063337326049805,0.033753395080566406,0.3413543366551399,0.0,0.0,0.0
1676469336.8507795,159,1676469336,849636077,odom,0.10949301719665527,0.03411746025085449,0.33767595796585087,0.0,0.0,0.0
1676469336.8645537,160,1676469336,861615896,odom,0.10785341262817383,0.0343172550201416,0.3318781646251679,0.0,0.0,0.0
1676469336.8713136,161,1676469336,869851589,odom,0.10691142082214355,0.03425240516662598,0.3280004285693169,0.0,0.0,0.0
1676469336.8811626,162,1676469336,879646539,odom,0.1059119701385498,0.03399491310119629,0.3243954244494438,0.0,0.0,0.0
1676469336.8916898,163,1676469336,889650583,odom,0.10458207130432129,0.033411264419555664,0.3187946387887001,0.0,0.0,0.0
1676469336.9018073,164,1676469336,900133609,odom,0.10339570045471191,0.03250932693481445,0.31317753080129623,0.0,0.0,0.0
1676469336.9112945,165,1676469336,909636974,odom,0.10264062881469727,0.031786203384399414,0.3095052593588829,0.0,0.0,0.0
1676469336.9207442,166,1676469336,919615745,odom,0.10196709632873535,0.030784130096435547,0.30579292560815813,0.0,0.0,0.0
1676469336.933165,167,1676469336,929672956,odom,0.10120224952697754,0.029714107513427734,0.30228812355995177,0.0,0.0,0.0
1676469336.9416,168,1676469336,939698696,odom,0.10029911994934082,0.02768707275390625,0.2969182345032692,0.0,0.0,0.0
1676469336.9509351,169,1676469336,949638128,odom,0.09998750686645508,0.026192903518676758,0.29333547379970554,0.0,0.0,0.0
1676469336.9630547,170,1676469336,960396528,odom,0.09924530982971191,0.023748159408569336,0.2880638333201409,0.0,0.0,0.0
1676469336.9712849,171,1676469336,969623804,odom,0.09870457649230957,0.022111177444458008,0.2847981290221214,0.0,0.0,0.0
1676469336.9825602,172,1676469336,980041980,odom,0.09832334518432617,0.02031397819519043,0.28136120837926865,0.0,0.0,0.0
1676469336.9909806,173,1676469336,989609003,odom,0.09760665893554688,0.017467498779296875,0.27636766551733016,0.0,0.0,0.0
1676469337.007259,174,1676469337,4051208,odom,0.09716129302978516,0.015422582626342773,0.2732189497947693,0.0,0.0,0.0
1676469337.0116522,175,1676469337,10398387,odom,0.09675097465515137,0.013423681259155273,0.26990657215118413,0.0,0.0,0.0
1676469337.021187,176,1676469337,19620418,odom,0.0961310863494873,0.010313987731933594,0.2651019350290299,0.0,0.0,0.0
1676469337.0317712,177,1676469337,29598474,odom,0.09557318687438965,0.008051156997680664,0.2620600364327431,0.0,0.0,0.0
1676469337.041695,178,1676469337,39762258,odom,0.09491324424743652,0.004698514938354492,0.25754998672008517,0.0,0.0,0.0
1676469337.0510845,179,1676469337,49596786,odom,0.09461164474487305,0.002351045608520508,0.2545619807600975,0.0,0.0,0.0
1676469337.0668972,180,1676469337,60088872,odom,0.09391021728515625,-0.0013413429260253906,0.25016365447044375,0.0,0.0,0.0
1676469337.071546,181,1676469337,69657802,odom,0.09353923797607422,-0.00383913516998291,0.24722796609401704,0.0,0.0,0.0
1676469337.0825832,182,1676469337,79995393,odom,0.09308195114135742,-0.006232500076293945,0.24454554538726808,0.0,0.0,0.0
1676469337.0918236,183,1676469337,90198516,odom,0.0923166275024414,-0.009860515594482422,0.2403099931240082,0.0,0.0,0.0
1676469337.101148,184,1676469337,99785566,odom,0.09183335304260254,-0.012271285057067871,0.23753278993368152,0.0,0.0,0.0
1676469337.1129436,185,1676469337,109693527,odom,0.09128642082214355,-0.014735221862792969,0.23481105183362963,0.0,0.0,0.0
1676469337.1262255,186,1676469337,119758844,odom,0.09057140350341797,-0.018404364585876465,0.23070937895774843,0.0,0.0,0.0
1676469337.136146,187,1676469337,131735324,odom,0.08992505073547363,-0.02083408832550049,0.22816947956085207,0.0,0.0,0.0
1676469337.1432812,188,1676469337,140928983,odom,0.08913898468017578,-0.02456820011138916,0.2242378448009491,0.0,0.0,0.0
1676469337.1509583,189,1676469337,149624347,odom,0.08855414390563965,-0.027004718780517578,0.2216701066851616,0.0,0.0,0.0
1676469337.1630487,190,1676469337,161241292,odom,0.08762764930725098,-0.030575037002563477,0.21780439779758454,0.0,0.0,0.0
1676469337.1732235,191,1676469337,169621229,odom,0.08688569068908691,-0.03287231922149658,0.21527021231651308,0.0,0.0,0.0
1676469337.1830428,192,1676469337,180588483,odom,0.08620357513427734,-0.035114169120788574,0.21280823092460635,0.0,0.0,0.0
1676469337.19328,193,1676469337,189963340,odom,0.08499407768249512,-0.038477420806884766,0.20913588485717774,0.0,0.0,0.0
1676469337.2013102,194,1676469337,199896335,odom,0.08430862426757812,-0.040610432624816895,0.20660982491970065,0.0,0.0,0.0
1676469337.2111645,195,1676469337,209617376,odom,0.08340764045715332,-0.04281127452850342,0.20423161041736604,0.0,0.0,0.0
1676469337.2209787,196,1676469337,219716310,odom,0.08225893974304199,-0.04581618309020996,0.20041839126348499,0.0,0.0,0.0
1676469337.2328405,197,1676469337,229664802,odom,0.08130478858947754,-0.04774439334869385,0.19809263924360276,0.0,0.0,0.0
1676469337.241406,198,1676469337,239748239,odom,0.08010411262512207,-0.05062878131866455,0.1943678583621979,0.0,0.0,0.0
1676469337.2511547,199,1676469337,249633789,odom,0.07910871505737305,-0.052491068840026855,0.19198301630020143,0.0,0.0,0.0
1676469337.2623384,200,1676469337,259860754,odom,0.07802343368530273,-0.05418872833251953,0.18960517325401308,0.0,0.0,0.0
1676469337.2716188,201,1676469337,269569396,odom,0.07666778564453125,-0.05668497085571289,0.1859106664657593,0.0,0.0,0.0
1676469337.2806618,202,1676469337,279612779,odom,0.07559657096862793,-0.0582730770111084,0.183683127784729,0.0,0.0,0.0
1676469337.29113,203,1676469337,289581775,odom,0.07408642768859863,-0.06054234504699707,0.18006682158708576,0.0,0.0,0.0
1676469337.3022273,204,1676469337,299870729,odom,0.07292032241821289,-0.061864256858825684,0.1777682470560074,0.0,0.0,0.0
1676469337.311755,205,1676469337,309795141,odom,0.07180571556091309,-0.06312966346740723,0.1754954539656639,0.0,0.0,0.0
1676469337.320984,206,1676469337,319703578,odom,0.07008695602416992,-0.06484925746917725,0.17207303892374037,0.0,0.0,0.0
1676469337.3335814,207,1676469337,329558134,odom,0.06883096694946289,-0.06600844860076904,0.1699457090854645,0.0,0.0,0.0
1676469337.3424299,208,1676469337,340291738,odom,0.06714391708374023,-0.06736814975738525,0.16668158975839617,0.0,0.0,0.0
1676469337.3510478,209,1676469337,349849462,odom,0.06582832336425781,-0.06813323497772217,0.16448793828487396,0.0,0.0,0.0
1676469337.3633034,210,1676469337,360558748,odom,0.06403446197509766,-0.06923091411590576,0.1613596696138382,0.0,0.0,0.0
1676469337.3731313,211,1676469337,369656085,odom,0.0627586841583252,-0.06986606121063232,0.15938746886253358,0.0,0.0,0.0
1676469337.3827386,212,1676469337,380051851,odom,0.061447858810424805,-0.07035088539123535,0.15742580716609958,0.0,0.0,0.0
1676469337.3912203,213,1676469337,389711618,odom,0.05947065353393555,-0.0709993839263916,0.1543882440686226,0.0,0.0,0.0
1676469337.4009883,214,1676469337,399843692,odom,0.05799293518066406,-0.07132208347320557,0.15235255653858187,0.0,0.0,0.0
1676469337.411279,215,1676469337,409690141,odom,0.0566253662109375,-0.07153928279876709,0.15052617146968844,0.0,0.0,0.0
1676469337.422062,216,1676469337,420190811,odom,0.05461740493774414,-0.07173192501068115,0.147610907638073,0.0,0.0,0.0
1676469337.4309843,217,1676469337,429621219,odom,0.05310678482055664,-0.07175004482269287,0.14560440511703493,0.0,0.0,0.0
1676469337.440642,218,1676469337,439594507,odom,0.05079817771911621,-0.07162821292877197,0.1428166357755661,0.0,0.0,0.0
1676469337.451428,219,1676469337,449893474,odom,0.04951953887939453,-0.07125246524810791,0.14091116313934327,0.0,0.0,0.0
1676469337.4609733,220,1676469337,459753513,odom,0.048029184341430664,-0.07090282440185547,0.13912002164125445,0.0,0.0,0.0
1676469337.471373,221,1676469337,469614744,odom,0.04586195945739746,-0.07019543647766113,0.13642252101898195,0.0,0.0,0.0
1676469337.4807613,222,1676469337,479663372,odom,0.04438591003417969,-0.06964457035064697,0.13446800416707994,0.0,0.0,0.0
1676469337.494363,223,1676469337,489893674,odom,0.04215073585510254,-0.06877076625823975,0.13183399238586427,0.0,0.0,0.0
1676469337.5010188,224,1676469337,499885559,odom,0.040657997131347656,-0.06808173656463623,0.12997421603202822,0.0,0.0,0.0
1676469337.511055,225,1676469337,509616136,odom,0.03908896446228027,-0.06725668907165527,0.12815283793210985,0.0,0.0,0.0
1676469337.5216198,226,1676469337,520445108,odom,0.036900997161865234,-0.06583619117736816,0.1254588815689087,0.0,0.0,0.0
1676469337.5309677,227,1676469337,529712915,odom,0.035455942153930664,-0.06486678123474121,0.12358827650547027,0.0,0.0,0.0
1676469337.540833,228,1676469337,539758920,odom,0.0332026481628418,-0.06302130222320557,0.12080113712549209,0.0,0.0,0.0
1676469337.5532427,229,1676469337,549900054,odom,0.03168964385986328,-0.06193351745605469,0.1189008691430092,0.0,0.0,0.0
1676469337.5625203,230,1676469337,559721231,odom,0.030208349227905273,-0.06059837341308594,0.11716515469551086,0.0,0.0,0.0
1676469337.5724921,231,1676469337,569816589,odom,0.027990341186523438,-0.05858135223388672,0.11421961828470231,0.0,0.0,0.0
1676469337.5821571,232,1676469337,580015420,odom,0.026485919952392578,-0.05706357955932617,0.11239487149715426,0.0,0.0,0.0
1676469337.5909176,233,1676469337,589634895,odom,0.024212121963500977,-0.05472433567047119,0.10956060802936554,0.0,0.0,0.0
1676469337.600718,234,1676469337,599605798,odom,0.022790908813476562,-0.05317580699920654,0.10775145889520646,0.0,0.0,0.0
1676469337.610829,235,1676469337,609632015,odom,0.021338224411010742,-0.051424264907836914,0.10592120729684831,0.0,0.0,0.0
1676469337.6213608,236,1676469337,619882345,odom,0.019184589385986328,-0.048857927322387695,0.10314676872491838,0.0,0.0,0.0
1676469337.6341646,237,1676469337,630254030,odom,0.0178372859954834,-0.047017812728881836,0.10127230430841447,0.0,0.0,0.0
1676469337.6408505,238,1676469337,639636516,odom,0.015785932540893555,-0.04421591758728027,0.09861034063100815,0.0,0.0,0.0
1676469337.6520607,239,1676469337,649704933,odom,0.014334917068481445,-0.04235875606536865,0.09690418468713762,0.0,0.0,0.0
1676469337.6649606,240,1676469337,661282062,odom,0.012957096099853516,-0.04032254219055176,0.0951295302629471,0.0,0.0,0.0
1676469337.6738102,241,1676469337,670093059,odom,0.011032342910766602,-0.03742265701293945,0.09253834614753724,0.0,0.0,0.0
1676469337.6808333,242,1676469337,679771661,odom,0.009549140930175781,-0.03534424304962158,0.09086734306812287,0.0,0.0,0.0
1676469337.6915362,243,1676469337,689618825,odom,0.007467031478881836,-0.03229928016662598,0.08850562179088593,0.0,0.0,0.0
1676469337.7008948,244,1676469337,699618577,odom,0.0061817169189453125,-0.030141592025756836,0.0867900422692299,0.0,0.0,0.0
1676469337.7113953,245,1676469337,709695577,odom,0.004921674728393555,-0.028031110763549805,0.085300532078743,0.0,0.0,0.0
1676469337.7215564,246,1676469337,719813585,odom,0.002827882766723633,-0.0248410701751709,0.08305107690095902,0.0,0.0,0.0
1676469337.7312112,247,1676469337,729649782,odom,0.0017104148864746094,-0.022583842277526855,0.08143260895013811,0.0,0.0,0.0
1676469337.741708,248,1676469337,739724874,odom,-9.989738464355469e-05,-0.01925373077392578,0.07918458576202393,0.0,0.0,0.0
1676469337.751535,249,1676469337,749687433,odom,-0.0013761520385742188,-0.017112016677856445,0.07770820940732957,0.0,0.0,0.0
1676469337.7622333,250,1676469337,760200500,odom,-0.003131389617919922,-0.013743400573730469,0.07561696901321412,0.0,0.0,0.0
1676469337.7714615,251,1676469337,769601106,odom,-0.004252076148986816,-0.011527776718139648,0.07407074251174928,0.0,0.0,0.0
1676469337.781034,252,1676469337,779643058,odom,-0.005463600158691406,-0.009293198585510254,0.07267755810022355,0.0,0.0,0.0
1676469337.7946544,253,1676469337,789618015,odom,-0.007263898849487305,-0.005849003791809082,0.07049516532421113,0.0,0.0,0.0
1676469337.8022094,254,1676469337,800685167,odom,-0.00839996337890625,-0.0035300254821777344,0.06907661311626435,0.0,0.0,0.0
1676469337.8112328,255,1676469337,809939146,odom,-0.009564876556396484,-0.0011894702911376953,0.06769698827266694,0.0,0.0,0.0
1676469337.8214886,256,1676469337,819660902,odom,-0.011201739311218262,0.0022690296173095703,0.06549468059539797,0.0,0.0,0.0
1676469337.8308117,257,1676469337,829555749,odom,-0.012237906455993652,0.0045013427734375,0.06403474090099336,0.0,0.0,0.0
1676469337.8415627,258,1676469337,839742898,odom,-0.013846039772033691,0.007860898971557617,0.06197180072069169,0.0,0.0,0.0
1676469337.85213,259,1676469337,849716424,odom,-0.014738678932189941,0.010145902633666992,0.06057857866287232,0.0,0.0,0.0
1676469337.8675418,260,1676469337,859962463,odom,-0.016154885292053223,0.013424158096313477,0.058529600870609294,0.0,0.0,0.0
1676469337.8778832,261,1676469337,872014284,odom,-0.01712656021118164,0.015767574310302734,0.05720304443836213,0.0,0.0,0.0
1676469337.8819153,262,1676469337,880103349,odom,-0.01816701889038086,0.017835378646850586,0.055802375292778025,0.0,0.0,0.0
1676469337.8912518,263,1676469337,889632701,odom,-0.019548535346984863,0.021246910095214844,0.053928456270694744,0.0,0.0,0.0
1676469337.901219,264,1676469337,899606704,odom,-0.0204542875289917,0.023267269134521484,0.05257179832458497,0.0,0.0,0.0
1676469337.911094,265,1676469337,909846544,odom,-0.021783113479614258,0.0264279842376709,0.050543277084827434,0.0,0.0,0.0
1676469337.9214094,266,1676469337,919755935,odom,-0.022677898406982422,0.028545618057250977,0.04927934315204621,0.0,0.0,0.0
1676469337.9314458,267,1676469337,929834127,odom,-0.023559927940368652,0.03041863441467285,0.04802578930854798,0.0,0.0,0.0
1676469337.9423249,268,1676469337,939611434,odom,-0.02475285530090332,0.033640146255493164,0.04613465843200684,0.0,0.0,0.0
1676469337.951287,269,1676469337,949639081,odom,-0.0254518985748291,0.03551912307739258,0.044607338118553164,0.0,0.0,0.0
1676469337.9622266,270,1676469337,960685968,odom,-0.026658177375793457,0.038591861724853516,0.04281651699543,0.0,0.0,0.0
1676469337.971072,271,1676469337,969582319,odom,-0.027422785758972168,0.04040098190307617,0.04155290331840515,0.0,0.0,0.0
1676469337.9827757,272,1676469337,979689359,odom,-0.028227925300598145,0.04225945472717285,0.0402109354019165,0.0,0.0,0.0
1676469337.991479,273,1676469337,990062952,odom,-0.029310226440429688,0.045006752014160156,0.038388297355175016,0.0,0.0,0.0
1676469338.0052545,274,1676469338,334739,odom,-0.029704928398132324,0.04590439796447754,0.037762517249584196,0.0,0.0,0.0
1676469338.0111248,275,1676469338,9633541,odom,-0.030788183212280273,0.048365116119384766,0.03585154883861542,0.0,0.0,0.0
1676469338.0216265,276,1676469338,19966602,odom,-0.03189504146575928,0.05101346969604492,0.03401834089756012,0.0,0.0,0.0
1676469338.0312922,277,1676469338,29663324,odom,-0.032602906227111816,0.052556753158569336,0.03272992023229599,0.0,0.0,0.0
1676469338.040899,278,1676469338,39568185,odom,-0.03351104259490967,0.05495715141296387,0.030884511137008665,0.0,0.0,0.0
1676469338.0515025,279,1676469338,49666643,odom,-0.034082770347595215,0.05649256706237793,0.02963402704000473,0.0,0.0,0.0
1676469338.0666053,280,1676469338,61450958,odom,-0.03472566604614258,0.0581052303314209,0.02838067688941956,0.0,0.0,0.0
1676469338.0726461,281,1676469338,69665908,odom,-0.03554737567901611,0.06025266647338867,0.026550200045108795,0.0,0.0,0.0
1676469338.0818164,282,1676469338,79711914,odom,-0.03594040870666504,0.061591148376464844,0.02525916466712952,0.0,0.0,0.0
1676469338.0909023,283,1676469338,89687347,odom,-0.036978960037231445,0.06368708610534668,0.02347577406167984,0.0,0.0,0.0
1676469338.102576,284,1676469338,100605726,odom,-0.037442564964294434,0.06501030921936035,0.022264311349391937,0.0,0.0,0.0
1676469338.1118715,285,1676469338,109711170,odom,-0.038208842277526855,0.06680440902709961,0.020398934936523436,0.0,0.0,0.0
1676469338.1212537,286,1676469338,119758605,odom,-0.0388486385345459,0.06805801391601562,0.01923147315979004,0.0,0.0,0.0
1676469338.130783,287,1676469338,129664421,odom,-0.039406776428222656,0.06937360763549805,0.01801234815120697,0.0,0.0,0.0
1676469338.1413822,288,1676469338,139657258,odom,-0.040073394775390625,0.07098078727722168,0.016210605609416957,0.0,0.0,0.0
1676469338.1508665,289,1676469338,149635076,odom,-0.04060637950897217,0.07199716567993164,0.015075333511829372,0.0,0.0,0.0
1676469338.1618774,290,1676469338,159885883,odom,-0.04107677936553955,0.07304954528808594,0.013744727265834804,0.0,0.0,0.0
1676469338.1711864,291,1676469338,170036315,odom,-0.041828036308288574,0.07454466819763184,0.012006227481365199,0.0,0.0,0.0
1676469338.1822982,292,1676469338,180113315,odom,-0.042653679847717285,0.07600045204162598,0.01026285318136215,0.0,0.0,0.0
1676469338.19162,293,1676469338,189895153,odom,-0.04303634166717529,0.07684731483459473,0.009072433340549468,0.0,0.0,0.0
1676469338.2019465,294,1676469338,199698209,odom,-0.04344332218170166,0.0778048038482666,0.00798797501325607,0.0,0.0,0.0
1676469338.2115266,295,1676469338,209716081,odom,-0.04381978511810303,0.07864499092102051,0.006768337261676789,0.0,0.0,0.0
1676469338.2213333,296,1676469338,219653367,odom,-0.04452800750732422,0.07995438575744629,0.0049906497359275825,0.0,0.0,0.0
1676469338.2322485,297,1676469338,229607105,odom,-0.04486191272735596,0.08074831962585449,0.003985380828380585,0.0,0.0,0.0
1676469338.24136,298,1676469338,239691257,odom,-0.04552888870239258,0.08165597915649414,0.002252252852916716,0.0,0.0,0.0
1676469338.2507422,299,1676469338,249637126,odom,-0.045861005783081055,0.08229851722717285,0.0011649258017539972,0.0,0.0,0.0
1676469338.2636187,300,1676469338,260379552,odom,-0.04637300968170166,0.0831758975982666,-0.0004305010914802572,0.0,0.0,0.0
1676469338.2721329,301,1676469338,269583702,odom,-0.046776533126831055,0.08370089530944824,-0.0014127885699272182,0.0,0.0,0.0
1676469338.2808058,302,1676469338,279647827,odom,-0.04716026782989502,0.0843048095703125,-0.002407156383991242,0.0,0.0,0.0
1676469338.2913654,303,1676469338,289656639,odom,-0.047585487365722656,0.08496236801147461,-0.0039020002961158776,0.0,0.0,0.0
1676469338.3019738,304,1676469338,299813032,odom,-0.04795432090759277,0.08534932136535645,-0.004921309888362889,0.0,0.0,0.0
1676469338.3126745,305,1676469338,310370445,odom,-0.048322200775146484,0.08591818809509277,-0.006340820658206944,0.0,0.0,0.0
1676469338.3211288,306,1676469338,319643020,odom,-0.048631906509399414,0.08626532554626465,-0.007255014479160316,0.0,0.0,0.0
1676469338.3316793,307,1676469338,329633712,odom,-0.0488433837890625,0.08662295341491699,-0.008218311154842384,0.0,0.0,0.0
1676469338.3414216,308,1676469338,339935064,odom,-0.04916679859161377,0.0870969295501709,-0.009507548415660864,0.0,0.0,0.0
1676469338.3511536,309,1676469338,349645376,odom,-0.049433231353759766,0.08743596076965332,-0.010411240184307103,0.0,0.0,0.0
1676469338.3629448,310,1676469338,359877109,odom,-0.04975736141204834,0.08783936500549316,-0.01189101740121842,0.0,0.0,0.0
1676469338.371791,311,1676469338,369609117,odom,-0.04998207092285156,0.08809566497802734,-0.012774048101902014,0.0,0.0,0.0
1676469338.3815794,312,1676469338,379898786,odom,-0.050205349922180176,0.0883328914642334,-0.013531336152553565,0.0,0.0,0.0
1676469338.3907185,313,1676469338,389605045,odom,-0.05049097537994385,0.08843040466308594,-0.01482622531652451,0.0,0.0,0.0
1676469338.401323,314,1676469338,399849414,odom,-0.05069160461425781,0.08854365348815918,-0.01577788411378861,0.0,0.0,0.0
1676469338.4115002,315,1676469338,409785032,odom,-0.05092799663543701,0.08866548538208008,-0.017023395049571996,0.0,0.0,0.0
1676469338.4213426,316,1676469338,419647216,odom,-0.05097556114196777,0.08875727653503418,-0.017818713033199315,0.0,0.0,0.0
1676469338.4309227,317,1676469338,429693937,odom,-0.05115699768066406,0.08873820304870605,-0.018638451945781717,0.0,0.0,0.0
1676469338.440657,318,1676469338,439626216,odom,-0.051466941833496094,0.08878731727600098,-0.01990715304613114,0.0,0.0,0.0
1676469338.451819,319,1676469338,449806928,odom,-0.05150341987609863,0.08886051177978516,-0.020698078787326817,0.0,0.0,0.0
1676469338.4632227,320,1676469338,460486888,odom,-0.051517367362976074,0.08886313438415527,-0.021884329068660745,0.0,0.0,0.0
1676469338.47171,321,1676469338,469638347,odom,-0.051521897315979004,0.08876800537109375,-0.02269817565679551,0.0,0.0,0.0
1676469338.480723,322,1676469338,479663133,odom,-0.05153965950012207,0.08869218826293945,-0.023555357921123513,0.0,0.0,0.0
1676469338.4922252,323,1676469338,489690542,odom,-0.051661014556884766,0.0885920524597168,-0.02450114792585373,0.0,0.0,0.0
1676469338.5007398,324,1676469338,499639749,odom,-0.051694393157958984,0.08843231201171875,-0.025174897348880777,0.0,0.0,0.0
1676469338.5118494,325,1676469338,510064601,odom,-0.05173838138580322,0.08823466300964355,-0.02582234593629838,0.0,0.0,0.0
1676469338.521603,326,1676469338,519824743,odom,-0.05183601379394531,0.08799576759338379,-0.02689979351758958,0.0,0.0,0.0
1676469338.5318139,327,1676469338,529602289,odom,-0.05182933807373047,0.08784246444702148,-0.027621543014049538,0.0,0.0,0.0
1676469338.5412292,328,1676469338,539607763,odom,-0.0517277717590332,0.08762240409851074,-0.028561589777469646,0.0,0.0,0.0
1676469338.551087,329,1676469338,549707174,odom,-0.051741957664489746,0.0874180793762207,-0.029071187984943403,0.0,0.0,0.0
1676469338.5657887,330,1676469338,561381816,odom,-0.05183875560760498,0.08716726303100586,-0.029932779514789596,0.0,0.0,0.0
1676469338.5709746,331,1676469338,569604158,odom,-0.05183589458465576,0.0870361328125,-0.030535013711452497,0.0,0.0,0.0
1676469338.5819325,332,1676469338,579652070,odom,-0.05182158946990967,0.08675217628479004,-0.03112487419843675,0.0,0.0,0.0
1676469338.5914505,333,1676469338,589714288,odom,-0.051720619201660156,0.08638858795166016,-0.031932681047916425,0.0,0.0,0.0
1676469338.600816,334,1676469338,599674701,odom,-0.05163073539733887,0.08620834350585938,-0.03248452373743059,0.0,0.0,0.0
1676469338.6119533,335,1676469338,609699487,odom,-0.0515751838684082,0.08602404594421387,-0.033021187102794655,0.0,0.0,0.0
1676469338.6235301,336,1676469338,620670318,odom,-0.05149698257446289,0.08577370643615723,-0.033724166643619546,0.0,0.0,0.0
1676469338.6364808,337,1676469338,630778074,odom,-0.051445722579956055,0.0855560302734375,-0.034219663321971905,0.0,0.0,0.0
1676469338.64252,338,1676469338,640782356,odom,-0.05144631862640381,0.08525323867797852,-0.03489928792715074,0.0,0.0,0.0
1676469338.6511424,339,1676469338,649664402,odom,-0.051458120346069336,0.08502030372619629,-0.03538490701913835,0.0,0.0,0.0
1676469338.663063,340,1676469338,660618782,odom,-0.05143547058105469,0.08477950096130371,-0.03583889657258989,0.0,0.0,0.0
1676469338.6717892,341,1676469338,669645071,odom,-0.05128681659698486,0.08444905281066895,-0.036503040444850934,0.0,0.0,0.0
1676469338.681942,342,1676469338,679629564,odom,-0.05128514766693115,0.08423614501953125,-0.03692559014558794,0.0,0.0,0.0
1676469338.6914403,343,1676469338,689673900,odom,-0.051209092140197754,0.08389782905578613,-0.03757331899404527,0.0,0.0,0.0
1676469338.702319,344,1676469338,699749231,odom,-0.05119061470031738,0.08358311653137207,-0.03802393234968188,0.0,0.0,0.0
1676469338.711104,345,1676469338,709621906,odom,-0.05113792419433594,0.08316206932067871,-0.03866826921701433,0.0,0.0,0.0
1676469338.7210922,346,1676469338,719746351,odom,-0.05113351345062256,0.08295011520385742,-0.0390755005002022,0.0,0.0,0.0
1676469338.7320096,347,1676469338,729647874,odom,-0.05110156536102295,0.08273673057556152,-0.03948672684431078,0.0,0.0,0.0
1676469338.7418654,348,1676469338,740009784,odom,-0.05115032196044922,0.08234620094299316,-0.04003633090257647,0.0,0.0,0.0
1676469338.7512224,349,1676469338,749999284,odom,-0.05117237567901611,0.08207821846008301,-0.04040862852334978,0.0,0.0,0.0
1676469338.7646065,350,1676469338,762135028,odom,-0.051114559173583984,0.08174943923950195,-0.04101569925546648,0.0,0.0,0.0
1676469338.7711148,351,1676469338,769749641,odom,-0.05116081237792969,0.0816035270690918,-0.041450906002521534,0.0,0.0,0.0
1676469338.7838488,352,1676469338,781396150,odom,-0.05115044116973877,0.08140420913696289,-0.04182331296205522,0.0,0.0,0.0
1676469338.7948985,353,1676469338,790765762,odom,-0.05108654499053955,0.08116865158081055,-0.042455757272243516,0.0,0.0,0.0
1676469338.802346,354,1676469338,800299882,odom,-0.05106055736541748,0.08103370666503906,-0.0428884460091591,0.0,0.0,0.0
1676469338.812727,355,1676469338,810663700,odom,-0.05101168155670166,0.08084225654602051,-0.04345424889326097,0.0,0.0,0.0
1676469338.8210242,356,1676469338,819637775,odom,-0.051001787185668945,0.08064913749694824,-0.04383794513940813,0.0,0.0,0.0
1676469338.8315718,357,1676469338,829601049,odom,-0.05098676681518555,0.08050227165222168,-0.04421183413267137,0.0,0.0,0.0
1676469338.842104,358,1676469338,840530395,odom,-0.050988197326660156,0.08034157752990723,-0.04477849248647691,0.0,0.0,0.0
1676469338.851501,359,1676469338,849626064,odom,-0.051007628440856934,0.08022880554199219,-0.04510120097398759,0.0,0.0,0.0
1676469338.8645258,360,1676469338,860667705,odom,-0.05105030536651611,0.08011841773986816,-0.0453664995789528,0.0,0.0,0.0
1676469338.873157,361,1676469338,870311737,odom,-0.05116546154022217,0.07995200157165527,-0.04580717447996141,0.0,0.0,0.0
1676469338.8821747,362,1676469338,880534887,odom,-0.05124366283416748,0.07987213134765625,-0.04611080783605577,0.0,0.0,0.0
1676469338.891339,363,1676469338,889711380,odom,-0.05129599571228027,0.07975435256958008,-0.04656363490819933,0.0,0.0,0.0
1676469338.9009037,364,1676469338,899760484,odom,-0.05136573314666748,0.07970142364501953,-0.04682517553567888,0.0,0.0,0.0
1676469338.9110992,365,1676469338,909912347,odom,-0.05142068862915039,0.07961225509643555,-0.04720567265748979,0.0,0.0,0.0
1676469338.9209156,366,1676469338,919646263,odom,-0.051453232765197754,0.07955479621887207,-0.04743996483087542,0.0,0.0,0.0
1676469338.93297,367,1676469338,929683685,odom,-0.051493167877197266,0.07946062088012695,-0.047657583630085,0.0,0.0,0.0
1676469338.9407449,368,1676469338,939647436,odom,-0.05154705047607422,0.07935523986816406,-0.04800762997865679,0.0,0.0,0.0
1676469338.951226,369,1676469338,949626445,odom,-0.05157434940338135,0.07936286926269531,-0.04826245559453966,0.0,0.0,0.0
1676469338.9625065,370,1676469338,960314989,odom,-0.051636457443237305,0.07936596870422363,-0.04844109565019609,0.0,0.0,0.0
1676469338.9713774,371,1676469338,969650506,odom,-0.05169522762298584,0.07930731773376465,-0.04871882706880572,0.0,0.0,0.0
1676469338.9813633,372,1676469338,979643106,odom,-0.05172252655029297,0.07925009727478027,-0.04892843972444537,0.0,0.0,0.0
1676469338.9911914,373,1676469338,989631414,odom,-0.05175960063934326,0.07923245429992676,-0.049192669403553026,0.0,0.0,0.0
1676469339.0011432,374,1676469338,999662160,odom,-0.05183219909667969,0.07926678657531738,-0.049354832017421746,0.0,0.0,0.0
1676469339.0110705,375,1676469339,9676456,odom,-0.0518566370010376,0.0793004035949707,-0.049614065897464775,0.0,0.0,0.0
1676469339.021586,376,1676469339,19665479,odom,-0.051869750022888184,0.07933664321899414,-0.049762706363201153,0.0,0.0,0.0
1676469339.0309148,377,1676469339,29584169,odom,-0.051923274993896484,0.07946300506591797,-0.049935875809192676,0.0,0.0,0.0
1676469339.040894,378,1676469339,39621591,odom,-0.05197620391845703,0.07959294319152832,-0.05016194602251055,0.0,0.0,0.0
1676469339.0525334,379,1676469339,49697399,odom,-0.052059173583984375,0.07963967323303223,-0.05031476658582689,0.0,0.0,0.0
1676469339.0622137,380,1676469339,59850931,odom,-0.052103281021118164,0.07972908020019531,-0.0504586382508278,0.0,0.0,0.0
1676469339.0718753,381,1676469339,69903850,odom,-0.05218100547790527,0.07985234260559082,-0.050699110472202324,0.0,0.0,0.0
1676469339.0821543,382,1676469339,80046653,odom,-0.05217874050140381,0.0799100399017334,-0.05088307698965075,0.0,0.0,0.0
1676469339.0917141,383,1676469339,90197801,odom,-0.052147865295410156,0.08004522323608398,-0.05116567131280902,0.0,0.0,0.0
1676469339.1009307,384,1676469339,99733352,odom,-0.05219006538391113,0.08013010025024414,-0.05130513013601305,0.0,0.0,0.0
1676469339.1116369,385,1676469339,109685182,odom,-0.05216836929321289,0.08014917373657227,-0.051514683783054384,0.0,0.0,0.0
1676469339.1225808,386,1676469339,119741439,odom,-0.052191853523254395,0.08029484748840332,-0.05175761977434161,0.0,0.0,0.0
1676469339.1310308,387,1676469339,129595756,odom,-0.05217576026916504,0.08046364784240723,-0.05192219630479815,0.0,0.0,0.0
1676469339.1407976,388,1676469339,139600276,odom,-0.05211925506591797,0.08063745498657227,-0.0521350209116936,0.0,0.0,0.0
1676469339.1513453,389,1676469339,149669885,odom,-0.05207622051239014,0.08078479766845703,-0.052269631755352035,0.0,0.0,0.0
1676469339.1635816,390,1676469339,159825086,odom,-0.05207645893096924,0.08085823059082031,-0.05239776786565783,0.0,0.0,0.0
1676469339.176179,391,1676469339,171231508,odom,-0.051938414573669434,0.08107447624206543,-0.052584215533733394,0.0,0.0,0.0
1676469339.1836169,392,1676469339,182134628,odom,-0.051863908767700195,0.08125042915344238,-0.05274405492544176,0.0,0.0,0.0
1676469339.1909711,393,1676469339,189607858,odom,-0.05177724361419678,0.08142948150634766,-0.05292966645956042,0.0,0.0,0.0
1676469339.2008407,394,1676469339,199562072,odom,-0.05169224739074707,0.08155155181884766,-0.05300078674554827,0.0,0.0,0.0
1676469339.211762,395,1676469339,210041761,odom,-0.05149126052856445,0.08176231384277344,-0.053209248912334466,0.0,0.0,0.0
1676469339.220991,396,1676469339,219611406,odom,-0.051442503929138184,0.08191800117492676,-0.05336383024454118,0.0,0.0,0.0
1676469339.2315395,397,1676469339,229617834,odom,-0.05139362812042236,0.08211755752563477,-0.05345040951967242,0.0,0.0,0.0
1676469339.240969,398,1676469339,239611148,odom,-0.051282644271850586,0.08257269859313965,-0.05347594062089923,0.0,0.0,0.0
1676469339.2520697,399,1676469339,249799489,odom,-0.051145076751708984,0.08262133598327637,-0.05358160604238513,0.0,0.0,0.0
1676469339.2650619,400,1676469339,259850263,odom,-0.05095982551574707,0.08280324935913086,-0.05374232109785082,0.0,0.0,0.0
1676469339.273111,401,1676469339,269659996,odom,-0.05081915855407715,0.08298015594482422,-0.05385983530282977,0.0,0.0,0.0
1676469339.2814105,402,1676469339,279970645,odom,-0.050609707832336426,0.08304834365844727,-0.053925145590305354,0.0,0.0,0.0
1676469339.292826,403,1676469339,289623737,odom,-0.050321221351623535,0.08319592475891113,-0.05404688802957538,0.0,0.0,0.0
1676469339.3012989,404,1676469339,299707889,odom,-0.0500645637512207,0.08306527137756348,-0.05431559759378435,0.0,0.0,0.0
1676469339.3108666,405,1676469339,309609889,odom,-0.04980301856994629,0.08322572708129883,-0.05443186737298968,0.0,0.0,0.0
1676469339.3211374,406,1676469339,319774389,odom,-0.049649715423583984,0.08332204818725586,-0.05447175344228747,0.0,0.0,0.0
1676469339.3314435,407,1676469339,329672336,odom,-0.049489617347717285,0.0833580493927002,-0.05450389548540118,0.0,0.0,0.0
1676469339.3409061,408,1676469339,339663982,odom,-0.04930686950683594,0.08342599868774414,-0.054589049518108404,0.0,0.0,0.0
1676469339.3510952,409,1676469339,349834442,odom,-0.0490880012512207,0.08347344398498535,-0.054648648917675055,0.0,0.0,0.0
1676469339.3628738,410,1676469339,360790491,odom,-0.04884505271911621,0.08349418640136719,-0.0546864057183266,0.0,0.0,0.0
1676469339.3719904,411,1676469339,369643926,odom,-0.048683762550354004,0.08345556259155273,-0.05470339816808704,0.0,0.0,0.0
1676469339.3813708,412,1676469339,379663467,odom,-0.048528075218200684,0.08344721794128418,-0.05476456316709521,0.0,0.0,0.0
1676469339.3932803,413,1676469339,389789342,odom,-0.04826962947845459,0.08339071273803711,-0.054841085064411196,0.0,0.0,0.0
1676469339.4011176,414,1676469339,399859428,odom,-0.04810643196105957,0.08332943916320801,-0.05490041943788531,0.0,0.0,0.0
1676469339.411072,415,1676469339,409629583,odom,-0.04779672622680664,0.08320832252502441,-0.05498874977827074,0.0,0.0,0.0
1676469339.4225132,416,1676469339,419711828,odom,-0.04760730266571045,0.0831289291381836,-0.0550690409779549,0.0,0.0,0.0
1676469339.431417,417,1676469339,429595232,odom,-0.047432661056518555,0.0829935073852539,-0.05514656041860583,0.0,0.0,0.0
1676469339.440826,418,1676469339,439702272,odom,-0.047139883041381836,0.08276486396789551,-0.055273540866375,0.0,0.0,0.0
1676469339.4549155,419,1676469339,451815605,odom,-0.04695582389831543,0.08262014389038086,-0.05540923360586168,0.0,0.0,0.0
1676469339.4616885,420,1676469339,459949254,odom,-0.0467759370803833,0.08243012428283691,-0.055507297527790087,0.0,0.0,0.0
1676469339.472999,421,1676469339,470713615,odom,-0.04648232460021973,0.08206319808959961,-0.05571000729799273,0.0,0.0,0.0
1676469339.4815416,422,1676469339,479786157,odom,-0.0463331937789917,0.08177638053894043,-0.05582814508676531,0.0,0.0,0.0
1676469339.490914,423,1676469339,489619016,odom,-0.04608118534088135,0.0813760757446289,-0.05592414821386339,0.0,0.0,0.0
1676469339.5011604,424,1676469339,499614000,odom,-0.045906782150268555,0.08113503456115723,-0.056004829680919674,0.0,0.0,0.0
1676469339.5127373,425,1676469339,509960412,odom,-0.0456770658493042,0.08080935478210449,-0.05602260102033617,0.0,0.0,0.0
1676469339.5219915,426,1676469339,519838094,odom,-0.04534709453582764,0.0803534984588623,-0.05604564107656481,0.0,0.0,0.0
1676469339.530924,427,1676469339,529600143,odom,-0.04511713981628418,0.0800778865814209,-0.056057366907596606,0.0,0.0,0.0
1676469339.5420706,428,1676469339,539719343,odom,-0.044753193855285645,0.07957196235656738,-0.055946332967281354,0.0,0.0,0.0
1676469339.5525012,429,1676469339,549649953,odom,-0.044477105140686035,0.07915282249450684,-0.05584626296758654,0.0,0.0,0.0
1676469339.5633478,430,1676469339,559739828,odom,-0.04423034191131592,0.07866311073303223,-0.055688497102260606,0.0,0.0,0.0
1676469339.5743213,431,1676469339,570836544,odom,-0.0439373254776001,0.07795906066894531,-0.055443568408489255,0.0,0.0,0.0
1676469339.5808632,432,1676469339,579637289,odom,-0.04373455047607422,0.07750272750854492,-0.05531340976953508,0.0,0.0,0.0
1676469339.5912468,433,1676469339,589603662,odom,-0.04348015785217285,0.07675838470458984,-0.05501224404573442,0.0,0.0,0.0
1676469339.6010747,434,1676469339,599621534,odom,-0.04336893558502197,0.07611751556396484,-0.05468230489492418,0.0,0.0,0.0
1676469339.6107218,435,1676469339,609600543,odom,-0.04302620887756348,0.07524585723876953,-0.05419819179773333,0.0,0.0,0.0
1676469339.6209345,436,1676469339,619690179,odom,-0.04281771183013916,0.0747525691986084,-0.05386364935636522,0.0,0.0,0.0
1676469339.631534,437,1676469339,629614114,odom,-0.04264652729034424,0.07412004470825195,-0.053397251045703906,0.0,0.0,0.0
1676469339.6411316,438,1676469339,639661788,odom,-0.04239976406097412,0.07318282127380371,-0.052779116857051875,0.0,0.0,0.0
1676469339.6509867,439,1676469339,649635314,odom,-0.042214035987854004,0.07258915901184082,-0.05243822885751726,0.0,0.0,0.0
1676469339.664458,440,1676469339,660098552,odom,-0.042054176330566406,0.07195925712585449,-0.052124818980693835,0.0,0.0,0.0
1676469339.6722217,441,1676469339,669621467,odom,-0.04179990291595459,0.0709986686706543,-0.05159508713483813,0.0,0.0,0.0
1676469339.6812887,442,1676469339,679820537,odom,-0.04165613651275635,0.07025837898254395,-0.05122049201726916,0.0,0.0,0.0
1676469339.6908858,443,1676469339,689601898,odom,-0.04141247272491455,0.06926321983337402,-0.05077323740720752,0.0,0.0,0.0
1676469339.7015216,444,1676469339,699903011,odom,-0.041193246841430664,0.06859803199768066,-0.05048393491506579,0.0,0.0,0.0
1676469339.7115386,445,1676469339,709710836,odom,-0.04096496105194092,0.06761622428894043,-0.05007178057432178,0.0,0.0,0.0
1676469339.7212238,446,1676469339,719740152,odom,-0.040773987770080566,0.06688332557678223,-0.04983742870092395,0.0,0.0,0.0
1676469339.7315276,447,1676469339,729640483,odom,-0.04053056240081787,0.06609439849853516,-0.04960501366853717,0.0,0.0,0.0
1676469339.7412724,448,1676469339,739839076,odom,-0.04024863243103027,0.06482481956481934,-0.049207760488987,0.0,0.0,0.0
1676469339.7518277,449,1676469339,749676704,odom,-0.04003119468688965,0.0640709400177002,-0.04899528926610949,0.0,0.0,0.0
1676469339.7627258,450,1676469339,760704517,odom,-0.03987467288970947,0.06337094306945801,-0.048831260478496584,0.0,0.0,0.0
1676469339.771465,451,1676469339,769638538,odom,-0.03972804546356201,0.06230807304382324,-0.0485534083247185,0.0,0.0,0.0
1676469339.780754,452,1676469339,779654026,odom,-0.03954613208770752,0.06152200698852539,-0.04841263619661334,0.0,0.0,0.0
1676469339.795372,453,1676469339,789637804,odom,-0.039247751235961914,0.060170650482177734,-0.048241590702533754,0.0,0.0,0.0
1676469339.8011155,454,1676469339,799648046,odom,-0.03900718688964844,0.059374094009399414,-0.04819122856855396,0.0,0.0,0.0
1676469339.8142648,455,1676469339,809961795,odom,-0.038762569427490234,0.058176517486572266,-0.048036067879200006,0.0,0.0,0.0
1676469339.8236628,456,1676469339,821875572,odom,-0.038564443588256836,0.05739855766296387,-0.047938047134876274,0.0,0.0,0.0
1676469339.8325462,457,1676469339,830609083,odom,-0.03831362724304199,0.05655479431152344,-0.047905088722705866,0.0,0.0,0.0
1676469339.8421855,458,1676469339,840601444,odom,-0.038098931312561035,0.0552830696105957,-0.04784235516786578,0.0,0.0,0.0
1676469339.8508015,459,1676469339,849597215,odom,-0.037972331047058105,0.05445742607116699,-0.04777045177221301,0.0,0.0,0.0
1676469339.8620522,460,1676469339,859900474,odom,-0.03781771659851074,0.05362224578857422,-0.04770069042444232,0.0,0.0,0.0
1676469339.8721166,461,1676469339,869630098,odom,-0.037523508071899414,0.052474260330200195,-0.04757680827379229,0.0,0.0,0.0
1676469339.8814921,462,1676469339,879606723,odom,-0.03733336925506592,0.051749467849731445,-0.04757346907854083,0.0,0.0,0.0
1676469339.8963463,463,1676469339,890812158,odom,-0.03733336925506592,0.051749467849731445,-0.04759213253259661,0.0,0.0,0.0
1676469339.9033153,464,1676469339,901254653,odom,-0.03724324703216553,0.05137467384338379,-0.04757375196218493,0.0,0.0,0.0
1676469339.911704,465,1676469339,909898042,odom,-0.03676867485046387,0.04913473129272461,-0.04733945068120959,0.0,0.0,0.0
1676469339.9210663,466,1676469339,919779539,odom,-0.03676867485046387,0.04913473129272461,-0.04735802491903307,0.0,0.0,0.0
1676469339.9359524,467,1676469339,931037902,odom,-0.03676867485046387,0.04913473129272461,-0.04737659915685656,0.0,0.0,0.0
1676469339.9466174,468,1676469339,941819906,odom,-0.03660094738006592,0.0484461784362793,-0.047257072031497975,0.0,0.0,0.0
1676469339.962545,469,1676469339,955454349,odom,-0.035706400871276855,0.045537471771240234,-0.04690299359560014,0.0,0.0,0.0
1676469339.9696014,470,1676469339,967856884,odom,-0.03517413139343262,0.04404449462890625,-0.04651501141786577,0.0,0.0,0.0
1676469339.976333,471,1676469339,972216367,odom,-0.03517413139343262,0.04404449462890625,-0.04653330351114275,0.0,0.0,0.0
1676469339.9820075,472,1676469339,980626344,odom,-0.03489053249359131,0.04334616661071777,-0.04629709230661394,0.0,0.0,0.0
1676469339.9925406,473,1676469339,989661216,odom,-0.03451502323150635,0.04222273826599121,-0.04589061728715898,0.0,0.0,0.0
1676469340.001696,474,1676469339,999622583,odom,-0.0343172550201416,0.04157829284667969,-0.045630637753009816,0.0,0.0,0.0
1676469340.011425,475,1676469340,9937524,odom,-0.03417336940765381,0.04088568687438965,-0.045335543596744556,0.0,0.0,0.0
1676469340.0226007,476,1676469340,19954442,odom,-0.03387761116027832,0.040026187896728516,-0.044928911054134386,0.0,0.0,0.0
1676469340.0308867,477,1676469340,29605865,odom,-0.033635497093200684,0.039415836334228516,-0.04464474967718126,0.0,0.0,0.0
1676469340.0408223,478,1676469340,39593458,odom,-0.03324759006500244,0.03852725028991699,-0.04408320771455766,0.0,0.0,0.0
1676469340.054406,479,1676469340,49907922,odom,-0.032962679862976074,0.0379636287689209,-0.04376219621896745,0.0,0.0,0.0
1676469340.0638864,480,1676469340,59743881,odom,-0.032537221908569336,0.03708338737487793,-0.04323028613328935,0.0,0.0,0.0
1676469340.0708387,481,1676469340,69609880,odom,-0.0321962833404541,0.0365147590637207,-0.04288745707273485,0.0,0.0,0.0
1676469340.0813959,482,1676469340,79726934,odom,-0.03192579746246338,0.03608417510986328,-0.04254265729188921,0.0,0.0,0.0
1676469340.0914972,483,1676469340,89710950,odom,-0.03149712085723877,0.03572535514831543,-0.04196649225950243,0.0,0.0,0.0
1676469340.1012535,484,1676469340,99685907,odom,-0.03132784366607666,0.03499603271484375,-0.04168541196584703,0.0,0.0,0.0
1676469340.111119,485,1676469340,109648942,odom,-0.0309145450592041,0.034427642822265625,-0.041218089926242846,0.0,0.0,0.0
1676469340.1253417,486,1676469340,121370792,odom,-0.03065800666809082,0.03407788276672363,-0.04093273917436602,0.0,0.0,0.0
1676469340.1316218,487,1676469340,130114078,odom,-0.030398964881896973,0.03365826606750488,-0.04060312169790269,0.0,0.0,0.0
1676469340.1407363,488,1676469340,139557361,odom,-0.02997756004333496,0.033196210861206055,-0.04021558426618578,0.0,0.0,0.0
1676469340.1530116,489,1676469340,149618864,odom,-0.02967393398284912,0.032918691635131836,-0.040021202480793015,0.0,0.0,0.0
