Time,header.seq,header.stamp.secs,header.stamp.nsecs,header.frame_id,vector.x,vector.y,vector.z
1676469335.3084419,1,1676469335,300354957,,23.823569586602947,22.46809277803512,0.0
1676469335.319669,2,1676469335,312696218,,23.806714569821057,22.400995760822006,0.0
1676469335.3222725,3,1676469335,320562839,,23.811874441162814,22.396327165185482,0.0
1676469335.3321536,4,1676469335,326418399,,23.811874441162814,22.396327165185482,0.0
1676469335.335722,5,1676469335,333224534,,23.76365851381781,22.47966622991251,0.0
1676469335.3429348,6,1676469335,340324640,,23.757103971068616,22.48851278286838,0.0
1676469335.3531892,7,1676469335,350052595,,23.748320652886022,22.49953651266603,0.0
1676469335.3652534,8,1676469335,362559318,,23.75480102592463,22.490572557691085,0.0
1676469335.3738828,9,1676469335,369969844,,23.695400192731164,22.61697990152893,0.0
1676469335.3830771,10,1676469335,380617141,,23.679679978439665,22.639281601796597,0.0
1676469335.3923411,11,1676469335,390038728,,23.664918395026945,22.651936549104484,0.0
1676469335.4021149,12,1676469335,400051116,,23.631990893411,22.289336664929216,0.0
1676469335.4172554,13,1676469335,410143852,,23.64323028330893,22.24479601346802,0.0
1676469335.4215908,14,1676469335,419926643,,23.644494458834583,22.2115567433114,0.0
1676469335.4365258,15,1676469335,432140827,,23.525308564883886,20.090016245506348,0.0
1676469335.4413974,16,1676469335,440086841,,23.51655313018077,20.00207672460052,0.0
1676469335.4523702,17,1676469335,450031280,,23.516016158733482,19.919428538541325,0.0
1676469335.4663541,18,1676469335,462078571,,23.750702573437117,18.222196785407156,0.0
1676469335.4720275,19,1676469335,470103263,,23.753660969658092,18.119268985309535,0.0
1676469335.4824393,20,1676469335,479964733,,23.79012733574043,17.942041885597565,0.0
1676469335.4926786,21,1676469335,490128993,,23.80081488467084,17.769646743306847,0.0
1676469335.5023277,22,1676469335,500056982,,24.150747560586098,17.221097564808215,0.0
1676469335.5127077,23,1676469335,510007619,,24.196567923481382,16.987732757062513,0.0
1676469335.5221064,24,1676469335,520062446,,24.24098141272411,16.812523909959527,0.0
1676469335.531566,25,1676469335,529995679,,24.35466118147964,17.007039653615184,0.0
1676469335.5419464,26,1676469335,539981842,,24.343710210420777,16.911429577843183,0.0
1676469335.551837,27,1676469335,550032377,,24.3800256012758,16.768414318513408,0.0
1676469335.5627575,28,1676469335,560074090,,24.219482889924127,18.28648213220994,0.0
1676469335.572199,29,1676469335,570033311,,24.221483232932314,18.201605894332783,0.0
1676469335.5829034,30,1676469335,580485343,,24.235432650417433,18.130331672213703,0.0
1676469335.5930822,31,1676469335,590054512,,24.23631629799855,18.075071075231367,0.0
1676469335.6022441,32,1676469335,600121259,,23.858984115869216,19.231350276307968,0.0
1676469335.612974,33,1676469335,610107660,,23.84497845672603,19.227363236963242,0.0
1676469335.6246934,34,1676469335,620129346,,23.822145914586013,19.23633571822338,0.0
1676469335.6317809,35,1676469335,630098104,,23.89415917415607,20.247281529255385,0.0
1676469335.6419427,36,1676469335,640033483,,23.874546263939116,20.271922911455714,0.0
1676469335.6520226,37,1676469335,650280475,,23.859021398786584,20.298429047749142,0.0
1676469335.6650388,38,1676469335,660319328,,23.85873512229893,20.308859276184023,0.0
1676469335.6727092,39,1676469335,670382738,,23.9248347837185,20.731798152602636,0.0
1676469335.6820729,40,1676469335,680128097,,23.92763825377512,20.73498507876734,0.0
1676469335.6914132,41,1676469335,690021276,,23.9221346573976,20.758670027536002,0.0
1676469335.7027044,42,1676469335,700175762,,23.93417715493134,20.625299891297395,0.0
1676469335.7126696,43,1676469335,710161209,,23.936785693481934,20.627916798297857,0.0
1676469335.7224562,44,1676469335,720132350,,23.928822734490918,20.648244997421877,0.0
1676469335.7323985,45,1676469335,730027198,,23.882072418021675,20.264888713523987,0.0
1676469335.7421129,46,1676469335,739986658,,23.87483039019037,20.27214629546648,0.0
1676469335.751984,47,1676469335,750057697,,23.871851193279948,20.270840257378634,0.0
1676469335.763612,48,1676469335,761487722,,23.873060532315392,20.00381915952073,0.0
1676469335.775477,49,1676469335,770111322,,23.866715426925936,20.001217607860482,0.0
1676469335.7816508,50,1676469335,780138731,,23.867677149644948,19.99306165011543,0.0
1676469335.7926054,51,1676469335,790085554,,23.8588617477312,19.98759433600258,0.0
1676469335.8029504,52,1676469335,800445079,,23.839089947504306,19.85872695222769,0.0
1676469335.812217,53,1676469335,810042858,,23.8364748433387,19.842948032777485,0.0
1676469335.8218994,54,1676469335,819989681,,23.823600868966448,19.847112961041816,0.0
1676469335.8365803,55,1676469335,830185413,,23.79474517603464,20.02875675500335,0.0
1676469335.8423476,56,1676469335,839936256,,23.782280419791647,20.033517896024822,0.0
1676469335.852312,57,1676469335,850583553,,23.78076280940107,20.02205094743578,0.0
1676469335.8648605,58,1676469335,861816644,,23.831941780606943,20.080508985508093,0.0
1676469335.8725643,59,1676469335,870221376,,23.82840578874275,20.072426565580855,0.0
1676469335.8814867,60,1676469335,880014419,,23.82214103899598,20.066530656770365,0.0
1676469335.8914413,61,1676469335,890001058,,23.820031407540192,20.06034862115107,0.0
1676469335.9020548,62,1676469335,900017738,,23.808067203161375,20.132982699804863,0.0
1676469335.9123085,63,1676469335,910139322,,23.803830408441122,20.12985438681768,0.0
1676469335.9231415,64,1676469335,921072721,,23.81506022976939,20.100118831724796,0.0
1676469335.9323406,65,1676469335,930190324,,23.74663934903411,20.087750155163633,0.0
1676469335.9420025,66,1676469335,940071105,,23.74537835617457,20.07544390178645,0.0
1676469335.9525554,67,1676469335,949978828,,23.749368001565873,20.061719318278474,0.0
1676469335.9664807,68,1676469335,962772130,,23.615727128531212,20.01106455426893,0.0
1676469335.9763577,69,1676469335,970865488,,23.61264695870676,20.002753501472668,0.0
1676469335.9824238,70,1676469335,980502605,,23.613570317441127,19.994588517213966,0.0
1676469335.9925518,71,1676469335,990025997,,23.55775859573411,20.063765422973095,0.0
1676469336.0020108,72,1676469336,66280,,23.028111895475625,19.58727635487154,0.0
1676469336.0158353,73,1676469336,9993314,,22.82234024078127,19.71279302196648,0.0
1676469336.0222805,74,1676469336,20205736,,22.780249258076324,19.51277764058459,0.0
1676469336.0323725,75,1676469336,30062198,,17.136889699529316,15.068431856615195,0.0
1676469336.0417194,76,1676469336,40071249,,16.95977742673744,14.706869689809718,0.0
1676469336.0523179,77,1676469336,50066471,,16.83259284555209,14.463867124055312,0.0
1676469336.0664234,78,1676469336,61957597,,16.66755358681285,14.11665378445254,0.0
1676469336.0723166,79,1676469336,70230007,,14.990956165343729,12.183516657229257,0.0
1676469336.0821981,80,1676469336,80217361,,14.8528184071221,12.017029968772398,0.0
1676469336.0964675,81,1676469336,90150356,,14.5857043532438,11.793646939935202,0.0
1676469336.1023118,82,1676469336,99914550,,9.589794327103506,9.035606106455988,0.0
1676469336.1136088,83,1676469336,110273838,,9.215703319451482,8.817728865882273,0.0
1676469336.1228979,84,1676469336,120794296,,8.946790485636514,8.651977107105898,0.0
1676469336.1320872,85,1676469336,130019426,,2.094261998289974,3.4361306838784342,0.0
1676469336.1423538,86,1676469336,140024900,,1.6198753150049583,3.158507224689002,0.0
1676469336.1531575,87,1676469336,150157213,,1.2960084710470867,2.9614154399028676,0.0
1676469336.1627119,88,1676469336,160130262,,0.956481945012163,2.752191095587201,0.0
1676469336.1734543,89,1676469336,170067548,,-2.2328731756536193,-0.00287065908461572,0.0
1676469336.1822412,90,1676469336,180191516,,-2.569726368822124,-0.22511614217650006,0.0
1676469336.1919968,91,1676469336,190045356,,-3.0808396892047685,-0.5703874487524145,0.0
1676469336.2016282,92,1676469336,200140714,,-4.882026730615723,-1.6047410701789182,0.0
1676469336.2176366,93,1676469336,210213184,,-5.24227547801163,-1.8475698269277268,0.0
1676469336.2222176,94,1676469336,220483303,,-5.769767429126876,-2.2291824299555936,0.0
1676469336.232223,95,1676469336,229896306,,-6.698147452926245,-2.867458616962765,0.0
1676469336.241473,96,1676469336,240127563,,-7.231614172131952,-3.264869961568725,0.0
1676469336.252549,97,1676469336,250185489,,-7.5934133600319225,-3.52352994392881,0.0
1676469336.2665217,98,1676469336,260528802,,-8.13536907458432,-3.9205272923711045,0.0
1676469336.2732387,99,1676469336,270420312,,-8.88925278237487,-4.365217142498273,0.0
1676469336.2819304,100,1676469336,280054092,,-9.261281839962034,-4.639377783852041,0.0
1676469336.29189,101,1676469336,290080070,,-9.821207631414557,-5.02425370780264,0.0
1676469336.30313,102,1676469336,300731658,,-10.45938470699129,-5.627287094004739,0.0
1676469336.312909,103,1676469336,310013294,,-11.024847984824625,-6.048723028783768,0.0
1676469336.322329,104,1676469336,320147991,,-11.415464183448513,-6.31710368773539,0.0
1676469336.3345945,105,1676469336,330208778,,-11.993578234566582,-6.796328671858025,0.0
1676469336.342838,106,1676469336,340663909,,-12.555597343055334,-7.241773589673621,0.0
1676469336.3523388,107,1676469336,350194692,,-12.952367946386659,-7.5128769880992365,0.0
1676469336.3642752,108,1676469336,361494064,,-13.354485398167002,-7.763729590521978,0.0
1676469336.3749096,109,1676469336,370115518,,-13.532502926832269,-7.943781410679791,0.0
1676469336.3823934,110,1676469336,380436897,,-14.092152058933296,-8.38283737385006,0.0
1676469336.3914974,111,1676469336,390020608,,-14.653143231116646,-8.807861093713962,0.0
1676469336.4019928,112,1676469336,400070190,,-14.518864534484566,-7.9781035260653255,0.0
1676469336.417377,113,1676469336,410761833,,-14.913419156876314,-8.224224751997891,0.0
1676469336.4222515,114,1676469336,420424222,,-15.82400682727147,-8.858442991939398,0.0
1676469336.4339657,115,1676469336,430016994,,-15.082546735189366,-8.25100586851712,0.0
1676469336.4420605,116,1676469336,440038204,,-15.616548950259167,-8.629915100603787,0.0
1676469336.4534922,117,1676469336,450332880,,-15.98001140948103,-8.873260441495063,0.0
1676469336.4675202,118,1676469336,460402965,,-16.499551558654808,-9.228589669603453,0.0
1676469336.4737768,119,1676469336,470510005,,-15.582606560280967,-8.404600807163417,0.0
1676469336.4824867,120,1676469336,480125904,,-15.9262290112826,-8.627101598055253,0.0
1676469336.4919217,121,1676469336,490111589,,-16.392826443052325,-9.015536288504615,0.0
1676469336.5028756,122,1676469336,500036239,,-15.05892053345722,-8.089789168628915,0.0
1676469336.512257,123,1676469336,510119915,,-15.516909629254359,-8.39823128913412,0.0
1676469336.5219533,124,1676469336,520040512,,-15.803257718750265,-8.655660384744799,0.0
1676469336.5323308,125,1676469336,530133008,,-14.411513625446991,-7.021219366068462,0.0
1676469336.5421484,126,1676469336,540177345,,-14.819197062215945,-7.3406134417057745,0.0
1676469336.551899,127,1676469336,550068378,,-15.102695565780943,-7.52705938160859,0.0
1676469336.5639045,128,1676469336,561878681,,-14.000011671090913,-6.61948860517729,0.0
1676469336.5737796,129,1676469336,570163726,,-14.268471374979415,-6.761792488359498,0.0
1676469336.582463,130,1676469336,580147266,,-14.520608281058163,-6.9544287821572635,0.0
1676469336.591588,131,1676469336,590029239,,-14.834522579962984,-7.384353919610077,0.0
1676469336.6021867,132,1676469336,600071907,,-13.79823493768268,-5.997995797719353,0.0
1676469336.6122801,133,1676469336,610271453,,-14.039497277523163,-6.130654846256604,0.0
1676469336.6231453,134,1676469336,620121002,,-14.346566898757674,-6.386800293795743,0.0
1676469336.63488,135,1676469336,631220579,,-12.492765577892712,-5.118223791622242,0.0
1676469336.6423824,136,1676469336,640288114,,-12.784488547152366,-5.304946509213898,0.0
1676469336.6549778,137,1676469336,650196313,,-12.975888223140503,-5.444881489745946,0.0
1676469336.6638603,138,1676469336,661890268,,-11.984168005270913,-4.503232098112952,0.0
1676469336.6722994,139,1676469336,669979572,,-12.159207951973638,-4.6181592209903535,0.0
1676469336.681871,140,1676469336,680045127,,-12.328200654843807,-4.7227478900171285,0.0
1676469336.6963034,141,1676469336,690016984,,-12.555275220303038,-4.880142339719526,0.0
1676469336.7021592,142,1676469336,700081110,,-11.421427685230027,-3.8581966855889562,0.0
1676469336.713958,143,1676469336,710301160,,-11.560471440914187,-3.9637360026375426,0.0
1676469336.7220564,144,1676469336,720135927,,-11.74945438896048,-4.094466506247091,0.0
1676469336.7319481,145,1676469336,730106830,,-9.607374888889614,-2.9450472275169646,0.0
1676469336.7420936,146,1676469336,740158557,,-9.764040064758515,-3.0592259836344797,0.0
1676469336.7525344,147,1676469336,750123739,,-9.861440043554053,-3.14739621534055,0.0
1676469336.7652462,148,1676469336,762735366,,-9.99173285865115,-3.2405046903341854,0.0
1676469336.7767112,149,1676469336,770800828,,-8.86248161926157,-2.194670302607607,0.0
1676469336.7826834,150,1676469336,780122518,,-8.936298520161678,-2.2493703518672836,0.0
1676469336.791817,151,1676469336,790075063,,-9.037893264947314,-2.3398850490506176,0.0
1676469336.801993,152,1676469336,800032138,,-7.578383504346544,-1.4323359998849887,0.0
1676469336.8144822,153,1676469336,810140371,,-7.651761147414567,-1.5061704089027057,0.0
1676469336.8216732,154,1676469336,820078611,,-7.691715665415534,-1.5545201243305962,0.0
1676469336.8350778,155,1676469336,830100536,,-6.22544272490674,-0.24991509087411454,0.0
1676469336.841945,156,1676469336,840054273,,-6.2585374200617805,-0.3029936813981983,0.0
1676469336.8521955,157,1676469336,850080490,,-6.277414999692935,-0.3488292650242753,0.0
1676469336.865977,158,1676469336,862190008,,-4.96604220490106,0.24959614654099357,0.0
1676469336.8738801,159,1676469336,870267391,,-4.970207076039366,0.22312588193494945,0.0
1676469336.8819103,160,1676469336,880050182,,-4.968806645468731,0.1962713531722671,0.0
1676469336.8939433,161,1676469336,890104055,,-4.958101201131665,0.15163902659180392,0.0
1676469336.9027586,162,1676469336,900536537,,-3.920375918439224,0.5423853811314909,0.0
1676469336.912612,163,1676469336,910580635,,-3.903853766284696,0.5178759193130024,0.0
1676469336.9216344,164,1676469336,920016288,,-3.879393548849035,0.4960569676020173,0.0
1676469336.9331224,165,1676469336,930194377,,-2.647035333734802,1.410741770613495,0.0
1676469336.9422517,166,1676469336,940125942,,-2.5885267904467866,1.3836189675126664,0.0
1676469336.951816,167,1676469336,950072526,,-2.547487541495841,1.374163053648135,0.0
1676469336.9627736,168,1676469336,960863828,,-1.623435061230117,1.5898240073073615,0.0
1676469336.972216,169,1676469336,970054149,,-1.5771020179299204,1.5722566679855419,0.0
1676469336.9821458,170,1676469336,980464220,,-1.5243798680501652,1.560399640929153,0.0
1676469336.993107,171,1676469336,990059852,,-1.4400144601787803,1.5374965643253002,0.0
1676469337.0095584,172,1676469337,6045579,,-0.8621249706404641,1.6029870567398816,0.0
1676469337.016259,173,1676469337,10809183,,-0.8045950196829119,1.590707549756736,0.0
1676469337.0221088,174,1676469337,20003795,,-0.7133262335265571,1.5708595838751964,0.0
1676469337.032116,175,1676469337,30058145,,0.23797314856109786,1.9881523888867199,0.0
1676469337.04222,176,1676469337,40140390,,0.338729987089114,1.9658940120228146,0.0
1676469337.051687,177,1676469337,50024509,,0.4102966664424265,1.9559608799158608,0.0
1676469337.0654018,178,1676469337,60721397,,0.5232902858358245,1.9290207227278104,0.0
1676469337.0754898,179,1676469337,70159673,,0.9456568597957224,1.9305758302778082,0.0
1676469337.082787,180,1676469337,80447435,,1.0198870035250083,1.9147003195265482,0.0
1676469337.0926626,181,1676469337,90647220,,1.134186155726052,1.8798944756806422,0.0
1676469337.102168,182,1676469337,100393533,,1.3033002356073755,1.8927786488117693,0.0
1676469337.114001,183,1676469337,110165596,,1.3823797228198678,1.8687924717756974,0.0
1676469337.1240962,184,1676469337,120214462,,1.4923512150854235,1.847666983342278,0.0
1676469337.1380954,185,1676469337,132927894,,1.730088422204348,1.9294135166741444,0.0
1676469337.148186,186,1676469337,142529487,,1.846287239141573,1.896862911813671,0.0
1676469337.1516035,187,1676469337,150068283,,1.9238775590953285,1.874500546078102,0.0
1676469337.1647878,188,1676469337,161892890,,2.0703727375325998,1.6532155904497157,0.0
1676469337.1757288,189,1676469337,170075416,,2.1455162806112997,1.621215728395527,0.0
1676469337.1859457,190,1676469337,181199550,,2.2172041698744334,1.5973010701760242,0.0
1676469337.1959636,191,1676469337,190340280,,2.3226074050948258,1.5505592185571506,0.0
1676469337.202311,192,1676469337,200296163,,2.208155908129958,1.394038278992714,0.0
1676469337.2128546,193,1676469337,210398674,,2.279185397812413,1.3607170555496937,0.0
1676469337.2229443,194,1676469337,220148324,,2.3741153029065636,1.3158686402993736,0.0
1676469337.233289,195,1676469337,230127573,,2.1972746832578713,1.163697783447725,0.0
1676469337.2426598,196,1676469337,240129470,,2.2856501358975074,1.1289379143435003,0.0
1676469337.2532766,197,1676469337,250093460,,2.347419077330233,1.089500301710412,0.0
1676469337.2656794,198,1676469337,260289430,,2.2344838537392917,0.9154232947008002,0.0
1676469337.272858,199,1676469337,270000457,,2.312633171474992,0.8716657267527528,0.0
1676469337.2821467,200,1676469337,279988527,,2.365542482830677,0.8339488160290994,0.0
1676469337.2932844,201,1676469337,290009498,,2.4397456299710525,0.7692078226809127,0.0
1676469337.3025413,202,1676469337,300296783,,2.25344723594535,0.6465177305292025,0.0
1676469337.3123107,203,1676469337,310336589,,2.2967455971697697,0.6079826431263559,0.0
1676469337.3222039,204,1676469337,320127964,,2.3528195311459,0.5509520976190824,0.0
1676469337.3335419,205,1676469337,330024480,,1.8632958809795706,0.4015561044620172,0.0
1676469337.345442,206,1676469337,340754747,,1.908579450440406,0.34004465134355105,0.0
1676469337.3550236,207,1676469337,350281000,,1.9364273564228536,0.29830366171481504,0.0
1676469337.3658717,208,1676469337,361060142,,1.6270802182767432,0.21097075110381516,0.0
1676469337.3758655,209,1676469337,370275735,,1.6509816901043635,0.16448861504022244,0.0
1676469337.385243,210,1676469337,380480766,,1.6703862830056222,0.12227025988057418,0.0
1676469337.393007,211,1676469337,390172481,,1.694511886294786,0.05433088900517488,0.0
1676469337.4021962,212,1676469337,400272130,,1.3891204321963597,-0.07842216316576786,0.0
1676469337.4134939,213,1676469337,410142183,,1.4004512096056367,-0.123142754905902,0.0
1676469337.4237862,214,1676469337,420619010,,1.4109506177322029,-0.19184980664763787,0.0
1676469337.4335911,215,1676469337,430077075,,0.7718950026438096,-0.1869897682915937,0.0
1676469337.4420028,216,1676469337,439969062,,0.7718666289789535,-0.26771916211260977,0.0
1676469337.453091,217,1676469337,450312614,,0.7648684588866556,-0.3112562322379797,0.0
1676469337.462934,218,1676469337,460146427,,0.3410380153516929,-0.34015720275110295,0.0
1676469337.4721882,219,1676469337,470027446,,0.32345267135695294,-0.4144844722343494,0.0
1676469337.4818814,220,1676469337,480060100,,0.3104772422059316,-0.46496992763746536,0.0
1676469337.4967456,221,1676469337,490369319,,0.28796917394689203,-0.5418697405020383,0.0
1676469337.5020795,222,1676469337,500322580,,-0.06952837340394893,-0.5378336144653194,0.0
1676469337.5118096,223,1676469337,510043382,,-0.0911128475750211,-0.5911986576944431,0.0
1676469337.5227864,224,1676469337,520914077,,-0.12983853432368558,-0.6655046284559636,0.0
1676469337.5327592,225,1676469337,530228376,,-0.5330909483303669,-0.6238124997722855,0.0
1676469337.5428755,226,1676469337,540155410,,-0.5843607539030459,-0.6999958250679356,0.0
1676469337.5532033,227,1676469337,550304651,,-0.6158989852653897,-0.7533925188071167,0.0
1676469337.5635555,228,1676469337,560307264,,-0.6518933860635953,-0.8026086338869052,0.0
1676469337.5732956,229,1676469337,570259809,,-1.0357620803359626,-0.8427092733797873,0.0
1676469337.5835843,230,1676469337,580419301,,-1.0803794994816662,-0.8944563836191485,0.0
1676469337.5918298,231,1676469337,590198993,,-1.1470128957456214,-0.972122564176989,0.0
1676469337.6023736,232,1676469337,600004673,,-1.5239590088190125,-0.9130734929164293,0.0
1676469337.613516,233,1676469337,610082149,,-1.5752455897704887,-0.9627059939193923,0.0
1676469337.6221042,234,1676469337,620292425,,-1.6502069088896922,-1.0362578137920242,0.0
1676469337.6360855,235,1676469337,630681276,,-2.053972723178577,-0.8993692323315569,0.0
1676469337.6421664,236,1676469337,640068292,,-2.136553278482874,-0.9693030645394135,0.0
1676469337.6521459,237,1676469337,650284767,,-2.19083828165679,-1.020440499185554,0.0
1676469337.6666946,238,1676469337,661839723,,-2.4945923523262556,-1.0376326752069234,0.0
1676469337.6728163,239,1676469337,670564174,,-2.579135772884537,-1.1061369744950145,0.0
1676469337.682838,240,1676469337,680152416,,-2.6419548184884607,-1.1564441606706646,0.0
1676469337.6924725,241,1676469337,690076351,,-2.733024173486052,-1.2266906631349073,0.0
1676469337.702704,242,1676469337,700036287,,-2.9942584028054573,-1.0623536674357685,0.0
1676469337.7124434,243,1676469337,710240840,,-3.058320474187585,-1.1059181880062485,0.0
1676469337.7222621,244,1676469337,720230340,,-3.153782375953977,-1.177535065954348,0.0
1676469337.733348,245,1676469337,730103254,,-2.983222860941604,-1.099397554617792,0.0
1676469337.7419677,246,1676469337,740155696,,-3.0815741850375935,-1.1634429537233804,0.0
1676469337.7525692,247,1676469337,750183820,,-3.147815032628084,-1.204958375054312,0.0
1676469337.763386,248,1676469337,760610342,,-3.3486167359948884,-1.0398345270927851,0.0
1676469337.7710874,249,1676469337,770024299,,-3.4180028582410458,-1.0738722823925004,0.0
1676469337.7828712,250,1676469337,780048847,,-3.484995926823953,-1.1198961412044282,0.0
1676469337.7918413,251,1676469337,790074825,,-3.5891395388043996,-1.179606407791296,0.0
1676469337.8029125,252,1676469337,801083803,,-3.5557007623532937,-1.0812095946262283,0.0
1676469337.8123612,253,1676469337,810429334,,-3.6272511303240313,-1.1220056604031374,0.0
1676469337.8223524,254,1676469337,820060729,,-3.731455042980302,-1.1777860055623288,0.0
1676469337.8319607,255,1676469337,829999685,,-3.7427039413938563,-0.9788675291590482,0.0
1676469337.8420439,256,1676469337,840119838,,-3.8455527741287034,-1.0289487272232762,0.0
1676469337.8536382,257,1676469337,850178718,,-3.914341798807422,-1.0665781210061596,0.0
1676469337.8699813,258,1676469337,863776922,,-4.014145044993572,-1.1137899735808003,0.0
1676469337.879374,259,1676469337,872650861,,-4.0228170656376205,-0.8701733813310192,0.0
1676469337.8825316,260,1676469337,880510807,,-4.088508737958181,-0.9019751815635945,0.0
1676469337.8917863,261,1676469337,890084028,,-4.191169112473378,-0.9532317449885578,0.0
1676469337.9025247,262,1676469337,899979829,,-3.95784757173781,-0.876321223278338,0.0
1676469337.9126163,263,1676469337,910270690,,-4.0534980518189965,-0.9236159981099015,0.0
1676469337.922535,264,1676469337,920159816,,-4.11943799352241,-0.9557091325423788,0.0
1676469337.9356954,265,1676469337,930337905,,-4.306404309419881,-0.7534424064758881,0.0
1676469337.9425635,266,1676469337,940125465,,-4.4043726971303485,-0.7969858883878633,0.0
1676469337.951664,267,1676469337,950061798,,-4.463905677264335,-0.8239011323436587,0.0
1676469337.962829,268,1676469337,961359262,,-4.557773629050294,-0.8683177222654758,0.0
1676469337.9716024,269,1676469337,970015525,,-4.357150193189588,-0.6228546945241866,0.0
1676469337.9826899,270,1676469337,980095624,,-4.416586088247575,-0.6497453639377591,0.0
1676469337.9918892,271,1676469337,990442276,,-4.50077582290531,-0.6918887562640677,0.0
1676469338.0054548,272,1676469338,1678943,,-4.141938937307675,-0.7100800369549087,0.0
1676469338.013829,273,1676469338,10132789,,-4.217398138501184,-0.7510496951304365,0.0
1676469338.0225449,274,1676469338,20371437,,-4.299200506772205,-0.7883598312757623,0.0
1676469338.03345,275,1676469338,30144214,,-4.4106818583605705,-0.6111850486122591,0.0
1676469338.041344,276,1676469338,39951801,,-4.484478550247646,-0.650076203660366,0.0
1676469338.0519483,277,1676469338,50124883,,-4.535208169042635,-0.6662498595818481,0.0
1676469338.0665562,278,1676469338,63012123,,-4.21568417044486,-0.6086457269397041,0.0
1676469338.0729268,279,1676469338,70119619,,-4.28229256072549,-0.6407971542947231,0.0
1676469338.0829206,280,1676469338,80142498,,-4.326998528323556,-0.6506946988184203,0.0
1676469338.0966206,281,1676469338,90182542,,-4.393667695193672,-0.6816506121788819,0.0
1676469338.1056259,282,1676469338,101565122,,-4.345683451847742,-0.7084480505509585,0.0
1676469338.112369,283,1676469338,110243320,,-4.403420969429612,-0.7321317484226108,0.0
1676469338.122707,284,1676469338,120202541,,-4.444791830129754,-0.7569818910845733,0.0
1676469338.1344955,285,1676469338,130087614,,-3.859173243336106,-0.8116164804120903,0.0
1676469338.1418936,286,1676469338,140057325,,-3.910191797530393,-0.8341754368499189,0.0
1676469338.152178,287,1676469338,150094985,,-3.94397138316021,-0.8536469395302092,0.0
1676469338.1629968,288,1676469338,160278081,,-3.8471016845217068,-0.8674567307566351,0.0
1676469338.1725209,289,1676469338,170466423,,-3.8945742098977014,-0.8939688553362642,0.0
1676469338.182216,290,1676469338,180553674,,-3.9417208892251843,-0.9202121198636197,0.0
1676469338.1957986,291,1676469338,190338373,,-3.970718902554675,-0.9342602672107378,0.0
1676469338.2026365,292,1676469338,200123071,,-3.9598742190248726,-0.775077963637213,0.0
1676469338.2122154,293,1676469338,210535526,,-3.9890851934556903,-0.7872495509470645,0.0
1676469338.223191,294,1676469338,220055818,,-4.032387263201009,-0.8081213586472141,0.0
1676469338.2332757,295,1676469338,230042219,,-3.6412935748307347,-0.6591708224423694,0.0
1676469338.2421303,296,1676469338,240089893,,-3.6712174591877624,-0.6837882823419101,0.0
1676469338.2538247,297,1676469338,250071763,,-3.69398197159312,-0.695185505420413,0.0
1676469338.263696,298,1676469338,260845422,,-3.5548919475261864,-0.7095889215618747,0.0
1676469338.2719977,299,1676469338,269998550,,-3.5744323023465157,-0.7217296181015289,0.0
1676469338.282172,300,1676469338,280046701,,-3.595516487272856,-0.7363030870855743,0.0
1676469338.291858,301,1676469338,290085792,,-3.618489415052901,-0.7510035217603314,0.0
1676469338.304129,302,1676469338,300382375,,-3.5420862350194247,-0.352547054517155,0.0
1676469338.3145878,303,1676469338,310749530,,-3.5624579514664547,-0.3647609073587242,0.0
1676469338.3216877,304,1676469338,320046424,,-3.576265954019057,-0.376803818785113,0.0
1676469338.3322396,305,1676469338,330098390,,-3.4076199509819434,-0.31558566269098776,0.0
1676469338.342909,306,1676469338,340367078,,-3.4249872937385004,-0.3261598523915843,0.0
1676469338.3522213,307,1676469338,350078582,,-3.4383759247494967,-0.33590144204060557,0.0
1676469338.3649492,308,1676469338,360373258,,-3.4537634524303535,-0.3465162475823672,0.0
1676469338.3728542,309,1676469338,370055675,,-3.325840384814275,-0.3268849108412525,0.0
1676469338.38222,310,1676469338,380294799,,-3.335930333550285,-0.3363543782614495,0.0
1676469338.3918602,311,1676469338,390030860,,-3.342358946116466,-0.34530294649612475,0.0
1676469338.4021742,312,1676469338,400277853,,-3.144547446740763,-0.32868587353944195,0.0
1676469338.413003,313,1676469338,410311937,,-3.151053966751966,-0.33760130791697474,0.0
1676469338.4230735,314,1676469338,420046806,,-3.1568731197593984,-0.3390383069225657,0.0
1676469338.4341812,315,1676469338,430179595,,-3.2241143589714,-0.22754176001054724,0.0
1676469338.4418244,316,1676469338,439998149,,-3.229020655496396,-0.23575185512654573,0.0
1676469338.452219,317,1676469338,450277566,,-3.2341548935310986,-0.23958338857871359,0.0
1676469338.4654138,318,1676469338,461587190,,-2.9713914623289686,-0.17513176750238846,0.0
1676469338.4733608,319,1676469338,470086812,,-2.9714143111971274,-0.1753977482896447,0.0
1676469338.4821098,320,1676469338,480044364,,-2.9720106602189915,-0.17582698952392425,0.0
1676469338.4922652,321,1676469338,490175008,,-2.971753433046134,-0.18132436927678844,0.0
1676469338.5027647,322,1676469338,500024795,,-2.9784912494572966,-0.1963716291419087,0.0
1676469338.512675,323,1676469338,510677337,,-2.9757901457221925,-0.1956132819855399,0.0
1676469338.5225656,324,1676469338,520413160,,-2.971716211397937,-0.19845126522439724,0.0
1676469338.5341046,325,1676469338,530078887,,-3.10025823377913,-0.058786093032257916,0.0
1676469338.5418627,326,1676469338,539985895,,-3.096884654520309,-0.057162673956321866,0.0
1676469338.5520158,327,1676469338,550200462,,-3.0939943492397477,-0.0573508878679551,0.0
1676469338.566553,328,1676469338,562586069,,-3.0897793865427174,-0.05920490107320289,0.0
1676469338.5740016,329,1676469338,570027589,,-2.6892025840449008,-0.13382902966855417,0.0
1676469338.583254,330,1676469338,580092906,,-2.683255987120103,-0.1325452543766341,0.0
1676469338.5933135,331,1676469338,590160369,,-2.6748994118033007,-0.12959642492010762,0.0
1676469338.6015615,332,1676469338,600075244,,-2.9120070414257686,-0.10655662908856624,0.0
1676469338.6125603,333,1676469338,610471725,,-2.909332432292653,-0.10392738669699834,0.0
1676469338.6234615,334,1676469338,621097564,,-2.9046928032350374,-0.10156796607995834,0.0
1676469338.639807,335,1676469338,632648229,,-2.975089492730613,0.06678909713094856,0.0
1676469338.6461737,336,1676469338,641359329,,-2.9690464250497492,0.06767779568410408,0.0
1676469338.6531563,337,1676469338,650127649,,-2.965016717735124,0.06744281186935286,0.0
1676469338.663906,338,1676469338,661013364,,-2.8304091931666835,-0.07371653314784335,0.0
1676469338.6724823,339,1676469338,670109987,,-2.8232923180021974,-0.0689625034732169,0.0
1676469338.681964,340,1676469338,680022954,,-2.8195393767867527,-0.06884736715034354,0.0
1676469338.6922495,341,1676469338,690164566,,-2.8121708204821787,-0.06634699570645936,0.0
1676469338.7021117,342,1676469338,700151205,,-2.8767619661233352,-0.12236937300596766,0.0
1676469338.7118187,343,1676469338,710152387,,-2.867053677004654,-0.12156452335587399,0.0
1676469338.7219944,344,1676469338,720345258,,-2.863311353560525,-0.12258392871912777,0.0
1676469338.7332633,345,1676469338,730132818,,-2.8582014877396307,-0.0954818206836303,0.0
1676469338.7416322,346,1676469338,740415334,,-2.849425057386911,-0.09632539030670731,0.0
1676469338.7525725,347,1676469338,750404357,,-2.8440920405650747,-0.09728180705836048,0.0
1676469338.765895,348,1676469338,762500286,,-2.7371035658250236,-0.18125284290982488,0.0
1676469338.7735775,349,1676469338,770124912,,-2.7351217409771587,-0.18225565950535416,0.0
1676469338.7838893,350,1676469338,781928539,,-2.731595754345965,-0.1813696109944733,0.0
1676469338.7974856,351,1676469338,791382312,,-2.7269648013227563,-0.17911699001574086,0.0
1676469338.8036382,352,1676469338,800805330,,-2.855145020032385,-0.24659650961823362,0.0
1676469338.812901,353,1676469338,811146974,,-2.8520092607099685,-0.24493082602947056,0.0
1676469338.8230689,354,1676469338,820033550,,-2.8488310459956603,-0.24447279417711093,0.0
1676469338.8350337,355,1676469338,830255985,,-2.8722271195649256,-0.3243781920994533,0.0
1676469338.8424306,356,1676469338,840917110,,-2.869895318790716,-0.3249438488953613,0.0
1676469338.8524454,357,1676469338,850063085,,-2.8689077412212436,-0.3262389337452473,0.0
1676469338.8654742,358,1676469338,861433267,,-2.9191368398312387,-0.45287827360775956,0.0
1676469338.8728924,359,1676469338,870789289,,-2.91680337102855,-0.456858425929359,0.0
1676469338.8845682,360,1676469338,881433010,,-2.9169964125153665,-0.4593914075467101,0.0
1676469338.8924487,361,1676469338,890252113,,-2.91620987907168,-0.4606076174333511,0.0
1676469338.9023745,362,1676469338,900163412,,-3.036165455996205,-0.5448193877773878,0.0
1676469338.9145591,363,1676469338,910384654,,-3.0362883496532596,-0.5466672430008317,0.0
1676469338.9219637,364,1676469338,920051574,,-3.03728982081703,-0.5478464416698585,0.0
1676469338.9330862,365,1676469338,930240154,,-3.141261344830384,-0.5724696920893284,0.0
1676469338.9420846,366,1676469338,940046072,,-3.141189420187557,-0.5740058189251878,0.0
1676469338.9530997,367,1676469338,950061559,,-3.143917184479351,-0.5762152073150444,0.0
1676469338.96317,368,1676469338,960737705,,-2.9300829180399326,-0.6318673717875483,0.0
1676469338.972271,369,1676469338,970159769,,-2.930774815377084,-0.6340285088488751,0.0
1676469338.9832246,370,1676469338,980042219,,-2.9314465568773986,-0.6352701962442628,0.0
1676469338.994064,371,1676469338,990089654,,-2.9334437421302355,-0.636321551369119,0.0
1676469339.0019965,372,1676469339,65803,,-3.055239924397967,-0.7254679289923859,0.0
1676469339.0139613,373,1676469339,10205268,,-3.0587654378400475,-0.7265772058256513,0.0
1676469339.022,374,1676469339,20064115,,-3.062807525652876,-0.7261403258413819,0.0
1676469339.0320706,375,1676469339,30011653,,-3.2892545596426666,-0.739281126935326,0.0
1676469339.0419607,376,1676469339,40056467,,-3.295768401181518,-0.7421044459494696,0.0
1676469339.0519104,377,1676469339,50155162,,-3.300384368503643,-0.7444797535190195,0.0
1676469339.064957,378,1676469339,60368299,,-3.3062094369979507,-0.7455915901808873,0.0
1676469339.0731215,379,1676469339,70316314,,-3.2008254028044214,-0.727317635460956,0.0
1676469339.0828629,380,1676469339,80506324,,-3.2050144320629026,-0.728340323334762,0.0
1676469339.0922232,381,1676469339,90641736,,-3.2117990414803863,-0.7273385988859535,0.0
1676469339.1024075,382,1676469339,100168943,,-3.2197391073607315,-0.7950869782611539,0.0
1676469339.1127803,383,1676469339,110125064,,-3.2233107336047615,-0.7941067384217254,0.0
1676469339.122833,384,1676469339,120209932,,-3.2304917860587476,-0.7947565025388778,0.0
1676469339.1320555,385,1676469339,130022048,,-3.3726188284753094,-0.8270448866993765,0.0
1676469339.1421874,386,1676469339,139974594,,-3.3805280075023565,-0.8259857307117043,0.0
1676469339.1519365,387,1676469339,150124073,,-3.3886780423175304,-0.8225899116652701,0.0
1676469339.1650002,388,1676469339,162201881,,-3.3941425306426245,-0.8222755736170408,0.0
1676469339.1778708,389,1676469339,172683477,,-3.597848362232587,-0.5963004907260463,0.0
1676469339.185423,390,1676469339,182820796,,-3.606461193409719,-0.5941528881203966,0.0
1676469339.196506,391,1676469339,190035104,,-3.6155021334990636,-0.5901306038567838,0.0
1676469339.2018948,392,1676469339,199958562,,-3.498700292645886,-0.6321847260889192,0.0
1676469339.213346,393,1676469339,210679054,,-3.5081118405988256,-0.6256072903128065,0.0
1676469339.2223876,394,1676469339,220153331,,-3.5158232348933818,-0.624736895706066,0.0
1676469339.234044,395,1676469339,230064392,,-3.5352077679658427,-0.729702060638052,0.0
1676469339.2416444,396,1676469339,239989757,,-3.549569085261763,-0.7335069293097418,0.0
1676469339.2544365,397,1676469339,250228643,,-3.5547378145614545,-0.7279341573096816,0.0
1676469339.264777,398,1676469339,261523723,,-3.5637492237313557,-0.720722575328499,0.0
1676469339.2739303,399,1676469339,270241022,,-3.6780013415518207,-0.5546136026141906,0.0
1676469339.2823236,400,1676469339,280403137,,-3.6838693953414623,-0.5467508254105106,0.0
1676469339.293282,401,1676469339,290083169,,-3.6920129013142566,-0.5362768421130786,0.0
1676469339.3018432,402,1676469339,300122261,,-3.7348472326946043,-0.5193000830313962,0.0
1676469339.3119466,403,1676469339,310106992,,-3.7432541061953906,-0.5105557068407244,0.0
1676469339.3221953,404,1676469339,320170640,,-3.7499046257153936,-0.5050763579844904,0.0
1676469339.3321805,405,1676469339,330191135,,-3.73654063252317,-0.525981976167201,0.0
1676469339.342384,406,1676469339,340059041,,-3.742258755968202,-0.5199665386359279,0.0
1676469339.3515477,407,1676469339,350240707,,-3.7475882703574306,-0.5116772364663764,0.0
1676469339.3638942,408,1676469339,361259460,,-3.5538896743220545,-0.5617254147630335,0.0
1676469339.374348,409,1676469339,370126247,,-3.5560583310238085,-0.556837541361962,0.0
1676469339.381792,410,1676469339,380070924,,-3.559402118906373,-0.5507844399567662,0.0
1676469339.3929822,411,1676469339,390199184,,-3.5610105941070427,-0.5427969775341812,0.0
1676469339.402121,412,1676469339,400322675,,-3.5915844751517274,-0.5535191177395412,0.0
1676469339.412324,413,1676469339,410078763,,-3.5914448308431473,-0.5435527522895778,0.0
1676469339.4222667,414,1676469339,420141220,,-3.5926382324044672,-0.5370401073532233,0.0
1676469339.4324765,415,1676469339,430074930,,-3.550545104955406,-0.5545857702677464,0.0
1676469339.4422727,416,1676469339,440103769,,-3.547285989241114,-0.5448672772340444,0.0
1676469339.4575305,417,1676469339,452883481,,-3.5465926801459653,-0.538102511814465,0.0
1676469339.4650478,418,1676469339,460716724,,-3.5445441368612647,-0.5316739189167434,0.0
1676469339.4760485,419,1676469339,471267223,,-3.0307036821834625,-0.44614820108308506,0.0
1676469339.482473,420,1676469339,480305433,,-3.0249344711531525,-0.4404074889417133,0.0
1676469339.4915817,421,1676469339,490030765,,-3.0159543178057167,-0.43089542474013226,0.0
1676469339.5022507,422,1676469339,500032424,,-2.887166214051033,-0.4457287094394024,0.0
1676469339.5133343,423,1676469339,510384321,,-2.8798590499190793,-0.437691585276515,0.0
1676469339.5230358,424,1676469339,520499229,,-2.8685530271176116,-0.42700761564649864,0.0
1676469339.533104,425,1676469339,530110359,,-2.8482392570410315,-0.47887850422878436,0.0
1676469339.5423324,426,1676469339,540148258,,-2.83553116045477,-0.46664719804008453,0.0
1676469339.553972,427,1676469339,550146341,,-2.8252892643464667,-0.4574224324273684,0.0
1676469339.5622387,428,1676469339,560523033,,-2.813299616552376,-0.44830644245158574,0.0
1676469339.573827,429,1676469339,571365594,,-2.9407437420046576,-0.3643417127257347,0.0
1676469339.5823467,430,1676469339,580018520,,-2.9296173365027025,-0.3577979155628847,0.0
1676469339.5919056,431,1676469339,590295553,,-2.9106454535243933,-0.3475976901518915,0.0
1676469339.6016932,432,1676469339,600026845,,-2.7144641702364933,-0.3434339437479197,0.0
1676469339.615922,433,1676469339,610031604,,-2.6910526670489054,-0.33161995538810235,0.0
1676469339.6222482,434,1676469339,620124340,,-2.678265410381696,-0.32507699194458106,0.0
1676469339.6319656,435,1676469339,630104541,,-2.506680127471077,-0.340397012515346,0.0
1676469339.642247,436,1676469339,640058994,,-2.4810992955213194,-0.3315440343173833,0.0
1676469339.652092,437,1676469339,650094032,,-2.465065612529458,-0.32545095682536523,0.0
1676469339.6661475,438,1676469339,660758495,,-2.44814360978882,-0.31979042149219417,0.0
1676469339.6753893,439,1676469339,670096158,,-2.2839729111184286,-0.6403792816403194,0.0
1676469339.681975,440,1676469339,680212259,,-2.2634040397135986,-0.6354478206471454,0.0
1676469339.691548,441,1676469339,690032720,,-2.2361340715546323,-0.6265846341293813,0.0
1676469339.7018778,442,1676469339,700343132,,-2.182274678494302,-0.6177389145465626,0.0
1676469339.7129195,443,1676469339,710154294,,-2.1551252758909003,-0.609625317547012,0.0
1676469339.722739,444,1676469339,720418930,,-2.134327544283612,-0.6032158086737257,0.0
1676469339.7319756,445,1676469339,730150222,,-2.0919740528713437,-0.5714045406572045,0.0
1676469339.741836,446,1676469339,740224361,,-2.055926875988835,-0.5617310971246474,0.0
1676469339.7515287,447,1676469339,750166416,,-2.034215025295262,-0.5543843773928324,0.0
1676469339.7659936,448,1676469339,761904478,,-2.014391405013207,-0.5490026198994057,0.0
1676469339.7716882,449,1676469339,770066738,,-2.0403738135483227,-0.628624888656694,0.0
1676469339.7818542,450,1676469339,780050992,,-2.018236273059168,-0.6223647281155017,0.0
1676469339.7928493,451,1676469339,790096282,,-1.9802612107134554,-0.6121020106168947,0.0
1676469339.8014975,452,1676469339,800053358,,-1.9904540709659408,-0.584824399637823,0.0
1676469339.8117557,453,1676469339,810421705,,-1.9560192081116328,-0.5765474605721428,0.0
1676469339.8247235,454,1676469339,822412490,,-1.933592808998025,-0.5698081749548578,0.0
1676469339.8364577,455,1676469339,831324100,,-1.62712720354041,-0.5756519586841486,0.0
1676469339.8429086,456,1676469339,840988636,,-1.5908139063861013,-0.5689959572990179,0.0
1676469339.8534925,457,1676469339,850030899,,-1.5669202048984159,-0.5651637322496871,0.0
1676469339.8636909,458,1676469339,860321998,,-1.5734776778539965,-0.5783042981610648,0.0
1676469339.8723664,459,1676469339,870059251,,-1.539085623684472,-0.5676868015977872,0.0
1676469339.881451,460,1676469339,879983663,,-1.5176861718591474,-0.5614069030286242,0.0
1676469339.8986113,461,1676469339,891866922,,-1.5168899198833585,-0.5614069030286242,0.0
1676469339.9071233,462,1676469339,902296066,,-1.529340375671416,-0.5462331748136777,0.0
1676469339.912615,463,1676469339,910523414,,-1.4647490851602127,-0.530827168741461,0.0
1676469339.9221818,464,1676469339,920183658,,-1.4638518855371063,-0.530827168741461,0.0
1676469339.9379444,465,1676469339,933263063,,-1.824960272207224,-0.41015377605839426,0.0
1676469339.949252,466,1676469339,942581415,,-1.804850848990693,-0.4044370386032609,0.0
1676469339.96342,467,1676469339,956444978,,-1.7214478620816074,-0.3744017939088957,0.0
1676469339.9714613,468,1676469339,968497991,,-1.7723593721012507,-0.3846383985059337,0.0
1676469339.979595,469,1676469339,972717761,,-1.772081282681678,-0.3846383985059337,0.0
1676469339.9835787,470,1676469339,981152534,,-1.7514732592450164,-0.3748747466966886,0.0
1676469339.99298,471,1676469339,990053415,,-1.7190305090903752,-0.3622866588889357,0.0
1676469340.001823,472,1676469340,17404,,-1.8087228558243995,-0.40422964068202466,0.0
1676469340.0133169,473,1676469340,10441303,,-1.7887947649670723,-0.39949990375413147,0.0
1676469340.022525,474,1676469340,20367860,,-1.7636644784405946,-0.389432559958362,0.0
1676469340.032313,475,1676469340,30030965,,-1.7473101199399068,-0.3594476671912517,0.0
1676469340.041807,476,1676469340,39970159,,-1.7210776849720373,-0.34604006946026544,0.0
1676469340.0531456,477,1676469340,50437211,,-1.7043654074663117,-0.33624106841259566,0.0
1676469340.0648375,478,1676469340,60259342,,-1.6787680805414793,-0.3218954832544051,0.0
1676469340.0726743,479,1676469340,70025205,,-1.7805308900502885,-0.3470381674921977,0.0
1676469340.0825539,480,1676469340,80154657,,-1.7678974928845281,-0.3378329819777561,0.0
1676469340.0922198,481,1676469340,90280771,,-1.756052725607382,-0.3223576353954272,0.0
1676469340.1018746,482,1676469340,100102663,,-1.9287622256236898,-0.3445781193633005,0.0
1676469340.112163,483,1676469340,110106706,,-1.9124623363203628,-0.33047597388872935,0.0
1676469340.1256406,484,1676469340,121855735,,-1.9023390275867553,-0.32172393368853386,0.0
1676469340.132419,485,1676469340,130534887,,-2.0193632626903817,-0.4243275892098751,0.0
1676469340.1420083,486,1676469340,139914512,,-2.006276832313917,-0.40992512033877165,0.0
1676469340.1529567,487,1676469340,150073766,,-1.9983363120974353,-0.3995818239064111,0.0
1676469340.1640117,488,1676469340,160366296,,-1.9895112493025635,-0.3913535317485247,0.0
1676469340.173993,489,1676469340,170069456,,-2.212548560365199,-0.4096368088477768,0.0
1676469340.1822338,490,1676469340,180071115,,-2.2072025332415506,-0.4018696622963543,0.0
1676469340.1916392,491,1676469340,189968585,,-2.204529732219392,-0.38873772012512553,0.0
1676469340.2019777,492,1676469340,200175046,,-2.3225369871662083,-0.3981252991710634,0.0
1676469340.214187,493,1676469340,210175275,,-2.312792382731464,-0.38354983797320336,0.0
1676469340.2243228,494,1676469340,221181392,,-2.309164035203745,-0.3743735304323289,0.0
1676469340.232152,495,1676469340,230000734,,-2.380286134468128,-0.3987493938909042,0.0
1676469340.2422729,496,1676469340,240506410,,-2.3781234241851834,-0.3858917735800795,0.0
1676469340.252396,497,1676469340,250089406,,-2.3778180064707732,-0.37656096490425134,0.0
1676469340.2664914,498,1676469340,261118412,,-2.3793595998555963,-0.36787877377254646,0.0
1676469340.272417,499,1676469340,269997119,,-2.8628033518795823,-0.40010130360016466,0.0
1676469340.282149,500,1676469340,280076503,,-2.865832616923459,-0.3912386160472764,0.0
1676469340.2920525,501,1676469340,290091037,,-2.870802560868942,-0.3785177979584531,0.0
1676469340.3023725,502,1676469340,300106525,,-3.0369819188210667,-0.4620118349026035,0.0
1676469340.3140059,503,1676469340,310326099,,-3.043203626590089,-0.4539400052288441,0.0
1676469340.322474,504,1676469340,320163726,,-3.049125396422398,-0.4402540651053506,0.0
1676469340.332055,505,1676469340,330222368,,-2.8155991513239043,-0.33388156176989253,0.0
1676469340.3427522,506,1676469340,340440034,,-2.82310928381757,-0.3204047135042469,0.0
1676469340.3559396,507,1676469340,352549552,,-2.8292683483727927,-0.31222728663721844,0.0
1676469340.365809,508,1676469340,361613512,,-2.834037583698125,-0.30408487449673843,0.0
1676469340.373245,509,1676469340,370206356,,-2.8938040681975346,-0.4393576959146306,0.0
1676469340.3826323,510,1676469340,380050182,,-2.9044987905236637,-0.43061864387641885,0.0
1676469340.3917255,511,1676469340,390011072,,-2.918109996316196,-0.4163996224391748,0.0
1676469340.4019616,512,1676469340,400049448,,-3.035403337168558,-0.5085482523290188,0.0
1676469340.4128728,513,1676469340,410083770,,-3.0474329693502575,-0.49939634476914074,0.0
1676469340.4229221,514,1676469340,420125722,,-3.0626112704483295,-0.486831167025121,0.0
1676469340.4323792,515,1676469340,430097341,,-3.3221751741886916,-0.37047050698180106,0.0
1676469340.4416535,516,1676469340,440077543,,-3.3384115200972677,-0.3583393799559625,0.0
1676469340.4529858,517,1676469340,450317144,,-3.3498029334623314,-0.35052010652362775,0.0
1676469340.4656804,518,1676469340,462688922,,-3.3662164566725057,-0.3498207686070098,0.0
1676469340.4768217,519,1676469340,471452236,,-3.3735245298956777,-0.40993699056711996,0.0
1676469340.4817102,520,1676469340,480038642,,-3.3789291875024485,-0.3985072044992743,0.0
1676469340.4920523,521,1676469340,490095138,,-3.3939612795849303,-0.38763834689604765,0.0
1676469340.5025742,522,1676469340,499984979,,-3.3871919725655846,-0.42362703306970295,0.0
1676469340.5151026,523,1676469340,510108947,,-3.401762082252811,-0.4141655447676446,0.0
1676469340.5216403,524,1676469340,519905805,,-3.4127858662821504,-0.4072666983015716,0.0
1676469340.531931,525,1676469340,530061244,,-3.431449754735228,-0.3036941416690187,0.0
1676469340.5425465,526,1676469340,540040731,,-3.4472774885704913,-0.2947974638709191,0.0
1676469340.553562,527,1676469340,550196647,,-3.456761920578299,-0.2882870024713296,0.0
1676469340.5657184,528,1676469340,560427665,,-3.4721823111728987,-0.2779123049567445,0.0
1676469340.5744522,529,1676469340,570481300,,-3.406011756264785,-0.35074350627267364,0.0
1676469340.582855,530,1676469340,580036640,,-3.4183852616656822,-0.34513202419304934,0.0
1676469340.592061,531,1676469340,590292692,,-3.4333598112397863,-0.336641610789907,0.0
1676469340.6015823,532,1676469340,600048303,,-3.3386494966048272,-0.3626102714179778,0.0
1676469340.6151073,533,1676469340,610339403,,-3.357934951923616,-0.3600041222757539,0.0
1676469340.6225138,534,1676469340,620279312,,-3.367236710398077,-0.35320129477737494,0.0
1676469340.6322227,535,1676469340,630150794,,-3.291700360481033,-0.37264707114858664,0.0
1676469340.6421728,536,1676469340,640481710,,-3.30232979921348,-0.3645373013913761,0.0
1676469340.6514425,537,1676469340,650104045,,-3.3090438541592206,-0.35833083831090046,0.0
1676469340.6631036,538,1676469340,660541534,,-3.489797204560218,-0.4878361132827082,0.0
1676469340.6732278,539,1676469340,670327901,,-3.499185265995443,-0.4832136966188493,0.0
1676469340.6818755,540,1676469340,680060386,,-3.5057774380653433,-0.47621845078287567,0.0
1676469340.6924965,541,1676469340,690296888,,-3.515611814916215,-0.4674796922734336,0.0
1676469340.703082,542,1676469340,700441837,,-3.4523856112377187,-0.4710502571970943,0.0
1676469340.7149804,543,1676469340,710208415,,-3.4599484562652854,-0.46206481525375437,0.0
1676469340.7230473,544,1676469340,721101760,,-3.463068578110222,-0.4547755679844454,0.0
1676469340.7314856,545,1676469340,730154037,,-3.4289470824138957,-0.4421181423244798,0.0
1676469340.7419407,546,1676469340,740163087,,-3.4338620598988845,-0.43241535243150875,0.0
1676469340.7521927,547,1676469340,750526905,,-3.4358488237037745,-0.42542179022204474,0.0
1676469340.763219,548,1676469340,761420965,,-3.352573342364628,-0.38329060090253136,0.0
1676469340.7758002,549,1676469340,770494461,,-3.356196762461475,-0.37516036978671835,0.0
1676469340.7830741,550,1676469340,780357122,,-3.3591203567996293,-0.37089040083576175,0.0
1676469340.7920446,551,1676469340,790127038,,-3.3591599990941035,-0.3640024187753318,0.0
1676469340.8020964,552,1676469340,800315380,,-3.226111463255501,-0.39689649207517286,0.0
1676469340.811946,553,1676469340,810206890,,-3.2249450129626642,-0.3911181560264442,0.0
1676469340.823324,554,1676469340,820090055,,-3.2239050930290034,-0.3877414754466604,0.0
1676469340.8320065,555,1676469340,830078125,,-3.1628623893736423,-0.4434911860202096,0.0
1676469340.8422625,556,1676469340,840503692,,-3.1584330951847024,-0.4387887975458544,0.0
1676469340.8522837,557,1676469340,850100994,,-3.1556127390686233,-0.4354717997009081,0.0
1676469340.8681407,558,1676469340,863028049,,-3.071369809611714,-0.3875415770128255,0.0
1676469340.8723903,559,1676469340,870083570,,-3.068336593576637,-0.3831465532591795,0.0
1676469340.8822248,560,1676469340,879993438,,-3.0660286490237496,-0.3802379946073773,0.0
1676469340.895525,561,1676469340,890120267,,-3.0592668431517462,-0.3740110635901462,0.0
1676469340.903394,562,1676469340,900466918,,-2.9681268502084186,-0.3095042949806022,0.0
1676469340.912205,563,1676469340,910251617,,-2.9574518367572464,-0.30165004956787017,0.0
1676469340.921586,564,1676469340,920022726,,-2.950308857935784,-0.29625440779200807,0.0
1676469340.9326205,565,1676469340,930263519,,-2.48456093800704,-0.4067301900401581,0.0
1676469340.9412284,566,1676469340,940014600,,-2.468770983168255,-0.3973447840825634,0.0
1676469340.9524865,567,1676469340,949990749,,-2.4597721856647277,-0.3914195979957282,0.0
1676469340.9634478,568,1676469340,960157394,,-2.44660870745419,-0.38707096797531615,0.0
1676469340.972185,569,1676469340,970557689,,-2.519854946204068,-0.43333633752771217,0.0
1676469340.9828508,570,1676469340,980266332,,-2.512056836444907,-0.4296528936526544,0.0
1676469340.9921176,571,1676469340,990567684,,-2.497394726878988,-0.42296323515708417,0.0
1676469341.002783,572,1676469341,36716,,-2.5284963112715766,-0.32131382894602917,0.0
1676469341.013153,573,1676469341,10092258,,-2.513876713040019,-0.31358332737751027,0.0
1676469341.021538,574,1676469341,20079374,,-2.5040571625626735,-0.3085531605564446,0.0
1676469341.0342503,575,1676469341,30283927,,-2.0796173684428907,-0.2754686016036069,0.0
1676469341.042194,576,1676469341,40133714,,-2.049701134998432,-0.2685632279130342,0.0
1676469341.0519848,577,1676469341,50213813,,-2.0349125728948803,-0.2638170120974899,0.0
1676469341.0671358,578,1676469341,63332557,,-2.013543444169226,-0.25714037737128587,0.0
1676469341.07345,579,1676469341,70037603,,-1.9983719348267823,-0.37349735107112725,0.0
1676469341.0821295,580,1676469341,80073833,,-1.985306011594744,-0.3687462366660011,0.0
1676469341.0956845,581,1676469341,90244531,,-1.9685487147420597,-0.3597706171004184,0.0
1676469341.1025686,582,1676469341,100107431,,-2.0923480591557335,-0.3724027638891563,0.0
1676469341.1123946,583,1676469341,110404014,,-2.080966232372653,-0.36236112004593024,0.0
1676469341.1238499,584,1676469341,120204448,,-2.069614201954729,-0.3553399420529465,0.0
1676469341.1331363,585,1676469341,130776643,,-2.1982197056305393,-0.27759477300997815,0.0
1676469341.1413538,586,1676469341,140010595,,-2.1780785712322603,-0.267662296910879,0.0
1676469341.1516798,587,1676469341,150240659,,-2.1580778219230736,-0.26140762599911216,0.0
1676469341.1652884,588,1676469341,162534475,,-2.384534475620997,-0.07741961006882217,0.0
1676469341.172296,589,1676469341,170118570,,-2.3680220137753025,-0.06952845573141157,0.0
1676469341.18192,590,1676469341,180103540,,-2.356166354727485,-0.06522433522012983,0.0
1676469341.195051,591,1676469341,190130949,,-2.3380789987998227,-0.05616392775378833,0.0
1676469341.201581,592,1676469341,200068950,,-2.2751785038476458,-0.06150797965100989,0.0
1676469341.2158256,593,1676469341,210516929,,-2.2653611704060554,-0.05620113153514063,0.0
1676469341.2229514,594,1676469341,220641136,,-2.24939506301987,-0.04897702225600822,0.0
1676469341.234011,595,1676469341,230032205,,-2.2329920541561394,-0.104294319349936,0.0
1676469341.2413337,596,1676469341,240003108,,-2.219965772941541,-0.09861934996466133,0.0
1676469341.2529037,597,1676469341,250190019,,-2.2130496242674176,-0.09564483701269746,0.0
1676469341.2648575,598,1676469341,260507345,,-2.4197325240512284,-0.2324757556368842,0.0
1676469341.2719946,599,1676469341,270233392,,-2.409868003883264,-0.22859231248948034,0.0
1676469341.282609,600,1676469341,280083179,,-2.4044512331074714,-0.22513713920184775,0.0
1676469341.2968407,601,1676469341,290158510,,-2.3955149466843584,-0.21942317250168686,0.0
1676469341.3023572,602,1676469341,300200700,,-2.443174012434872,-0.24280831552631404,0.0
1676469341.3163416,603,1676469341,310476303,,-2.4365138952455245,-0.23924631479490843,0.0
1676469341.3220232,604,1676469341,320298194,,-2.4282087846984974,-0.23353133910825524,0.0
1676469341.331706,605,1676469341,330062150,,-2.682236786837214,-0.16929359953889345,0.0
1676469341.3426244,606,1676469341,340019226,,-2.6746935691944445,-0.16464702217439103,0.0
1676469341.3526201,607,1676469341,350766181,,-2.668764761824778,-0.16211059697040558,0.0
1676469341.3629136,608,1676469341,360407590,,-2.661563534126994,-0.15834984473490848,0.0
1676469341.3741019,609,1676469341,370506525,,-2.6401521418614955,-0.25478598871098473,0.0
1676469341.3823302,610,1676469341,380165815,,-2.6351916598711025,-0.2522647326731079,0.0
1676469341.3919716,611,1676469341,390068292,,-2.6295060151665846,-0.2502713128454738,0.0
1676469341.40233,612,1676469341,400020360,,-2.6247213692236264,-0.2687215999546008,0.0
1676469341.414015,613,1676469341,410200834,,-2.62068122636602,-0.26654790182565663,0.0
1676469341.4226286,614,1676469341,420098781,,-2.61920883778985,-0.2654566675674581,0.0
1676469341.4347274,615,1676469341,430185794,,-2.6440515323677256,-0.5530273268080743,0.0
1676469341.4411972,616,1676469341,439891815,,-2.647613442390112,-0.552773454153969,0.0
1676469341.452647,617,1676469341,450199604,,-2.6462695662010347,-0.5509540893054029,0.0
1676469341.4652367,618,1676469341,461005926,,-2.6450273235834456,-0.5488130873162285,0.0
1676469341.4726496,619,1676469341,470057487,,-2.7516236538307637,-0.5849050573014337,0.0
1676469341.4822764,620,1676469341,480122327,,-2.750428535712751,-0.5836832308896651,0.0
1676469341.4917605,621,1676469341,490088224,,-2.7500330219511087,-0.5804778994299339,0.0
1676469341.502535,622,1676469341,500113964,,-2.882920108243663,-0.5658573103312105,0.0
1676469341.5124924,623,1676469341,510080575,,-2.882583831126049,-0.5658245934715561,0.0
1676469341.5218832,624,1676469341,520030021,,-2.8777403724388106,-0.5616421405537293,0.0
1676469341.5328536,625,1676469341,530179023,,-2.9374221581992375,-0.4846478317498159,0.0
1676469341.542062,626,1676469341,540051460,,-2.938459896567397,-0.48402593198722305,0.0
1676469341.552278,627,1676469341,550086736,,-2.93844272550285,-0.48362037110464656,0.0
1676469341.5676825,628,1676469341,561463117,,-2.585618706943859,-0.6007700671185292,0.0
1676469341.5727456,629,1676469341,570762634,,-2.586077535701786,-0.5997950958455883,0.0
1676469341.582475,630,1676469341,579994678,,-2.5863861725116855,-0.600576799713945,0.0
1676469341.595468,631,1676469341,590132236,,-2.585204984166575,-0.6008331451918768,0.0
1676469341.6023803,632,1676469341,600470781,,-2.7076152212139117,-0.6792664838832085,0.0
1676469341.6127331,633,1676469341,610134840,,-2.709675751915746,-0.6793203705452368,0.0
1676469341.622742,634,1676469341,620060682,,-2.7120091709634573,-0.6809720373933731,0.0
1676469341.6318614,635,1676469341,629941701,,-2.614274351968532,-0.4763526487788331,0.0
1676469341.6419973,636,1676469341,639983892,,-2.6173881234852328,-0.47730408781398714,0.0
1676469341.6549942,637,1676469341,650205612,,-2.619062391077923,-0.47698322932788134,0.0
1676469341.6685328,638,1676469341,660349845,,-2.6191664915030155,-0.4785325071288494,0.0
1676469341.6726038,639,1676469341,671013355,,-2.5241140315217443,-0.5198856153980995,0.0
1676469341.681907,640,1676469341,680250644,,-2.5269509034182898,-0.5199555036684946,0.0
1676469341.6917825,641,1676469341,690172433,,-2.5268904024664964,-0.5195963255154894,0.0
1676469341.702909,642,1676469341,700247764,,-2.5388038066452903,-0.5868015854922216,0.0
1676469341.7133756,643,1676469341,710578918,,-2.541930516264067,-0.5860422903019508,0.0
1676469341.7230241,644,1676469341,720729112,,-2.5434724705541116,-0.5844296413641986,0.0
1676469341.7315786,645,1676469341,729997396,,-2.7785232649219234,-0.4091521406300362,0.0
1676469341.741529,646,1676469341,739951848,,-2.781107427009425,-0.40727286426495624,0.0
1676469341.7533362,647,1676469341,750154256,,-2.7822537916889183,-0.4059971840822902,0.0
1676469341.7639558,648,1676469341,760225057,,-2.7845718034038205,-0.40283299690854546,0.0
1676469341.7732553,649,1676469341,770105123,,-2.724536587066153,-0.36174800004652824,0.0
1676469341.7830515,650,1676469341,780873537,,-2.7242067258209777,-0.36115142672401757,0.0
1676469341.7971563,651,1676469341,790062427,,-2.7260309878631737,-0.35811658788702955,0.0
1676469341.8021839,652,1676469341,800335407,,-2.678480952817224,-0.42251967061090817,0.0
1676469341.8143468,653,1676469341,810398817,,-2.6777757048159074,-0.4187317373270812,0.0
1676469341.8227463,654,1676469341,820180892,,-2.678760404746317,-0.41730571073043066,0.0
1676469341.832088,655,1676469341,830218553,,-2.7588293795081937,-0.4117674524288759,0.0
1676469341.8422947,656,1676469341,840090036,,-2.7605991305335706,-0.4096896708070956,0.0
1676469341.8522074,657,1676469341,850355386,,-2.7619720358552677,-0.40541943786414975,0.0
1676469341.8658466,658,1676469341,860200643,,-2.764169731730378,-0.4029107370537477,0.0
1676469341.8757737,659,1676469341,871026515,,-2.8642231186244786,-0.3055374864406937,0.0
1676469341.88199,660,1676469341,879957914,,-2.8660188203406065,-0.30164586621260353,0.0
1676469341.8924842,661,1676469341,890314817,,-2.867548031349523,-0.29881217573244706,0.0
1676469341.9027538,662,1676469341,900428295,,-2.851266121801268,-0.21760192546049176,0.0
1676469341.9129684,663,1676469341,910104990,,-2.847349590512028,-0.21288749662546202,0.0
1676469341.922687,664,1676469341,920615196,,-2.8480570495230086,-0.2064047163292457,0.0
1676469341.9335852,665,1676469341,930109500,,-2.6516557197613126,-0.4266295631972529,0.0
1676469341.9418163,666,1676469341,939999341,,-2.6527284674161864,-0.4214275530738703,0.0
1676469341.9518006,667,1676469341,950078964,,-2.654898729522447,-0.41932743021090263,0.0
1676469341.9643958,668,1676469341,961146354,,-2.8120153111269195,-0.3656993816532264,0.0
1676469341.9731185,669,1676469341,970103502,,-2.8130788907117927,-0.3598650230761959,0.0
1676469341.982429,670,1676469341,980388641,,-2.8157490089641173,-0.3567870749644849,0.0
1676469341.9946046,671,1676469341,990419149,,-2.8181906107016252,-0.3495187272958042,0.0
1676469342.0028274,672,1676469342,345945,,-2.8583307100619306,-0.18980728021502724,0.0
1676469342.0127842,673,1676469342,10152101,,-2.859848621886821,-0.18400944139616435,0.0
1676469342.022337,674,1676469342,20069837,,-2.86118110055565,-0.1816722355125495,0.0
1676469342.032127,675,1676469342,30044555,,-2.722793467040389,-0.3461103698571276,0.0
1676469342.0414953,676,1676469342,39983034,,-2.7230269976417074,-0.3418137325140875,0.0
