Time,header.seq,header.stamp.secs,header.stamp.nsecs,header.frame_id,vector.x,vector.y,vector.z
1676469335.307874,1,1676469335,300422668,,2.533445211154187,-5.394834256732456,0.07179407784456243
1676469335.3190837,2,1676469335,312773704,,2.517263897376916,-5.335572594047263,0.07759133782757668
1676469335.322408,3,1676469335,320604324,,2.508592369224572,-5.367366644227852,0.08971823346107126
1676469335.3308775,4,1676469335,326458930,,2.508592369224572,-5.367366644227852,0.08971823346107126
1676469335.33648,5,1676469335,333269357,,2.5129445874382146,-5.378560942054993,0.10230740216513463
1676469335.3416398,6,1676469335,340357780,,2.537428769661267,-5.393891645339857,0.0863896430490542
1676469335.3531382,7,1676469335,350087165,,2.5401602138189636,-5.4234627579054315,0.06854968877464643
1676469335.3669763,8,1676469335,362612962,,2.557137174651857,-5.455792997819263,0.0968635038137523
1676469335.3724055,9,1676469335,370006561,,2.2754370626631717,-5.453582130388836,0.02909829845504875
1676469335.3827302,10,1676469335,380657196,,2.281766149648872,-5.462888067715875,-0.012023493500098433
1676469335.3915186,11,1676469335,390073537,,2.2780927554516386,-5.517354392873471,-0.03865978561873918
1676469335.4017882,12,1676469335,400087833,,2.3666945423835464,-5.477239912998174,-0.039129160711270414
1676469335.4175677,13,1676469335,410184144,,2.260667793414085,-5.451831061414838,0.020223159854216417
1676469335.4213233,14,1676469335,419958114,,2.2803531280078073,-5.3147793665165,0.047544804112584514
1676469335.4348755,15,1676469335,432227134,,2.3083850319330783,-5.116809794396312,0.13745458866932028
1676469335.441885,16,1676469335,440118074,,2.7968593471003285,-4.369680943171704,0.16463913595894586
1676469335.4517586,17,1676469335,450062990,,2.8568900569697155,-3.8160732475674073,0.19298355112773571
1676469335.466069,18,1676469335,462151527,,2.7000203627065993,-3.042812933171877,0.3182836962724292
1676469335.4721277,19,1676469335,470138549,,2.7190182085606893,-2.4608821909784906,0.35004926393148705
1676469335.4820778,20,1676469335,479998826,,3.2290017397578823,-1.7735901322723033,0.5199591399061819
1676469335.4921448,21,1676469335,490161418,,3.353638068431687,-0.7761536008617287,0.5725432151155868
1676469335.5025887,22,1676469335,500095844,,3.2936545681385727,-0.023913208331416674,0.5906891414646784
1676469335.5127077,23,1676469335,510697126,,3.1850989220274237,0.8843220088576965,0.7597085606869204
1676469335.5211112,24,1676469335,520099163,,3.0044900371731886,1.4078415851125128,0.9169339543743249
1676469335.5316904,25,1676469335,530030965,,2.9086229708511375,2.0496150031807403,0.972457765847386
1676469335.5418546,26,1676469335,540016889,,2.936711723915938,2.9807276048638034,0.9176933235418135
1676469335.5519152,27,1676469335,550066709,,2.835124752728873,3.377458366847676,1.0552590246598657
1676469335.5626593,28,1676469335,560107946,,2.6903269601374826,3.7025717186379903,1.1855227556405477
1676469335.5721552,29,1676469335,570065498,,2.6637788018434545,4.19319414996555,1.1952912390234214
1676469335.5830235,30,1676469335,580523014,,2.5918645995259535,4.453235087246475,1.2590030733429471
1676469335.593166,31,1676469335,590088129,,2.6433291043988474,4.7810081876628425,1.2861230484067239
1676469335.602,32,1676469335,600158452,,2.633923162264608,4.916254620609034,1.3125637744638692
1676469335.615968,33,1676469335,610143661,,2.711723139051039,5.039831890532094,1.2873495514681812
1676469335.623553,34,1676469335,620169401,,2.878673476493514,5.152838603288949,1.2402525980791663
1676469335.631781,35,1676469335,630128383,,2.9203102636064857,5.170079679851777,1.1877084207470927
1676469335.6416047,36,1676469335,640068292,,2.9893334514601646,5.147843031477828,1.1448678575372768
1676469335.6517267,37,1676469335,650332212,,3.0588112906528817,5.118201640915921,1.1033289906441157
1676469335.6662574,38,1676469335,660373449,,3.0317587915212996,4.970798106676639,1.1103074585355694
1676469335.6722496,39,1676469335,670421600,,3.028061982525064,4.905004851360939,1.0643167504009818
1676469335.6821547,40,1676469335,680161952,,3.005439756957867,4.80891765562558,1.0787048440250426
1676469335.691172,41,1676469335,690052509,,3.0457972511037164,4.719684347733384,1.0606312872300065
1676469335.7027922,42,1676469335,700241804,,3.0370404368396255,4.639460545930032,1.0555322813176442
1676469335.7123978,43,1676469335,710215330,,3.023833755602857,4.570741919787854,1.0634268543244352
1676469335.7220545,44,1676469335,720169782,,3.0556522991613266,4.552727589421968,1.0369804958912436
1676469335.7323983,45,1676469335,730060577,,3.016282244960371,4.493910710275975,1.019380644122748
1676469335.7418835,46,1676469335,740023851,,3.107971818244891,4.503027645179314,1.0058193672831934
1676469335.7525222,47,1676469335,750092744,,3.085873474712351,4.515328792851839,1.0037235803165878
1676469335.7629611,48,1676469335,761530160,,3.10171834116241,4.53092233460233,1.0124241476199396
1676469335.7759814,49,1676469335,770161390,,3.1561147755497183,4.5664775619736195,1.0070988366941702
1676469335.7822733,50,1676469335,780172348,,3.0913453529788715,4.585316798332289,1.0136630026261284
1676469335.7917264,51,1676469335,790121078,,3.195969894932837,4.666183771272104,1.0042098864419433
1676469335.8021684,52,1676469335,800484180,,3.234969506293361,4.725222729572349,1.0058640078657144
1676469335.8119228,53,1676469335,810075044,,3.337255085675111,4.829263877303576,1.0157915241985342
1676469335.8219361,54,1676469335,820024251,,3.4661396864088165,4.88813768597302,0.9944742442107974
1676469335.8338745,55,1676469335,830234289,,3.4112334402686577,4.968250557041917,1.010023522183305
1676469335.8413105,56,1676469335,839970588,,3.433604572535104,5.017440726317199,0.9795641613169821
1676469335.8520157,57,1676469335,850616693,,3.4931757380607764,5.094586044791622,0.9893019963885386
1676469335.863306,58,1676469335,861895084,,3.493204498435392,5.1257728773684255,0.9795533191562141
1676469335.8720002,59,1676469335,870310306,,3.5146162945569728,5.18949749966049,0.9803074106709077
1676469335.8816612,60,1676469335,880048036,,3.5004340752872216,5.23016882240722,0.9804830476226747
1676469335.891357,61,1676469335,890032052,,3.534520562791324,5.2642032877386065,0.979035369417771
1676469335.9021802,62,1676469335,900051593,,3.6146141704565182,5.300027652293599,0.9803700623419013
1676469335.9120507,63,1676469335,910191535,,3.571406436523184,5.329031419477214,0.9753560249873232
1676469335.9227753,64,1676469335,921108245,,3.4712235775036713,5.3222643218498495,1.0287006576302054
1676469335.9321659,65,1676469335,930273532,,3.5743761281907385,5.3477442270971265,1.0578360230190447
1676469335.9417846,66,1676469335,940102815,,3.607511714596933,5.3672171650494125,1.073014455278421
1676469335.9564712,67,1676469335,950011491,,3.488186682138553,5.34322689659491,1.0953933671585168
1676469335.966519,68,1676469335,962843418,,3.5997877372476395,5.379760890576554,1.0865142636179497
1676469335.973542,69,1676469335,970906257,,3.5902387857592095,5.389063765902046,1.0960483542730939
1676469335.9825785,70,1676469335,980530738,,3.5772289333621337,5.379637232079611,1.1113878747441814
1676469335.9916291,71,1676469335,990058898,,3.6929569862038742,5.391066524759729,0.9543250600755215
1676469336.001442,72,1676469336,105142,,3.7734714099668403,5.441214333231684,0.6763681292875662
1676469336.0134642,73,1676469336,10024547,,5.282788347710788,6.400439479899726,0.26597507151940886
1676469336.022126,74,1676469336,20239591,,6.572152419444582,7.326600714070226,0.4892293708718192
1676469336.0322304,75,1676469336,30100584,,8.480992512848358,8.549268888390795,0.7273006047694357
1676469336.0415075,76,1676469336,40104866,,12.118401204964647,10.57379142020693,1.2044055683225587
1676469336.0519147,77,1676469336,50102233,,14.238635903473424,11.781867292632468,1.5201976227692104
1676469336.065994,78,1676469336,62031507,,16.261771339042056,13.296290925441834,1.9784023406081555
1676469336.072127,79,1676469336,70319890,,17.322428842180983,14.209861842331836,2.2193679836082194
1676469336.0820935,80,1676469336,80246448,,17.92081113807858,14.743775758667043,2.3798290099350714
1676469336.0943933,81,1676469336,90230941,,18.821045172152274,15.422225811621997,2.5112273545705115
1676469336.1014836,82,1676469336,99948644,,19.311698473181405,15.65268969506283,2.6688379022872555
1676469336.112751,83,1676469336,110308885,,19.660764586019962,15.806723854857893,2.6590737099496593
1676469336.122157,84,1676469336,120828390,,19.931194007237373,15.888441891552928,2.683924478951513
1676469336.1317344,85,1676469336,130056619,,19.867494194339624,15.887534762738971,2.662399617537404
1676469336.1427374,86,1676469336,140061616,,19.64210025896412,15.835932257980808,2.53209316172358
1676469336.153251,87,1676469336,150194168,,19.323970406498912,15.771652950602666,2.464692058886663
1676469336.1627698,88,1676469336,160178899,,19.113900897653547,15.707932365805869,2.398938851823376
1676469336.1717567,89,1676469336,170105934,,18.081604373128886,15.352947015891333,2.28659980590413
1676469336.182164,90,1676469336,180223941,,17.35632151578129,15.054725231104307,2.1158697251502017
1676469336.1918378,91,1676469336,190076112,,16.116161899321707,14.449604931267992,1.817642638563707
1676469336.2013617,92,1676469336,200175523,,15.205739455609365,14.080975875003316,1.5974629767939577
1676469336.2164707,93,1676469336,210246324,,14.376310086612053,13.649302970706843,1.42289213072268
1676469336.2219834,94,1676469336,220520973,,12.638680778669745,12.842566887120933,1.0666106737844019
1676469336.2320504,95,1676469336,229930400,,11.904145637547302,12.406434552812629,0.9233994481654301
1676469336.2415564,96,1676469336,240164756,,10.376932926697387,11.52795923271256,0.6002677263581458
1676469336.2518516,97,1676469336,250243902,,9.658071022306967,11.118531186105029,0.41073002203963344
1676469336.2652454,98,1676469336,260693550,,8.263283108684263,10.333676793673842,0.17868221777036564
1676469336.2729585,99,1676469336,270463705,,7.3342016990505305,9.767394315209984,0.014199977325287948
1676469336.281672,100,1676469336,280086994,,6.41591405997271,9.199389648274405,-0.13256316763742138
1676469336.2916331,101,1676469336,290114164,,5.164729940355814,8.427423490405952,-0.1996963133281591
1676469336.3028471,102,1676469336,300769090,,4.48994090778137,8.024760796728954,-0.35122758688059025
1676469336.313257,103,1676469336,310043573,,3.3562572996245605,7.295198308162412,-0.5067766653098084
1676469336.3226345,104,1676469336,320183277,,2.497598427028825,6.7046511787812975,-0.5662925944353198
1676469336.334537,105,1676469336,330247163,,2.0049784003412077,6.405950017019275,-0.6588466921406319
1676469336.3427596,106,1676469336,340761184,,1.0693874981571043,5.844361653380452,-0.8727277849782078
1676469336.3520288,107,1676469336,350232601,,0.35684260703467996,5.373230158383719,-0.9073081316555217
1676469336.364631,108,1676469336,361542224,,-0.42625442086221266,4.804252234430432,-0.8671198398942146
1676469336.3723593,109,1676469336,370173215,,-1.0497942016443917,4.42455749359162,-0.9520567091681117
1676469336.3820882,110,1676469336,380471467,,-1.7181373650139589,3.9359360028187917,-1.1261689327118385
1676469336.3914373,111,1676469336,390052080,,-2.6194749365051013,3.3886688479014313,-1.2432409182546473
1676469336.4016752,112,1676469336,400104045,,-2.6194749365051013,3.3886688479014313,-1.2432409182546473
1676469336.4154983,113,1676469336,410838127,,-2.9875305596309314,2.901193042204431,-1.2045426122639642
1676469336.4223373,114,1676469336,420467615,,-4.453631468554467,2.024530370032957,-1.2330808134559836
1676469336.4327428,115,1676469336,430048465,,-4.763521004719139,1.7467949127065732,-1.2472558670753586
1676469336.4416864,116,1676469336,440070152,,-5.701403242605755,1.1400080306912619,-1.2984338022990982
1676469336.4522002,117,1676469336,450444459,,-6.200605430447331,0.899354794223501,-1.304689702099024
1676469336.466385,118,1676469336,460444450,,-6.749360807071897,0.4968079743873942,-1.3170505435272009
1676469336.4737072,119,1676469336,470565080,,-7.02247272691243,0.4228736657842354,-1.4816433728276732
1676469336.4819584,120,1676469336,480159044,,-7.529964967155166,0.14343347522147923,-1.467470322780243
1676469336.4930317,121,1676469336,490142822,,-7.842059028789493,0.0423975793641011,-1.6477263539323201
1676469336.501961,122,1676469336,500070571,,-8.285559832415544,-0.21744704087221464,-1.5943122831053598
1676469336.5144129,123,1676469336,510150194,,-8.663850556828702,-0.37575594919513144,-1.5840261595368452
1676469336.5218694,124,1676469336,520076274,,-8.930132619565434,-0.42356811161220165,-1.7523597681542744
1676469336.5321376,125,1676469336,530181884,,-9.212446182021557,-0.6634006546213705,-1.641436096261866
1676469336.54197,126,1676469336,540211200,,-9.450453914254183,-0.6754615453384716,-1.7606716376508686
1676469336.5515993,127,1676469336,550100803,,-9.699269577018638,-0.8149317760088097,-1.756887018675371
1676469336.5636322,128,1676469336,561919927,,-9.663424096625452,-0.7095063394042188,-1.7807059093362716
1676469336.5733232,129,1676469336,570202827,,-10.199745835608649,-0.916287444000744,-1.6688038037525756
1676469336.5822184,130,1676469336,580183744,,-10.182996486659093,-0.8766508872724518,-1.7405104902082265
1676469336.5914123,131,1676469336,590060949,,-9.726933805401293,-0.2736686990982522,-2.365750784617984
1676469336.6016297,132,1676469336,600109338,,-10.247195010885047,-0.7608211458185873,-1.8313732368513573
1676469336.6127062,133,1676469336,610326766,,-10.260986417039646,-0.7581327337857463,-1.7325448132037171
1676469336.6230757,134,1676469336,620160579,,-10.230584062452087,-0.5091293402917305,-1.8624330543600227
1676469336.6349895,135,1676469336,631354570,,-10.244344971994563,-0.4177100021968775,-1.8659409367214324
1676469336.642043,136,1676469336,640321969,,-10.06714383062508,-0.3323190063404092,-1.7952480585304755
1676469336.6522863,137,1676469336,650231838,,-9.884279647221831,-0.2931585617228034,-1.8317683828492648
1676469336.6633158,138,1676469336,661952495,,-9.871860536753763,-0.07341529966946847,-1.9301990112229865
1676469336.6717281,139,1676469336,670011758,,-9.725305019356496,0.05269391508656103,-1.8936840099412058
1676469336.6817653,140,1676469336,680080413,,-9.641229578822418,0.17914852343547105,-1.852264380150429
1676469336.6932044,141,1676469336,690049171,,-9.557436031732111,0.28432822370682703,-1.8337463569537222
1676469336.7017183,142,1676469336,700119495,,-9.423259745207943,0.4168083803163142,-1.8446071213155464
1676469336.7122524,143,1676469336,710338592,,-9.283742070422763,0.5469493030377784,-1.860019057995352
1676469336.7213962,144,1676469336,720169782,,-9.125522276168676,0.7534997455837383,-1.8115975295857314
1676469336.7315927,145,1676469336,730139732,,-9.043609685682078,0.8990432299180202,-1.8604923442033603
1676469336.7431686,146,1676469336,740194559,,-8.88537357016641,1.0414897417584474,-1.8031240379604427
1676469336.7526038,147,1676469336,750155925,,-8.832220696786894,1.1846544673154624,-1.8628857116442468
1676469336.765041,148,1676469336,762806415,,-8.66188227417674,1.3454508400798324,-1.7945057985790964
1676469336.7749593,149,1676469336,770848035,,-8.108956460883915,1.5853493518974358,-1.826859564624102
1676469336.7823493,150,1676469336,780158042,,-8.0659720280908,1.6905644194697576,-1.7831927404344152
1676469336.7913964,151,1676469336,790121555,,-7.755118604194226,1.922142526784941,-1.7639993435854135
1676469336.8014283,152,1676469336,800064563,,-7.744651760939419,2.0029444984245752,-1.6966899523284809
1676469336.8149085,153,1676469336,810178041,,-7.284393410999034,2.280921613979305,-1.6677774981432087
1676469336.8214922,154,1676469336,820112705,,-7.124970232538744,2.350900345533298,-1.6602621831229567
1676469336.833139,155,1676469336,830133676,,-6.948908329270322,2.6142403330101613,-1.6765010286470654
1676469336.8420093,156,1676469336,840100288,,-6.551489123140431,2.943487319184139,-1.5959348770755777
1676469336.8517268,157,1676469336,850115537,,-6.070667443646395,3.153371603501696,-1.6579889742895226
1676469336.8661323,158,1676469336,862238645,,-5.880320375629551,3.3015047842770744,-1.5883600738600825
1676469336.8729115,159,1676469336,870311260,,-5.934701966330244,3.420093341931602,-1.5087397837920087
1676469336.8816788,160,1676469336,880084276,,-5.356964416319076,3.691646464254953,-1.4095554835290869
1676469336.8915293,161,1676469336,890138864,,-4.94615319670156,4.02905378148227,-1.4013074751461487
1676469336.9029365,162,1676469336,900572061,,-4.4635190181664015,4.280441259374857,-1.3786617322199264
1676469336.9121304,163,1676469336,910630464,,-4.118583768418121,4.58578544292661,-1.3617936192564901
1676469336.9218035,164,1676469336,920050859,,-4.056639295287665,4.709532737153019,-1.351377697477992
1676469336.9332106,165,1676469336,930232286,,-3.594443443712531,4.884057582730708,-1.331727993849196
1676469336.9421263,166,1676469336,940164566,,-3.2380072306207968,5.087366551507486,-1.231235570754213
1676469336.9515955,167,1676469336,950105667,,-3.016006915537856,5.371598340823728,-1.2241818584226878
1676469336.9630315,168,1676469336,960913658,,-2.572903180604893,5.540756495863682,-1.1017424487032308
1676469336.9716287,169,1676469336,970088005,,-2.1926326407093044,5.5999770201769214,-1.132698617798819
1676469336.9823513,170,1676469336,980501413,,-1.9555022854873012,5.811489849645036,-1.0856541505324593
1676469336.9986007,171,1676469336,990094661,,-1.4706447043137718,6.088826215795373,-0.9828235561674581
1676469337.0099542,172,1676469337,6104230,,-1.0239925439448734,6.245085518536896,-0.8522127924356608
1676469337.014955,173,1676469337,10842800,,-0.9072294903335575,6.294031148936853,-0.9085795403670882
1676469337.0216208,174,1676469337,20036697,,-0.47307905005620937,6.519588018052643,-0.8947248232362577
1676469337.0345223,175,1676469337,30091762,,-0.21342350052654382,6.611128404747601,-0.7385099850136903
1676469337.0418303,176,1676469337,40173053,,0.26369281745614376,6.784826353619159,-0.7110236694544707
1676469337.0529163,177,1676469337,50056219,,0.6663942669983448,6.89675820137168,-0.6968058413979769
1676469337.0657637,178,1676469337,60772180,,0.7753811798163538,6.9760811754584156,-0.5924344568707313
1676469337.0754435,179,1676469337,70199251,,0.9932728643553659,7.076297932547611,-0.5885118522047226
1676469337.0827236,180,1676469337,80482721,,1.6041507482854294,7.307635933078304,-0.5694101642571491
1676469337.0925894,181,1676469337,90684413,,1.9491655883767756,7.330554571957363,-0.3901063932115059
1676469337.102575,182,1676469337,100434541,,2.0855224054003454,7.41748940787337,-0.44207190555176545
1676469337.1143603,183,1676469337,110244035,,2.3034117313005975,7.442959410546614,-0.34363850513613825
1676469337.1255858,184,1676469337,120258808,,2.5438387843215047,7.55070390452591,-0.387759790296089
1676469337.137378,185,1676469337,132996559,,2.9166234171464147,7.551256334905711,-0.30789224452731206
1676469337.1465347,186,1676469337,142598390,,3.250872229273473,7.696499608706173,-0.21736575100384722
1676469337.1512866,187,1676469337,150101184,,3.4432732470081606,7.718628754081285,-0.1807443888217981
1676469337.1632888,188,1676469337,161941528,,3.7004183086811975,7.783329189980956,-0.16439275878606374
1676469337.1779952,189,1676469337,170114040,,3.8653421741628344,7.654206474139786,-0.07420536803306092
1676469337.184654,190,1676469337,181245803,,3.9912517372793923,7.79378682276531,-0.06690120746391881
1676469337.1919484,191,1676469337,190373182,,4.317093427492246,7.80071280254538,0.0009412813042193113
1676469337.2017846,192,1676469337,200329303,,4.483940606718164,7.820947129437285,-0.03641941124335984
1676469337.2121956,193,1676469337,210468292,,4.594177372344699,7.746280589689199,-0.0053359436527756045
1676469337.222886,194,1676469337,220187664,,4.833840540272938,7.792640311956796,0.06289152403829505
1676469337.2328598,195,1676469337,230170011,,5.098791588640597,7.799021857389404,0.18595475870444647
1676469337.2415757,196,1676469337,240163087,,5.33037635196666,7.841657651445237,0.09602483527196569
1676469337.252982,197,1676469337,250126600,,5.3618040045419075,7.800494117273915,0.16185192325532805
1676469337.2640026,198,1676469337,260328054,,5.537223100326828,7.711527748020423,0.23636207455926814
1676469337.2718859,199,1676469337,270031929,,5.534570272885209,7.667373851814411,0.19415223310447116
1676469337.28203,200,1676469337,280021667,,5.788138779022604,7.710077734723113,0.20304847737644627
1676469337.2956522,201,1676469337,290041446,,5.758949343534757,7.571741120723445,0.36219723531899123
1676469337.3019373,202,1676469337,300331592,,5.972418890094028,7.5309066137693765,0.3085703686477418
1676469337.3123524,203,1676469337,310390710,,6.013515507782448,7.524734858232746,0.3081005425181571
1676469337.3222463,204,1676469337,320164918,,6.017825503700603,7.365986420563363,0.2766634084907611
1676469337.3317482,205,1676469337,330064535,,5.993065918407203,7.309136170915987,0.3715794964064692
1676469337.3423843,206,1676469337,340792417,,6.281628232848343,7.294232059896358,0.4191887758005286
1676469337.3531127,207,1676469337,350318431,,6.165464206960412,7.17279377356417,0.3642304975515783
1676469337.3630526,208,1676469337,361153364,,6.261791917167262,7.108323199707656,0.37268931791281495
1676469337.3737156,209,1676469337,370368003,,6.341077616413542,7.075325203144114,0.4129637121823526
1676469337.3851154,210,1676469337,380540847,,6.4445006913505365,7.1152902047910125,0.3643153421270863
1676469337.395298,211,1676469337,390206098,,6.461465863302874,7.0399016471611375,0.3609673027502233
1676469337.4016666,212,1676469337,400307893,,6.234953764479256,6.888467715950632,0.38567827867721255
1676469337.413574,213,1676469337,410176038,,6.284556682255654,6.929578429137687,0.3429617040254105
1676469337.422405,214,1676469337,420657634,,6.314996754133315,6.8985845157708985,0.33584451086442524
1676469337.4320867,215,1676469337,430111408,,6.1445330558801565,6.76731400368242,0.36332441809828064
1676469337.4421556,216,1676469337,440001010,,6.031765967853742,6.654292250180409,0.39557994968302285
1676469337.4530523,217,1676469337,450364589,,6.0571718286608744,6.622645851810939,0.38715839592152984
1676469337.4647315,218,1676469337,460179567,,6.148866847883599,6.661965431511606,0.37916676135148875
1676469337.4717095,219,1676469337,470059633,,6.238315784615805,6.69166299301157,0.3775698238098888
1676469337.4816854,220,1676469337,480096340,,5.882492015562045,6.481339563533801,0.3726587976115366
1676469337.49791,221,1676469337,490410327,,5.800256590502054,6.430347949816868,0.37959006509609466
1676469337.5022192,222,1676469337,500360727,,5.803194090251595,6.45321408864438,0.41189581509529344
1676469337.5118473,223,1676469337,510074615,,5.612873961641281,6.321244644290795,0.3949919705494217
1676469337.522752,224,1676469337,520951509,,5.5665201161336535,6.371584386120322,0.36796925809953784
1676469337.5319788,225,1676469337,530267715,,5.4365902964995145,6.3347154171523705,0.326014528361221
1676469337.5424695,226,1676469337,540187597,,5.26903318060631,6.321011950186876,0.2525620921680829
1676469337.5526805,227,1676469337,550338983,,5.08478622152399,6.200719754349311,0.3757748205098256
1676469337.5633593,228,1676469337,560368299,,5.206548656361358,6.2799153991117596,0.2519002177913122
1676469337.5732555,229,1676469337,570302009,,4.826843843840198,6.118124755143147,0.25323857194948896
1676469337.5826676,230,1676469337,580536603,,4.850124999641911,6.132892290353986,0.34331803506330516
1676469337.5916152,231,1676469337,590251207,,4.608304795003012,6.0104833496163845,0.2944373560747438
1676469337.601958,232,1676469337,600037574,,4.569931205637788,6.062385235766617,0.21905789448211155
1676469337.6117997,233,1676469337,610118150,,4.492899831042065,6.017291908300108,0.23220572034266013
1676469337.6218235,234,1676469337,620328903,,4.366476048975166,5.946562270967613,0.24985545827690983
1676469337.6348617,235,1676469337,630718231,,4.193158366063353,5.832051034004171,0.17418895022774517
1676469337.6421297,236,1676469337,640103340,,4.042480245740108,5.769414616079893,0.19114996005100904
1676469337.6517038,237,1676469337,650326728,,4.035335686975934,5.873807355438521,0.12079557818347172
1676469337.6653626,238,1676469337,661894083,,3.8116749600216977,5.676847947081478,0.1547476553709306
1676469337.6726801,239,1676469337,670603990,,3.5765139702254345,5.663001265072453,0.06460909220015165
1676469337.6822011,240,1676469337,680184602,,3.336836282906458,5.596520707801614,0.08566287716389802
1676469337.6962175,241,1676469337,690112590,,3.322681688843505,5.629046534851371,0.12396803140319555
1676469337.7023032,242,1676469337,700069665,,3.1000035168577544,5.568116244053061,0.08430425426046739
1676469337.7122715,243,1676469337,710286378,,3.0120684170680807,5.644710571976103,0.07562344206626619
1676469337.721694,244,1676469337,720265150,,2.942479934842821,5.582499319052109,0.08194499486373522
1676469337.7324407,245,1676469337,730136156,,2.8156677999355355,5.566334169452473,0.04069290244044035
1676469337.7416158,246,1676469337,740191459,,2.600135336193571,5.493233861058608,-0.007597391364022451
1676469337.751732,247,1676469337,750221729,,2.311123713778054,5.408960219815274,0.0524335917821633
1676469337.7627938,248,1676469337,760647773,,2.320607832854205,5.520133752348034,-0.05475566261432273
1676469337.7712626,249,1676469337,770054578,,2.1267887388556437,5.354836718122717,0.046365694916918464
1676469337.7816687,250,1676469337,780083894,,2.0280847626980854,5.37352258241225,-0.048306185222184765
1676469337.7965715,251,1676469337,790111303,,1.915696447420409,5.3583551642624805,-0.0008608480155408795
1676469337.8027759,252,1676469337,801118373,,1.9410383904306008,5.403793622391501,-0.05052322865358838
1676469337.8125157,253,1676469337,810467004,,1.895290550625333,5.39900428569895,-0.06386703127799066
1676469337.8222022,254,1676469337,820093631,,1.658780312877513,5.368401734942943,-0.051181715349227025
1676469337.8315115,255,1676469337,830034732,,1.5911457646019225,5.402162210786718,-0.11206043468150698
1676469337.8414562,256,1676469337,840151309,,1.5367337327177915,5.281990985513634,-0.010178304301522289
1676469337.8529623,257,1676469337,850212812,,1.4706302868791303,5.351264823790356,-0.13605524778965825
1676469337.8699474,258,1676469337,863857984,,1.348024695609118,5.247951739340993,-0.10500367834374932
1676469337.8780606,259,1676469337,872709035,,1.2792948299714686,5.3643103387116335,-0.15400036066309086
1676469337.8832986,260,1676469337,880544185,,1.1456526395365934,5.217967715781756,-0.08224447451288165
1676469337.891351,261,1676469337,890117406,,1.141743922211817,5.334182852288262,-0.14152736404089508
1676469337.9024591,262,1676469337,900012254,,1.0606440245292321,5.268749007561742,-0.12462358696668828
1676469337.913546,263,1676469337,910307407,,0.8306233902996086,5.269010441725908,-0.14831992349492557
1676469337.922141,264,1676469337,920195341,,0.8360314218750251,5.298409014729182,-0.1676509976610104
1676469337.9355822,265,1676469337,930384159,,0.7835927458833983,5.357063005272746,-0.1542308612131333
1676469337.9428463,266,1676469337,940161466,,0.7025691291661479,5.434857481511596,-0.18878268078073018
1676469337.9514413,267,1676469337,950093507,,0.5066550418957753,5.308834935640494,-0.22955248241242654
1676469337.9635723,268,1676469337,961400985,,0.6473406260892345,5.3849661377221185,-0.26689522352050155
1676469337.9713447,269,1676469337,970047473,,0.6242902995075292,5.445958996261528,-0.21027006340839488
1676469337.9826326,270,1676469337,980129003,,0.43842967660215904,5.332900186313026,-0.19403606407904717
1676469337.9917076,271,1676469337,990474462,,0.42631568366109884,5.511985513627975,-0.26426183957950394
1676469338.0052693,272,1676469338,1775503,,0.2883331034160015,5.44926654151754,-0.20085101417009762
1676469338.01401,273,1676469338,10192155,,0.3182011416477812,5.5156070168263716,-0.2596723210551278
1676469338.0222318,274,1676469338,20408630,,0.27204359098938335,5.576696353770625,-0.24041853784325737
1676469338.0349216,275,1676469338,30224800,,0.11553247516571208,5.558900982855518,-0.2173307660688302
1676469338.0416324,276,1676469338,39982795,,0.058793751734896114,5.690703082695733,-0.33112875875163533
1676469338.051873,277,1676469338,50160169,,0.11221013115253153,5.652859996125908,-0.2731290638828443
1676469338.0664186,278,1676469338,63070774,,0.1343289137479836,5.65773753780748,-0.2984039357331999
1676469338.0725648,279,1676469338,70154190,,0.12218528789941524,5.706930515400374,-0.35689210487648154
1676469338.0822973,280,1676469338,80178737,,-0.026372226858104475,5.700173411714378,-0.29254940639417837
1676469338.0917113,281,1676469338,90219497,,-0.018741122455544393,5.660443798862919,-0.2097599359132681
1676469338.1035175,282,1676469338,101629018,,0.03503333764332389,5.7219188422772636,-0.3266395871571545
1676469338.1119325,283,1676469338,110282659,,-0.09006565578951271,5.672438747422913,-0.27783765920997294
1676469338.1227443,284,1676469338,120242118,,0.057843302988911376,5.780967099501915,-0.31987027122963024
1676469338.1339188,285,1676469338,130120038,,-0.04312139748722925,5.744178014677484,-0.3368327124432368
1676469338.1419766,286,1676469338,140092372,,0.0538290652783137,5.817402616441433,-0.32331103235783976
1676469338.1521962,287,1676469338,150129556,,0.09708830141854408,5.907595924804019,-0.34146992728192177
1676469338.162583,288,1676469338,160311460,,-0.053629626272804744,5.742165423943184,-0.34017298497679654
1676469338.1719484,289,1676469338,170502185,,-0.0024649951010862377,5.7891123413955565,-0.34743499351793505
1676469338.182359,290,1676469338,180591583,,0.10290431450789359,5.7893468148101785,-0.29976264902129435
1676469338.1947346,291,1676469338,190376520,,0.08695487822031184,5.789764303197788,-0.3138683421085306
1676469338.2019973,292,1676469338,200159549,,0.31988951723405784,5.951044734054101,-0.4037304866112961
1676469338.212131,293,1676469338,210592269,,0.1930483902852591,5.886076868829769,-0.38496909799804446
1676469338.222726,294,1676469338,220092058,,0.23325580257660591,5.8129373430592794,-0.3135127136441403
1676469338.2328815,295,1676469338,230073690,,0.3288583092240829,5.846553992962418,-0.24225299281287735
1676469338.2420952,296,1676469338,240124940,,0.3833945941786532,5.76087783083273,-0.27636122474406866
1676469338.2512586,297,1676469338,250102519,,0.3463420716539357,5.791902504408421,-0.27346468581627914
1676469338.2637217,298,1676469338,261078596,,0.2553638352470441,5.785381869239598,-0.32762865446784895
1676469338.2715628,299,1676469338,270030498,,0.30809476218913784,5.7554410057464285,-0.2848093369340467
1676469338.2814996,300,1676469338,280080080,,0.29316394384548095,5.7940140698996405,-0.31413822726704077
1676469338.2913027,301,1676469338,290119171,,0.35256422239876184,5.779466311901396,-0.31302597781443736
1676469338.3031232,302,1676469338,300440549,,0.34616327499554006,5.805969834185583,-0.2871331667920715
1676469338.314366,303,1676469338,310782432,,0.2591596940755072,5.880141446216531,-0.2744681110817866
1676469338.3213494,304,1676469338,320081949,,0.37011414125743863,5.857051949626061,-0.30575705065582304
1676469338.3321145,305,1676469338,330163002,,0.4803888521741256,5.838574806123098,-0.30245671973242455
1676469338.341993,306,1676469338,340402841,,0.5439263178896548,5.912121758632532,-0.28628445045068585
1676469338.3520222,307,1676469338,350111007,,0.6097789273733912,5.908675180305574,-0.29943806219401015
1676469338.3652818,308,1676469338,360415697,,0.5017029463848517,5.815546123607616,-0.2841900351733978
1676469338.372871,309,1676469338,370110750,,0.4370569514798005,5.811628514525862,-0.22963708513072292
1676469338.3820655,310,1676469338,380328893,,0.5513472060452634,5.904592223035377,-0.2769656422132107
1676469338.3915398,311,1676469338,390062808,,0.7088769816823371,5.927222408682891,-0.252987984960323
1676469338.401953,312,1676469338,400316238,,0.6438616179806607,5.883877629566927,-0.24709144354060997
1676469338.4134235,313,1676469338,410348176,,0.6005577697444635,5.942349269813095,-0.2702919193358841
1676469338.4214864,314,1676469338,420081138,,0.6327486687076135,6.02096795368362,-0.2638320471825419
1676469338.432939,315,1676469338,430217742,,0.7382605223917924,6.022814459681804,-0.2645034168839162
1676469338.4414012,316,1676469338,440029859,,0.8962209059380609,5.976728446524111,-0.19320065185071902
1676469338.4516902,317,1676469338,450317621,,0.9773449128610149,6.0980675160350115,-0.26760891842075596
1676469338.4654849,318,1676469338,461646318,,0.8947425633360989,6.0788281711140355,-0.2606564746786593
1676469338.4730422,319,1676469338,470121383,,0.9210078375844293,6.019261853361049,-0.26498366114091254
1676469338.4821458,320,1676469338,480076551,,0.8978124316437728,6.004619817993805,-0.2591048258165956
1676469338.4916077,321,1676469338,490210771,,1.1562190348312529,6.111394427496958,-0.3056101616415665
1676469338.502144,322,1676469338,500058412,,1.0706566393609225,6.109988543784331,-0.2883725954328658
1676469338.5126407,323,1676469338,510730266,,1.0885879302376569,6.13482094725498,-0.2105817532359139
1676469338.5220137,324,1676469338,520464658,,1.1190452172720777,6.082046629841969,-0.19346381339695126
1676469338.5330114,325,1676469338,530115842,,1.0492873631220707,6.0683848650978485,-0.218787729111402
1676469338.542531,326,1676469338,540020227,,1.1090123006384036,6.160647879089811,-0.2798157229222884
1676469338.5555463,327,1676469338,550239562,,1.172548866515157,6.246222321114536,-0.2712518635758951
1676469338.5668807,328,1676469338,562629461,,1.2226536183314647,6.200487315974516,-0.22473862131629255
1676469338.5740488,329,1676469338,570061206,,1.274450834783244,6.153722198413177,-0.20227096042437337
1676469338.5821161,330,1676469338,580146789,,1.1869743977871257,6.166238849010653,-0.16822136095674903
1676469338.5915625,331,1676469338,590191602,,1.3560190132587935,6.215520381030151,-0.19368171728337263
1676469338.6018434,332,1676469338,600110530,,1.3235230240407054,6.162642362883424,-0.2088089198931913
1676469338.6121144,333,1676469338,610532522,,1.3674413841463904,6.192250248774226,-0.18287976444291054
1676469338.6228085,334,1676469338,621134996,,1.3793153081539908,6.2231001608259575,-0.19629296217818393
1676469338.6373248,335,1676469338,632746696,,1.3500275978841025,6.246400270192926,-0.19315612456267375
1676469338.646134,336,1676469338,641406297,,1.408735813659843,6.237025313532829,-0.16183458329967365
1676469338.6515353,337,1676469338,650162696,,1.5660541719223504,6.229789396033274,-0.15649323219472833
1676469338.664432,338,1676469338,661049604,,1.570684103610745,6.196479496936832,-0.13667425954682821
1676469338.6722977,339,1676469338,670150041,,1.5660053536763534,6.241231360354738,-0.15230055181027352
1676469338.6816535,340,1676469338,680057764,,1.543516902033226,6.2517232622477135,-0.15074285644396174
1676469338.691462,341,1676469338,690203189,,1.5101978173785164,6.239101603462373,-0.15673944280660307
1676469338.7024736,342,1676469338,700186252,,1.415769273313382,6.229086392091862,-0.13947113700078467
1676469338.7115922,343,1676469338,710206985,,1.28658315344446,6.219704121766889,-0.1804916058199496
1676469338.7220304,344,1676469338,720386505,,1.3968774108665112,6.273082950705188,-0.22770773590394436
1676469338.7332456,345,1676469338,730169773,,1.4014689566158307,6.35310889141665,-0.23464675014579314
1676469338.7415578,346,1676469338,740471601,,1.4237249786505752,6.385380956525016,-0.20338174785724783
1676469338.751873,347,1676469338,750437974,,1.4494454545959519,6.361978514918186,-0.21270340560689152
1676469338.7647364,348,1676469338,762530565,,1.4886388716357983,6.328321507023958,-0.18766751063588533
1676469338.7734149,349,1676469338,770159721,,1.4898106439437167,6.319207228265935,-0.16210902266395802
1676469338.7859607,350,1676469338,781975984,,1.4937149639948326,6.320874041782839,-0.13918691621188745
1676469338.7968833,351,1676469338,791484117,,1.4523358438785663,6.308513846636335,-0.13759223622381722
1676469338.803025,352,1676469338,800849199,,1.442017795456571,6.289351877536425,-0.1454040794257448
1676469338.813051,353,1676469338,811182498,,1.435201680424983,6.258223662476463,-0.14670730422530212
1676469338.8226242,354,1676469338,820068120,,1.4066987312383172,6.224984669416488,-0.14259797706049926
1676469338.8343914,355,1676469338,830306053,,1.4002809485492556,6.225730837678688,-0.11293537526340101
1676469338.8428667,356,1676469338,840950250,,1.3860087973149138,6.218108599353091,-0.13415462902204078
1676469338.8521786,357,1676469338,850094795,,1.413383945385299,6.195927586316615,-0.15981155424864232
1676469338.8655846,358,1676469338,861489057,,1.4476698366577554,6.221322049836284,-0.14551606076491275
1676469338.872091,359,1676469338,870842695,,1.4663039590183629,6.17890726318683,-0.14683648100759514
1676469338.882929,360,1676469338,881476640,,1.471132102101929,6.187719689134279,-0.14099637244459262
1676469338.8923593,361,1676469338,890301942,,1.4594980303544958,6.180617767972717,-0.11855065868315044
1676469338.9024408,362,1676469338,900196790,,1.476967286521088,6.168683312115868,-0.1264325880491788
1676469338.9125888,363,1676469338,910422086,,1.5073829338103168,6.142414188097634,-0.12516094185974064
1676469338.921306,364,1676469338,920085906,,1.5121520414433143,6.157981161590131,-0.12745803211357284
1676469338.9328847,365,1676469338,930291891,,1.4786822773724042,6.145222997385559,-0.10707129129622418
1676469338.9417088,366,1676469338,940081357,,1.4489117022735807,6.095089810379963,-0.09672039264204878
1676469338.9520316,367,1676469338,950095653,,1.3998202836641147,6.052904270834661,-0.13907047378471243
1676469338.9622595,368,1676469338,960785388,,1.4161573280287925,6.057622117735346,-0.12150392114533196
1676469338.9720395,369,1676469338,970202445,,1.3915614990048863,6.011699487352076,-0.12716930837117926
1676469338.9831223,370,1676469338,980076551,,1.2820757295325362,5.969301015985271,-0.13926726437200654
1676469338.9941015,371,1676469338,990124464,,1.2625585478888621,5.959819025753949,-0.1305054385698361
1676469339.001961,372,1676469339,99897,,1.325730130974195,5.934263527417866,-0.14142735444219492
1676469339.012831,373,1676469339,10241270,,1.2897705285408858,5.875557790347741,-0.1509613829895188
1676469339.0226393,374,1676469339,20097494,,1.3132184869368762,5.887422607012902,-0.11903362397216864
1676469339.0316389,375,1676469339,30044555,,1.3849295870113412,5.900903018466739,-0.1380202046384461
1676469339.0416894,376,1676469339,40090322,,1.392172911620583,5.9029768525672335,-0.16839099481859832
1676469339.0541275,377,1676469339,50191164,,1.3893538366934255,5.902105669359045,-0.15361246210344318
1676469339.062691,378,1676469339,60420274,,1.4795676836940364,5.960243263327334,-0.14098681377874264
1676469339.072841,379,1676469339,70409059,,1.5008656443134152,5.981722993973425,-0.15091349054106157
1676469339.0825517,380,1676469339,80541133,,1.4349160420430358,5.977428528618348,-0.18681133560565533
1676469339.0921023,381,1676469339,90678453,,1.2963258473033155,5.992860159939493,-0.18828458610320142
1676469339.1016984,382,1676469339,100203514,,1.343274269407091,6.0212335756136355,-0.19939920852294318
1676469339.1135788,383,1676469339,110157728,,1.2355511428582628,6.011063109608292,-0.19170431570476656
1676469339.122771,384,1676469339,120257616,,1.2210600910368679,5.9962177563217605,-0.18603078745524357
1676469339.132095,385,1676469339,130052804,,1.2436605464045178,5.984380480226854,-0.18111458745731987
1676469339.1420422,386,1676469339,140005350,,1.178275632743697,5.934439531694503,-0.20671458913075813
1676469339.1515026,387,1676469339,150158166,,1.230673619489683,5.972075907079638,-0.1496640382414943
1676469339.1642392,388,1676469339,162258148,,1.2017487026387792,5.968936925934072,-0.13996970392229363
1676469339.176179,389,1676469339,172737598,,1.189917319304855,5.939988961017759,-0.1542258851269939
1676469339.1854897,390,1676469339,182904243,,1.2213239205961834,5.916870910618817,-0.16465148014963513
1676469339.194171,391,1676469339,190065383,,1.2000981492986238,5.876476466767973,-0.13703653110707736
1676469339.2015142,392,1676469339,199991703,,1.2275771844640742,5.895839786283573,-0.14560182419563694
1676469339.2133923,393,1676469339,210957765,,1.1341852508181607,5.853467618523517,-0.15441725411260962
1676469339.222345,394,1676469339,220205068,,1.0793662519465634,5.833556523543473,-0.17638715367286117
1676469339.2336104,395,1676469339,230097055,,1.1439829583351804,5.84962683188024,-0.18299516648135894
1676469339.2415462,396,1676469339,240020751,,1.1985417710714552,5.985890876780089,-0.389672239156692
1676469339.251677,397,1676469339,250266313,,1.1278526205530806,5.997503092539663,-0.3664061525533917
1676469339.2651687,398,1676469339,261574029,,1.1028462135589026,5.973520298602177,-0.34246823979050656
1676469339.275513,399,1676469339,270289897,,1.114169768078106,5.939772162247663,-0.3704861865922421
1676469339.2824042,400,1676469339,280465126,,1.0664918795976739,5.945369255311147,-0.3532565121949268
1676469339.295393,401,1676469339,290119171,,1.047223680270276,5.941373679058689,-0.33838954589074366
1676469339.30188,402,1676469339,300157070,,0.8849832017890874,5.715723790945965,-0.13816468328552545
1676469339.3135433,403,1676469339,310152292,,0.8411235833831895,5.708948793344438,-0.14409869669923092
1676469339.3216934,404,1676469339,320204734,,0.8007828235819783,5.743682086643505,-0.1387523412473511
1676469339.3321452,405,1676469339,330229997,,0.8225591574194465,5.7750389340382196,-0.12954917988419626
1676469339.3427048,406,1676469339,340093135,,0.7630529778170547,5.791099714156229,-0.1361927426060388
1676469339.352321,407,1676469339,350273609,,0.7201839879641174,5.812057027628137,-0.1170120659960989
1676469339.3629477,408,1676469339,361310958,,0.7229705013421889,5.87005853430317,-0.129727573352919
1676469339.372953,409,1676469339,370166063,,0.7080312158819771,5.910075988249011,-0.14826535073871727
1676469339.3821814,410,1676469339,380104780,,0.6468942277666984,5.9318285405326785,-0.12875018739013105
1676469339.3930552,411,1676469339,390232801,,0.6615397022269033,5.973614080506309,-0.15412482003219402
1676469339.402118,412,1676469339,400359869,,0.6218588903242759,5.941867620860684,-0.16524048705764713
1676469339.4117293,413,1676469339,410112857,,0.6511533222651739,6.00166780270639,-0.18451920612957476
1676469339.422002,414,1676469339,420177221,,0.6606924545252123,6.055633777024263,-0.18483223161290943
1676469339.4319973,415,1676469339,430111169,,0.6183292585321805,6.029995737558568,-0.20676247987633134
1676469339.4418778,416,1676469339,440138578,,0.618684736054077,6.051691853180224,-0.21759679798659037
1676469339.4551105,417,1676469339,452943086,,0.6248553755759878,6.069506448650598,-0.20572527951328998
1676469339.4646518,418,1676469339,460790872,,0.6751767627449752,6.077856581519172,-0.1994727634371665
1676469339.4756844,419,1676469339,471324443,,0.6466673754898021,6.094477380509019,-0.17793176862339624
1676469339.4825342,420,1676469339,480343103,,0.6083333686646678,6.073295209861422,-0.15362115442848187
1676469339.4913666,421,1676469339,490061044,,0.6563067060431381,6.092033259115756,-0.11948760319713758
1676469339.5013912,422,1676469339,500066995,,0.7089407785844206,6.084667281437354,-0.1059937197974242
1676469339.5136237,423,1676469339,510436058,,0.6924479792866288,6.101620407653823,-0.10042733070490054
1676469339.5218863,424,1676469339,520556211,,0.6372647035889898,6.086263719278312,-0.13430807866015076
1676469339.5324805,425,1676469339,530160188,,0.6912930854992694,6.070830411315842,-0.1520172488131837
1676469339.5420556,426,1676469339,540184020,,0.7761594521469578,6.12733181976665,-0.1689243878220042
1676469339.5529118,427,1676469339,550187349,,0.8367164397837581,6.165118601543997,-0.18507579429137525
1676469339.5636542,428,1676469339,560574769,,0.8533941063474986,6.174158137385884,-0.15505914826170525
1676469339.574394,429,1676469339,571408748,,0.978602702419557,6.188569652289854,-0.1411290692087782
1676469339.5823805,430,1676469339,580048799,,0.9684923311991889,6.14793277515263,-0.1629719654781454
1676469339.5919425,431,1676469339,590348243,,0.9212903879418911,6.083680016731771,-0.09749056123530946
1676469339.6016748,432,1676469339,600061416,,0.9178566240481525,6.0504541096070295,0.010738980118699053
1676469339.6118357,433,1676469339,610063314,,0.9148067805953994,6.041620821829207,0.01266538235278451
1676469339.6217859,434,1676469339,620164394,,0.9908524189361797,6.029511592916339,-0.02617019256678021
1676469339.631695,435,1676469339,630152225,,1.0716995834594785,6.1288177631877705,-0.029839635822836368
1676469339.642017,436,1676469339,640093088,,1.0963378150428067,6.164414521531031,-0.0005328830457633641
1676469339.651894,437,1676469339,650128126,,1.1449293807140013,6.152815886521799,-0.026101691266600332
1676469339.664523,438,1676469339,660817384,,1.1972310305393694,6.171011102586615,-0.012462429882038271
1676469339.6736467,439,1676469339,670131444,,1.280056500712888,6.236065646178133,-0.05699290532358333
1676469339.6819353,440,1676469339,680244922,,1.3579689264624328,6.190516858377961,-0.0623128910554704
1676469339.6919441,441,1676469339,690063953,,1.3157401129467303,6.135922332748539,0.004330931669317593
1676469339.7019184,442,1676469339,700378656,,1.2854654089753665,6.106348008765983,0.05268131724512251
1676469339.7125905,443,1676469339,710203170,,1.243528588432825,6.055019818189835,0.11165640845424679
1676469339.7221062,444,1676469339,720462322,,1.225318023143236,5.999580076977994,0.08738553361110481
1676469339.7321014,445,1676469339,730189085,,1.2902453899218231,5.991469020114531,0.06641174404562622
1676469339.741707,446,1676469339,740278244,,1.4375423379903276,6.040392282591198,0.07584794260856623
1676469339.7524283,447,1676469339,750203371,,1.4821662573960483,6.026045343773884,0.03538889658977731
1676469339.7659996,448,1676469339,761970996,,1.5000924635446409,5.992562608336586,0.04194903869000623
1676469339.7716703,449,1676469339,770118236,,1.5649426960664692,5.982953563085265,0.09168722249715616
1676469339.7816825,450,1676469339,780084371,,1.6385813309398207,6.016363453489394,0.1142475350372101
1676469339.7913592,451,1676469339,790130615,,1.6691224260878277,5.950667893334661,0.18774469002614255
1676469339.8014193,452,1676469339,800089359,,1.678108432056679,5.907110540952555,0.16992387793740685
1676469339.8122466,453,1676469339,810459852,,1.7264563848887118,5.909312168474814,0.15072686774679095
1676469339.8238661,454,1676469339,822451114,,1.717415668828361,5.958548999801375,0.13376125914489437
1676469339.835766,455,1676469339,831364870,,1.6847329548652863,5.938182858188886,0.08083201773936252
1676469339.843669,456,1676469339,841021537,,1.675229254794723,5.8977369401071025,0.17783973982561951
1676469339.8533788,457,1676469339,850063085,,1.7517922182721644,5.929259326271017,0.23685187891784526
1676469339.8636284,458,1676469339,860359191,,1.7455983619452524,5.904605412872637,0.24452616814067699
1676469339.8716137,459,1676469339,870091676,,1.819535445979527,5.923053036504342,0.16008055882681355
1676469339.8815067,460,1676469339,880015373,,1.8219951022322016,5.927159491044647,0.18290519043210135
1676469339.899054,461,1676469339,891981124,,1.8219951022322016,5.927159491044647,0.18290519043210135
1676469339.9061222,462,1676469339,902360916,,2.1342353368796525,5.950408596970178,0.2428422084655003
1676469339.9120524,463,1676469339,910558938,,2.1333949835949824,5.930174366391928,0.25399294815336576
1676469339.9217656,464,1676469339,920217752,,2.1333949835949824,5.930174366391928,0.25399294815336576
1676469339.9364803,465,1676469339,933538675,,2.1333949835949824,5.930174366391928,0.25399294815336576
1676469339.9482393,466,1676469339,942642211,,2.2191410631815263,5.988654991957554,0.23047113457832247
1676469339.9626882,467,1676469339,956511735,,2.310056079602925,5.823156697430031,0.30232392903242256
1676469339.970508,468,1676469339,968569993,,2.3316670568106264,5.732523795726608,0.3125084400563726
1676469339.9802809,469,1676469339,972769021,,2.3316670568106264,5.732523795726608,0.3125084400563726
1676469339.9823942,470,1676469339,981189489,,2.3456932552982144,5.730057316321964,0.2703903828916584
1676469339.993284,471,1676469339,990082502,,2.333610047337501,5.7523297824951785,0.3065923241761499
1676469340.0014226,472,1676469340,51736,,2.3621586955161122,5.752650794976099,0.3280953538893231
1676469340.0117242,473,1676469340,10478734,,2.3996898979952888,5.788570081211193,0.36069775731027715
1676469340.021985,474,1676469340,20403623,,2.3543523876887216,5.784104694737464,0.33419223054812
1676469340.0316536,475,1676469340,30061483,,2.340547607457441,5.797052295503932,0.3465510554446263
1676469340.041371,476,1676469340,40002584,,2.489203504823691,5.872740818941885,0.28279385460104967
1676469340.054355,477,1676469340,50488948,,2.450656015178781,5.870443697218559,0.26049622640611864
1676469340.0647073,478,1676469340,60307264,,2.4258016680843086,5.873641790592464,0.2917853450725554
1676469340.074893,479,1676469340,70057153,,2.410472476789983,5.876982579940629,0.3114051988190738
1676469340.0818717,480,1676469340,80191135,,2.4369368978620423,5.844643493850743,0.3174103834546418
1676469340.092455,481,1676469340,90337276,,2.4823611600867173,5.932756449388959,0.06383069791980601
1676469340.101826,482,1676469340,100138425,,2.4815645555407366,5.832572515105976,0.3345523093966943
1676469340.1121206,483,1676469340,110141992,,2.513022678747406,5.794781439493413,0.3449904946468601
1676469340.1257195,484,1676469340,121897697,,2.5119174273981675,5.7784170864562245,0.33551977802762334
1676469340.1316721,485,1676469340,130571842,,2.480757265976003,5.8128922327445895,0.3792902047441933
1676469340.1411626,486,1676469340,139944553,,2.4918178731744436,5.824100238868864,0.3859619429714677
1676469340.1520798,487,1676469340,150107145,,2.5115134917230995,5.7847169449656075,0.3672736788963986
1676469340.1639173,488,1676469340,160415649,,2.5001579913563114,5.7854957453322395,0.3663314764059351
1676469340.171833,489,1676469340,170105934,,2.527950418500897,5.808503080602367,0.36478346674592144
1676469340.1828434,490,1676469340,180108547,,2.4785987591962813,5.785755392197756,0.34913389640480547
1676469340.1915417,491,1676469340,189998865,,2.5142846866052038,5.87113205927195,0.19911646570992084
1676469340.2021408,492,1676469340,200209140,,2.5381465553480758,5.8981551248974595,0.22163969874857184
1676469340.2135324,493,1676469340,210211753,,2.4457936640389732,5.849639171706763,0.3440184005402804
1676469340.2237167,494,1676469340,221215724,,2.4218336987743454,5.8180260050649135,0.3161273995687254
1676469340.2329493,495,1676469340,230034351,,2.44039125164681,5.843802681217771,0.34076733316202906
1676469340.241706,496,1676469340,240536212,,2.4414085820354074,5.893517912145616,0.3408434497912842
1676469340.2521553,497,1676469340,250125885,,2.4436837780577876,5.89729486639106,0.3144126025350922
1676469340.2648363,498,1676469340,261174440,,2.445263838215636,5.914704831625817,0.3014686466073498
1676469340.2720509,499,1676469340,270028829,,2.434625891219668,5.956544982224306,0.2954286899463368
1676469340.2824552,500,1676469340,280110836,,2.461280821572183,5.995368097993524,0.2835621305139179
1676469340.2913554,501,1676469340,290127277,,2.4169482947697714,5.986243524549748,0.26785423496318583
1676469340.3019347,502,1676469340,300145387,,2.3667667330313096,5.994118788923916,0.262799026403629
1676469340.3116388,503,1676469340,310359716,,2.3940872158644897,6.021741617452697,0.2679405274814135
1676469340.321874,504,1676469340,320199966,,2.31325599269687,6.023732203741364,0.2493535172000619
1676469340.3318462,505,1676469340,330264091,,2.188847579773737,5.971792379517096,0.22076542417613368
1676469340.3426566,506,1676469340,340479135,,2.0807882091488237,5.9204584026915,0.2518831335491164
1676469340.3538566,507,1676469340,352582216,,2.049185266520496,5.926770487826882,0.26606718272006497
1676469340.3662257,508,1676469340,361687183,,1.9034457681028611,5.897409918496158,0.26689716210001996
1676469340.373299,509,1676469340,370250701,,1.821027376154698,5.948333351441633,0.2455595600188153
1676469340.382261,510,1676469340,380081653,,1.7933754342188484,5.930708286983615,0.23811353725375586
1676469340.391561,511,1676469340,390042304,,1.809686535416454,5.9355397440878805,0.23042005874137175
1676469340.4016113,512,1676469340,400086641,,1.7123653669852315,5.913703301439239,0.26090050874891274
1676469340.4115293,513,1676469340,410118579,,1.6197286252273517,5.899903378737041,0.2952689359100928
1676469340.4222555,514,1676469340,420164823,,1.5525765165533152,5.8875912953301714,0.2864617440655766
1676469340.4322178,515,1676469340,430135011,,1.513552934479686,5.85689932187644,0.2761320233545525
1676469340.4415884,516,1676469340,440134048,,1.5067534764240298,5.875160362840557,0.2320566102802058
1676469340.4529555,517,1676469340,450348854,,1.5139118504833733,5.921796020159614,0.20038430906185567
1676469340.4660623,518,1676469340,462760448,,1.6174728287556321,6.046809296816803,0.0049708438569027995
1676469340.4766798,519,1676469340,471511840,,1.5587969056539193,6.022023674477422,-0.0034115692983468894
1676469340.4816275,520,1676469340,480071783,,1.3851617489437629,5.875814608026319,0.15600667225993048
1676469340.4915264,521,1676469340,490130901,,1.1712455954800776,5.824424545296395,0.1833660299056349
1676469340.5013862,522,1676469340,500019550,,1.2393256110797708,5.849822969957198,0.1618243908134478
1676469340.5151381,523,1676469340,510433673,,1.2686470211533702,5.908819102642763,0.1351915708204242
1676469340.52116,524,1676469340,519937515,,1.2585198786571505,5.990579626662399,0.14282218537955754
1676469340.5324686,525,1676469340,530098676,,1.2330202310026486,5.986685819210049,0.08339220768816274
1676469340.5413637,526,1676469340,540076971,,1.2074940829467207,6.012235272173131,0.054690733740668844
1676469340.5531933,527,1676469340,550234556,,1.1935298578449824,6.0574291374946005,0.08850136321716481
1676469340.5633283,528,1676469340,560477256,,1.06733936902383,6.015717547993665,0.14706677939419924
1676469340.5754619,529,1676469340,570525884,,1.0113216534328227,5.993063666114274,0.13384175866158313
1676469340.5824285,530,1676469340,580070972,,0.9940769333384069,6.012720369713211,0.15572137595267846
1676469340.5921435,531,1676469340,590354681,,1.0100677936170808,6.052773298570535,0.16337366216483662
1676469340.6013842,532,1676469340,600081920,,1.030633033281961,6.080012808178188,0.13416925899411428
1676469340.6150467,533,1676469340,610424280,,1.1089326384184384,6.2649690671176765,-0.1058571106142169
1676469340.6239862,534,1676469340,620315790,,1.0489864021495157,6.260903575332919,-0.09670450635489931
1676469340.6319282,535,1676469340,630188465,,1.0915579912061422,6.295177663821797,-0.10130766300527583
1676469340.6418157,536,1676469340,640519857,,1.1616298069106892,6.285786251418486,-0.12810697613976418
1676469340.651512,537,1676469340,650139570,,1.1422590113768978,6.286289658070856,-0.14495588299898937
1676469340.6645458,538,1676469340,660579681,,1.1346534128570571,6.270647307674624,-0.15068784769018992
1676469340.6733916,539,1676469340,670378446,,1.150360970732549,6.258413351569495,-0.16161669557491576
1676469340.6820729,540,1676469340,680117607,,1.0915746305888623,6.236811938528517,-0.17083705031342297
1676469340.692043,541,1676469340,690332174,,1.0142293777457863,6.171598740492746,-0.1541350608961201
1676469340.7029693,542,1676469340,700475931,,1.050443872886222,6.141352723715066,-0.1700285748948752
1676469340.7114856,543,1676469340,710245847,,0.9746415452805307,6.075792629463323,-0.15572103615672445
1676469340.7230718,544,1676469340,721132278,,0.8596118889628878,6.077380908243916,-0.13218552147664264
1676469340.731365,545,1676469340,730189561,,0.8963698004806977,6.038015480441529,-0.16512573616155918
1676469340.741341,546,1676469340,740199565,,0.8827288607133915,6.005328371933386,-0.16579837967220523
1676469340.7518878,547,1676469340,750566005,,0.8325027924734627,6.029823826336952,-0.15008351353835828
1676469340.763062,548,1676469340,761461019,,0.8131540176382841,6.019190773998409,-0.14731547054019112
1676469340.7758293,549,1676469340,770539522,,0.8315721975318404,6.038836470950059,-0.17860121439709867
1676469340.7821496,550,1676469340,780392408,,0.8001009082353484,5.991478952540805,-0.1943348211757521
1676469340.791781,551,1676469340,790158271,,0.7481716889743086,5.958966841444222,-0.1835051010252874
1676469340.8022366,552,1676469340,800357103,,0.7493867329992258,5.872833855944518,0.06428595545440667
1676469340.811921,553,1676469340,810239076,,0.7502284971050239,5.880328581799356,0.05597625596390553
1676469340.823004,554,1676469340,820125579,,0.6453377774736142,5.827970490540966,0.05135360819058278
1676469340.8319676,555,1676469340,830113887,,0.6794626977706828,5.8718793433003045,0.05704638212393246
1676469340.8420885,556,1676469340,840563535,,0.653027145178056,5.888650663694968,0.05897771523830605
1676469340.8513114,557,1676469340,850139141,,0.6345548658472094,5.89383157664591,0.041278178557022205
1676469340.8680995,558,1676469340,863064050,,0.5718876363028819,5.88282221718908,0.03736898523509625
1676469340.8721182,559,1676469340,870116949,,0.6258078127115624,5.905992879050077,0.03989178757663708
1676469340.8822565,560,1676469340,880023002,,0.7031439917283558,5.922783311101548,0.026746921672337488
1676469340.8915453,561,1676469340,890153646,,0.7943509752055413,5.97821780090176,-0.010618805350714782
1676469340.9024754,562,1676469340,900507450,,0.856435434620485,6.03058932837749,0.0032065131940728457
1676469340.9114919,563,1676469340,910291433,,0.9284494273807308,6.022439816363132,-0.030864068383746873
1676469340.9214094,564,1676469340,920058012,,0.9839354289059868,5.988537898210749,-0.02894403588004546
1676469340.9315238,565,1676469340,930307626,,0.9547297348774716,6.003020318860861,0.01670802069763332
1676469340.9413831,566,1676469340,940046072,,1.0194747028067006,5.979319401267697,0.03910233450973441
1676469340.9514706,567,1676469340,950020074,,1.019795902374437,5.893398687871401,0.0039725338082276405
1676469340.9635136,568,1676469340,960197687,,0.988977228641743,5.895278993832358,0.03663971071341534
1676469340.9721615,569,1676469340,970594406,,0.9385223216844176,5.8518021821479165,0.06864271841841539
1676469340.982461,570,1676469340,980303287,,1.019917758907944,5.84968983745202,0.0423081500986057
1676469340.9921432,571,1676469340,990598201,,1.03800526607899,5.811154985629211,0.054586988940683874
1676469341.0020726,572,1676469341,70810,,1.2464945786454285,6.019311059084838,-0.16471003706416795
1676469341.0113962,573,1676469341,10126113,,1.3512207475764217,6.057564925521806,-0.15768558090738005
1676469341.0215414,574,1676469341,20111322,,1.5029616593439057,6.138229055994333,-0.15429841983068437
1676469341.0331187,575,1676469341,30369997,,1.4772187418223122,6.102919093585353,-0.14928748905352796
1676469341.0420625,576,1676469341,40167570,,1.5155500910989057,6.024279332626314,0.07268250284607569
1676469341.0514917,577,1676469341,50272464,,1.587411170452268,6.04504325796089,0.0650903101185732
1676469341.066056,578,1676469341,63392162,,1.476247846234104,5.985800548850822,0.08004750307337996
1676469341.0733716,579,1676469341,70069789,,1.3923775354053145,6.007727541240471,0.08223795233270444
1676469341.0818298,580,1676469341,80107688,,1.4623579288924022,5.987912939979537,0.08387696547762546
1676469341.0957916,581,1676469341,90296268,,1.537264817215313,5.967895767175782,0.07696912944123585
1676469341.1016068,582,1676469341,100140333,,1.5770780410199425,5.98684765168568,0.08450102958523378
1676469341.112293,583,1676469341,110456228,,1.7080716739348274,6.134108407436807,-0.07942908175383437
1676469341.1249099,584,1676469341,120245933,,1.7119068755301015,6.10086850141269,-0.0895912364859072
