Time,header.seq,header.stamp.secs,header.stamp.nsecs,header.frame_id,vector.x,vector.y,vector.z
1676469335.3197062,1,0,0,,0.42694628595218065,0.42694628595218065,0.2
1676469335.3229213,2,0,0,,0.4269472081778944,0.4269472081778944,0.2
1676469335.3321803,3,0,0,,0.4269472081778944,0.4269472081778944,0.2
1676469335.3364458,4,0,0,,0.4273130533078313,0.4273130533078313,0.2
1676469335.342608,5,0,0,,0.4273048075249791,0.4273048075249791,0.2
1676469335.3551996,6,0,0,,0.42730818643599755,0.42730818643599755,0.2
1676469335.3658218,7,0,0,,0.4273089052295685,0.4273089052295685,0.2
1676469335.3730192,8,0,0,,0.42733405543621633,0.42733405543621633,0.2
1676469335.3832972,9,0,0,,0.42733476647999136,0.42733476647999136,0.2
1676469335.3921483,10,0,0,,0.42731902083214374,0.42731902083214374,0.2
1676469335.4022965,11,0,0,,0.42731024750746793,0.42731024750746793,0.2
1676469335.4172986,12,0,0,,0.42728490373738115,0.42728490373738115,0.2
1676469335.4219024,13,0,0,,0.4272519225434215,0.4272519225434215,0.2
1676469335.4363966,14,0,0,,0.42474697440803055,0.42474697440803055,0.2
1676469335.4420862,15,0,0,,0.424720439106822,0.424720439106822,0.2
1676469335.4533174,16,0,0,,0.42469248171806334,0.42469248171806334,0.2
1676469335.4665034,17,0,0,,0.4243578594604135,0.4243578594604135,0.2
1676469335.472279,18,0,0,,0.42432739501267674,0.42432739501267674,0.2
1676469335.482154,19,0,0,,0.42433190539389853,0.42433190539389853,0.2
1676469335.4950035,20,0,0,,0.42429603546351197,0.42429603546351197,0.2
1676469335.5024886,21,0,0,,0.42419751723974947,0.42419751723974947,0.2
1676469335.514158,22,0,0,,0.4241506968477369,0.4241506968477369,0.2
1676469335.522236,23,0,0,,0.42412945078223946,0.42412945078223946,0.2
1676469335.5325348,24,0,0,,0.4247265025883913,0.4247265025883913,0.2
1676469335.542298,25,0,0,,0.4247396617418528,0.4247396617418528,0.2
1676469335.5524457,26,0,0,,0.4247268358296156,0.4247268358296156,0.2
1676469335.5630887,27,0,0,,0.4255154129704833,0.4255154129704833,0.2
1676469335.5723498,28,0,0,,0.42549827817171815,0.42549827817171815,0.2
1676469335.5830793,29,0,0,,0.42548881179600956,0.42548881179600956,0.2
1676469335.5963197,30,0,0,,0.4254852313902975,0.4254852313902975,0.2
1676469335.6026895,31,0,0,,0.4262182788679004,0.4262182788679004,0.2
1676469335.613038,32,0,0,,0.42621529907137157,0.42621529907137157,0.2
1676469335.624928,33,0,0,,0.42620734390586623,0.42620734390586623,0.2
1676469335.6321714,34,0,0,,0.4264942314708233,0.4264942314708233,0.2
1676469335.6422007,35,0,0,,0.42648669479429724,0.42648669479429724,0.2
1676469335.6521342,36,0,0,,0.426485729944706,0.426485729944706,0.2
1676469335.666085,37,0,0,,0.426477918150425,0.426477918150425,0.2
1676469335.6735032,38,0,0,,0.42659383479289714,0.42659383479289714,0.2
1676469335.6820273,39,0,0,,0.42658697234861553,0.42658697234861553,0.2
1676469335.6919694,40,0,0,,0.42659065737657254,0.42659065737657254,0.2
1676469335.703013,41,0,0,,0.42685171528160576,0.42685171528160576,0.2
1676469335.7126513,42,0,0,,0.4268464454203844,0.4268464454203844,0.2
1676469335.7225451,43,0,0,,0.42685005295038225,0.42685005295038225,0.2
1676469335.7328796,44,0,0,,0.426252717795074,0.426252717795074,0.2
1676469335.7424548,45,0,0,,0.4262550776079297,0.4262550776079297,0.2
1676469335.7524877,46,0,0,,0.4262512104597688,0.4262512104597688,0.2
1676469335.7648056,47,0,0,,0.42581591337114577,0.42581591337114577,0.2
1676469335.7755537,48,0,0,,0.42580164212197064,0.42580164212197064,0.2
1676469335.782763,49,0,0,,0.4258082410731912,0.4258082410731912,0.2
1676469335.7921228,50,0,0,,0.4258012468823791,0.4258012468823791,0.2
1676469335.8030107,51,0,0,,0.4265231778603793,0.4265231778603793,0.2
1676469335.8124435,52,0,0,,0.426534872302413,0.426534872302413,0.2
1676469335.8223283,53,0,0,,0.4265211009150744,0.4265211009150744,0.2
1676469335.8363256,54,0,0,,0.4249280885654688,0.4249280885654688,0.2
1676469335.8423173,55,0,0,,0.4249187461864949,0.4249187461864949,0.2
1676469335.8525333,56,0,0,,0.4249123758542538,0.4249123758542538,0.2
1676469335.8660078,57,0,0,,0.4244164256474376,0.4244164256474376,0.2
1676469335.872638,58,0,0,,0.4244126049980521,0.4244126049980521,0.2
1676469335.8821156,59,0,0,,0.4244061455431581,0.4244061455431581,0.2
1676469335.8958056,60,0,0,,0.42441931632131347,0.42441931632131347,0.2
1676469335.902964,61,0,0,,0.42461403724431995,0.42461403724431995,0.2
1676469335.9126334,62,0,0,,0.4246249373322726,0.4246249373322726,0.2
1676469335.9232442,63,0,0,,0.4246128205263615,0.4246128205263615,0.2
1676469335.932477,64,0,0,,0.424816566310823,0.424816566310823,0.2
1676469335.942281,65,0,0,,0.42482056133061646,0.42482056133061646,0.2
1676469335.9535189,66,0,0,,0.4248098937365413,0.4248098937365413,0.2
1676469335.9678051,67,0,0,,0.42587893370181323,0.42587893370181323,0.2
1676469335.9785266,68,0,0,,0.4258811927673221,0.4258811927673221,0.2
1676469335.982606,69,0,0,,0.42587055229753257,0.42587055229753257,0.2
1676469335.9921696,70,0,0,,0.4258476439008117,0.4258476439008117,0.2
1676469336.0026417,71,0,0,,0.42212799029767517,0.42212799029767517,0.2
1676469336.0120292,72,0,0,,0.42197483108103273,0.42197483108103273,0.2
1676469336.022337,73,0,0,,0.42175449663341047,0.42175449663341047,0.2
1676469336.0320923,74,0,0,,0.3850003634542227,0.3850003634542227,0.2
1676469336.0419986,75,0,0,,0.3842572432738543,0.3842572432738543,0.2
1676469336.0525377,76,0,0,,0.3835908576977254,0.3835908576977254,0.2
1676469336.0671954,77,0,0,,0.38214085538268094,0.38214085538268094,0.2
1676469336.0733871,78,0,0,,0.30528605755448346,0.30528605755448346,0.2
1676469336.0825212,79,0,0,,0.30375787142336375,0.30375787142336375,0.2
1676469336.096833,80,0,0,,0.3009443583905697,0.3009443583905697,0.2
1676469336.102702,81,0,0,,0.20639313591778277,0.20639313591778277,0.2
1676469336.113521,82,0,0,,0.20255917625784875,0.20255917625784875,0.2
1676469336.1229124,83,0,0,,0.19972858267486093,0.19972858267486093,0.2
1676469336.1325166,84,0,0,,0.10521888792276385,0.10521888792276385,0.2
1676469336.1427717,85,0,0,,0.10035334517896177,0.10035334517896177,0.2
1676469336.1539845,86,0,0,,0.096961968613863,0.096961968613863,0.2
1676469336.1640942,87,0,0,,0.09349751534819604,0.09349751534819604,0.2
1676469336.1735184,88,0,0,,0.06453018088817597,0.06453018088817597,0.2
1676469336.1828172,89,0,0,,0.06101995732784271,0.06101995732784271,0.2
1676469336.1920626,90,0,0,,0.05588285786032676,0.05588285786032676,0.2
1676469336.2022862,91,0,0,,0.06547097665429116,0.06547097665429116,0.2
1676469336.2160497,92,0,0,,0.06151979808455704,0.06220875431299208,0.19931104377156497
1676469336.22237,93,0,0,,0.05610737267604471,0.05750878497958184,0.19859858769646288
1676469336.234175,94,0,0,,0.09588093627433182,0.09779338166952134,0.19808755460481048
1676469336.24206,95,0,0,,0.09109931978436114,0.09354404495477678,0.19755527482958438
1676469336.2527435,96,0,0,,0.08790492577809692,0.09089517507314682,0.1970097507049501
1676469336.2664776,97,0,0,,0.08355108523439767,0.08710580550193787,0.1964452797324598
1676469336.2735634,98,0,0,,0.11900085105031134,0.12294086698293688,0.1960599840673745
1676469336.2826092,99,0,0,,0.11635913782450556,0.12069567538022995,0.19566346244427563
1676469336.2923527,100,0,0,,0.11274633064538837,0.11749539124488831,0.19525093940050006
1676469336.3035176,101,0,0,,0.14526677080610992,0.15026450886130335,0.19500226194480658
1676469336.3131952,102,0,0,,0.14220753163177374,0.14746793003678324,0.1947396015949905
1676469336.3228827,103,0,0,,0.14018025048863292,0.1457120884513855,0.19446816203724743
1676469336.3332086,104,0,0,,0.17396267226355672,0.17959652758836747,0.19436614467518926
1676469336.3437676,105,0,0,,0.17147280185985567,0.1772205544126034,0.19425224744725228
1676469336.3524246,106,0,0,,0.16984646835615635,0.17571564269542694,0.19413082566072942
1676469336.3647401,107,0,0,,0.16827694830875997,0.174274748903513,0.194002199405247
1676469336.3751428,108,0,0,,0.1829622633208573,0.18901498897075655,0.19394727435010076
1676469336.3830166,109,0,0,,0.18088812925843598,0.18700582577943803,0.19388230347899796
1676469336.391986,110,0,0,,0.1788601097127378,0.18505254351615907,0.19380756619657874
1676469336.4019566,111,0,0,,0.18601572255923154,0.1922469217538834,0.19376880080534817
1676469336.4174767,112,0,0,,0.18469997707819344,0.19097629479885103,0.19372368227934242
1676469336.423154,113,0,0,,0.18140164423055055,0.18773926562309268,0.19366237860745789
1676469336.433928,114,0,0,,0.17775562426610592,0.1841723837399483,0.19358324052615763
1676469336.441961,115,0,0,,0.1757345454924047,0.18224010444402694,0.19349444104837776
1676469336.453392,116,0,0,,0.17436840034123066,0.18096911372423174,0.19339928661699893
1676469336.4668424,117,0,0,,0.17229217467895153,0.17899789856910708,0.19329427610984445
1676469336.4744134,118,0,0,,0.16595603785144689,0.17279777287721634,0.19315826497423055
1676469336.4824524,119,0,0,,0.16446935501319768,0.17145382093429568,0.193015534078902
1676469336.4920146,120,0,0,,0.16230155197882057,0.1694388237810135,0.1928627281978071
1676469336.5028057,121,0,0,,0.15695675070262552,0.16427265920877457,0.19268409149385096
1676469336.5144987,122,0,0,,0.15469525144595506,0.1622001591563225,0.19249509228963257
1676469336.522138,123,0,0,,0.15313068597508075,0.16083143650293352,0.19229924947214724
1676469336.5350943,124,0,0,,0.14940168797150258,0.15731585920333865,0.19208582876816394
1676469336.5423944,125,0,0,,0.14710574160980586,0.15524369436979296,0.1918620472400129
1676469336.552078,126,0,0,,0.14551663830937744,0.15388516524314882,0.19163147306622863
1676469336.56435,127,0,0,,0.14649967921673657,0.15509274243831636,0.19140693677842022
1676469336.5743952,128,0,0,,0.14489168240354658,0.15371616480112077,0.19117551760242582
1676469336.5822558,129,0,0,,0.14334791314737202,0.1524103438258171,0.19093756932155492
1676469336.5939255,130,0,0,,0.14123148849899175,0.15054121311187746,0.1906902753871143
1676469336.602487,131,0,0,,0.1457038927506745,0.15523743021249772,0.19046646253817678
1676469336.6122081,132,0,0,,0.1442259739979327,0.15398956364154817,0.19023641035638453
1676469336.623209,133,0,0,,0.14215511507127881,0.1521579151391983,0.18999719993208053
1676469336.6348393,134,0,0,,0.1526021265875757,0.1627909717965126,0.18981115479106309
1676469336.6419578,135,0,0,,0.15069185868067148,0.1610753272533417,0.1896165314273298
1676469336.653054,136,0,0,,0.14939387484136224,0.15997745613336564,0.18941641870799664
1676469336.6661243,137,0,0,,0.15692688540710809,0.16767210616827014,0.18925477923883796
1676469336.67233,138,0,0,,0.1557405231282771,0.166652481482029,0.18908804164624812
1676469336.682514,139,0,0,,0.15456649725856186,0.1656502045893669,0.18891629266919496
1676469336.6962543,140,0,0,,0.1528916660457671,0.16415460037469864,0.18873706567106846
1676469336.7027004,141,0,0,,0.15945757809290292,0.17086618151426317,0.18859139657863977
1676469336.7147744,142,0,0,,0.1583717231696904,0.169930673224926,0.1884410499447644
1676469336.7226262,143,0,0,,0.15684394085305334,0.16856009045600892,0.18828385039704443
1676469336.732168,144,0,0,,0.1636864969572127,0.17552502145290377,0.18816147550430895
1676469336.7430928,145,0,0,,0.16225014095445278,0.17421757756233217,0.18803256339212063
1676469336.7524986,146,0,0,,0.16124891394675375,0.17334960254192353,0.18789931140483024
1676469336.765462,147,0,0,,0.15985742946149709,0.1720976299071312,0.1877597995543659
1676469336.7766287,148,0,0,,0.16315574811208847,0.17551835677385333,0.18763739133823515
1676469336.78296,149,0,0,,0.16220348811126353,0.17469263360500337,0.18751085450626018
1676469336.79136,150,0,0,,0.16085233187436465,0.1734741068339348,0.18737822504042984
1676469336.8020852,151,0,0,,0.16330794690256717,0.17604947448968888,0.1872584724128783
1676469336.814813,152,0,0,,0.1620017719429195,0.17486895475625994,0.18713281718665958
1676469336.822392,153,0,0,,0.16109711535322072,0.17409382902145387,0.18700328633176685
1676469336.833182,154,0,0,,0.16239928463026881,0.17551840626716614,0.1868808783631027
1676469336.842673,155,0,0,,0.16112415607131125,0.17437142060518265,0.1867527354661286
1676469336.8521152,156,0,0,,0.16025665905779007,0.17363574486732486,0.18662091419046523
1676469336.8660316,157,0,0,,0.16101210614231232,0.1745185989570618,0.18649350718525054
1676469336.8754852,158,0,0,,0.16010527418987155,0.17374305174589158,0.18636222244397999
1676469336.8821943,159,0,0,,0.15924938362050653,0.17302205092191697,0.18622733269858957
1676469336.8943949,160,0,0,,0.15798873595730661,0.17190189378976822,0.1860868421675384
1676469336.903138,161,0,0,,0.15830839455147386,0.17235975361585618,0.1859486409356177
1676469336.9126592,162,0,0,,0.15743206675962806,0.17162529932737353,0.18580676743225455
1676469336.9220297,163,0,0,,0.15654401417236924,0.17088283257722856,0.1856611815951407
1676469336.9372675,164,0,0,,0.15835834394217135,0.1728329973602295,0.18552534658194186
1676469336.942706,165,0,0,,0.1571431612285793,0.171759019548893,0.1853841416796863
1676469336.95198,166,0,0,,0.15628182142490746,0.17104246740818024,0.18523935401672723
1676469336.9652963,167,0,0,,0.15833524661496284,0.17322974387884144,0.18510550273612142
1676469336.9721868,168,0,0,,0.15754498877045514,0.17257660301923752,0.1849683857512176
1676469336.9826815,169,0,0,,0.1567170507363379,0.17188921889066697,0.18482783184567095
1676469337.001075,170,0,0,,0.1555727947155416,0.1708905103182793,0.18468228439726234
1676469337.0095186,171,0,0,,0.15789600773109796,0.17334698839187623,0.18454901933922174
1676469337.0162897,172,0,0,,0.15709695476669672,0.1726845128631592,0.18441244190353753
1676469337.022704,173,0,0,,0.1559946452694595,0.17172358543872834,0.18427105983073117
1676469337.0323124,174,0,0,,0.1609580956044972,0.17680302067041398,0.18415507493408323
1676469337.0418115,175,0,0,,0.15993559071560504,0.1759010107278824,0.18403457998772266
1676469337.0527236,176,0,0,,0.1592145065712869,0.17530340953588486,0.18391109703540207
1676469337.0667853,177,0,0,,0.15820696003474596,0.17442374427795412,0.18378321575679185
1676469337.0755093,178,0,0,,0.1611316866335094,0.17746116505146028,0.18367052158204913
1676469337.083308,179,0,0,,0.16047982589671017,0.1769246809101105,0.1835551449865997
1676469337.0933836,180,0,0,,0.1595131032963455,0.1760775704574585,0.183435532838887
1676469337.103247,181,0,0,,0.16143913446050287,0.1781130364394188,0.18332609802108407
1676469337.1142874,182,0,0,,0.16078263028458956,0.17756868881940843,0.18321394146518113
1676469337.1240542,183,0,0,,0.15984603748063447,0.1767483542442322,0.1830976832364023
1676469337.1378047,184,0,0,,0.162606365981096,0.1796106295967102,0.18299573638438582
1676469337.1482685,185,0,0,,0.16171416054233909,0.17882430264472962,0.18288985789760948
1676469337.1519327,186,0,0,,0.16109216669428944,0.17831075502157212,0.18278141167271733
1676469337.1647582,187,0,0,,0.16276389797721505,0.18008207592487335,0.1826818220523417
1676469337.1756148,188,0,0,,0.16215493707514406,0.17957523882865906,0.182579698246485
1676469337.1867588,189,0,0,,0.16155795500951411,0.17908284255027773,0.1824751124592364
1676469337.19601,190,0,0,,0.16071522766271235,0.178348373336792,0.18236685432592037
1676469337.202415,191,0,0,,0.16174187645357252,0.17947763395786287,0.18226424249570966
1676469337.212815,192,0,0,,0.1611612435083926,0.17900199105739595,0.18215925245099665
1676469337.2230053,193,0,0,,0.16028979641374946,0.17823934722661974,0.18205044918712976
1676469337.2363284,194,0,0,,0.16077699301994444,0.17883238192319872,0.18194461109674573
1676469337.242756,195,0,0,,0.15992247397239806,0.17808742574691774,0.18183504822548033
1676469337.2533565,196,0,0,,0.15933355784667136,0.17761045733451844,0.18172310051215293
1676469337.2645671,197,0,0,,0.160355207187444,0.17873841460227968,0.18161679258516433
1676469337.2738142,198,0,0,,0.15950630339601637,0.17799951324462893,0.18150679015138746
1676469337.2819922,199,0,0,,0.15894856568735244,0.17755400550842287,0.18139456017892958
1676469337.2925878,200,0,0,,0.15810945816916827,0.17683074426889422,0.18127871390027406
1676469337.3026803,201,0,0,,0.15999713831221463,0.17882430289745332,0.1811728354147613
1676469337.3124955,202,0,0,,0.15943442841554284,0.17836974427938462,0.18106468413615823
1676469337.3225691,203,0,0,,0.15863837171351314,0.17768526127099993,0.18095311044251322
1676469337.3328538,204,0,0,,0.16169838464590908,0.18084106885910034,0.18085731578680875
1676469337.3451133,205,0,0,,0.16094650200546384,0.18018824499368669,0.18075825701177717
1676469337.3558486,206,0,0,,0.16040651928425434,0.17974951469898226,0.1806570045852721
1676469337.3644795,207,0,0,,0.16277083504384163,0.18220281637668612,0.18056801866715552
1676469337.3749168,208,0,0,,0.1622854367747128,0.18180837622642518,0.18047706054828763
1676469337.3849669,209,0,0,,0.1618001846548617,0.1814160438871384,0.18038414076772333
1676469337.394601,210,0,0,,0.16109671469170453,0.18080853126764299,0.18028818342406155
1676469337.4026368,211,0,0,,0.16298556432976127,0.18278346358776093,0.18020210074200035
1676469337.416872,212,0,0,,0.16253237824885253,0.18241818657398226,0.18011419167487025
1676469337.423748,213,0,0,,0.16185850115156772,0.18183513380765917,0.18002336734390856
1676469337.433515,214,0,0,,0.163717469413358,0.18377522593975068,0.17994224347360732
1676469337.4420836,215,0,0,,0.1630760039054215,0.18321767207145692,0.1798583318339646
1676469337.4531705,216,0,0,,0.16260909226589798,0.18283657754421234,0.17977251472168565
1676469337.4651256,217,0,0,,0.16383947912465932,0.18414623323678972,0.1796932458878696
1676469337.4717765,218,0,0,,0.1632180126657665,0.18360673311233522,0.17961127955343129
1676469337.4821782,219,0,0,,0.16274318844409588,0.18321582974195483,0.17952735870214107
1676469337.498362,220,0,0,,0.1621298312247813,0.1826890273857117,0.17944080383906963
1676469337.5028036,221,0,0,,0.16258048205545547,0.18322356041431428,0.1793569216411412
1676469337.511979,222,0,0,,0.16213050285944344,0.1828592847943306,0.17927121806511284
1676469337.5228994,223,0,0,,0.16150331405441168,0.18232049352169039,0.1791828205327213
1676469337.5330324,224,0,0,,0.1618319763259113,0.1827354784011841,0.1790964979247272
1676469337.5425553,225,0,0,,0.1611854387025416,0.18217805052518846,0.17900738817735315
1676469337.5539792,226,0,0,,0.16071437509068848,0.18179799692869186,0.17891637816199663
1676469337.5652578,227,0,0,,0.16027448647138476,0.1814508540391922,0.17882363243219257
1676469337.5734067,228,0,0,,0.15972505896728634,0.18099644431352616,0.17872861465376022
1676469337.5828524,229,0,0,,0.15926326708455682,0.18063149495601655,0.17863177212854028
1676469337.592229,230,0,0,,0.15859673760231138,0.1800646422624588,0.1785320953398526
1676469337.6029963,231,0,0,,0.1589259880476892,0.1804914355301857,0.1784345525175035
1676469337.6137636,232,0,0,,0.15846056465407016,0.18012538521051408,0.1783351794435561
1676469337.6224296,233,0,0,,0.1578035294271648,0.17957049749612808,0.17823303193103673
1676469337.6368802,234,0,0,,0.15970192083454732,0.1815610834860802,0.17814083734846714
1676469337.642273,235,0,0,,0.159074671552819,0.1810286907505989,0.17804598080222012
1676469337.652649,236,0,0,,0.15863687766185403,0.1806874595618248,0.17794941810002923
1676469337.664847,237,0,0,,0.16024973929856423,0.18238837930202487,0.17786135999653938
1676469337.6731558,238,0,0,,0.15964085318787696,0.1818701424789429,0.17777071070893408
1676469337.6824634,239,0,0,,0.15921433228130938,0.18153594186306002,0.1776783904182494
1676469337.6925523,240,0,0,,0.15864730601390006,0.18106359760761262,0.17758370840628745
1676469337.7023351,241,0,0,,0.16033283667022585,0.18283495349645615,0.17749788317376974
1676469337.7129848,242,0,0,,0.1599476198894203,0.18253705145835877,0.1774105684310615
1676469337.7222288,243,0,0,,0.1594081646559775,0.18208716042280199,0.17732100423317554
1676469337.732566,244,0,0,,0.16238613058845403,0.18513942920923235,0.1772467013792217
1676469337.7421746,245,0,0,,0.16185997507368924,0.1846898245716095,0.17717015050207974
1676469337.7559626,246,0,0,,0.16148667254925372,0.18439454930067065,0.1770921232485831
1676469337.763152,247,0,0,,0.16230635037079455,0.18528778818130495,0.1770185621894896
1676469337.7721632,248,0,0,,0.16192199778490665,0.18497854288101198,0.17694345490389468
1676469337.7832553,249,0,0,,0.16156686043259505,0.18469990599870684,0.17686695443388822
1676469337.7933264,250,0,0,,0.16105169901461008,0.18426342744350435,0.17678827157110574
1676469337.803155,251,0,0,,0.16176017486655117,0.18504666994571686,0.17671350492083432
1676469337.814971,252,0,0,,0.16140810362271668,0.1847707449769974,0.1766373586457193
1676469337.8228936,253,0,0,,0.1608892935044706,0.1843302834415436,0.176559010062927
1676469337.8322134,254,0,0,,0.16255954604873063,0.1860701850605011,0.17648936098822954
1676469337.84216,255,0,0,,0.16207524599779252,0.1856575970244408,0.17641764897335174
1676469337.8565793,256,0,0,,0.161723496349293,0.1853789526128769,0.17634454373641612
1676469337.8707507,257,0,0,,0.16123854657611253,0.1849691570544243,0.17626938952168825
1676469337.87905,258,0,0,,0.16234375737642648,0.18614364960670474,0.17620010776972175
1676469337.8827083,259,0,0,,0.1619929411261976,0.18586351577758792,0.1761294253486097
1676469337.8918676,260,0,0,,0.1615456009816468,0.18548873197317126,0.17605686900847556
1676469337.9030013,261,0,0,,0.1625872544127643,0.18659739841222764,0.17598985600053668
1676469337.9137135,262,0,0,,0.1621125086356342,0.18619169416427614,0.17592081447135807
1676469337.9225707,263,0,0,,0.16178941638596656,0.1859389073777199,0.17585050900824667
1676469337.934662,264,0,0,,0.1620583844358981,0.18627649296283724,0.17578189147306086
1676469337.942619,265,0,0,,0.16160964959452748,0.185898266787529,0.1757113828069985
1676469337.9518244,266,0,0,,0.16123214954546095,0.18559280272483827,0.17563934682062268
1676469337.9629421,267,0,0,,0.16080015851333737,0.18523463850021363,0.17556552001312375
1676469337.9721382,268,0,0,,0.16179936616581084,0.18630233448028566,0.1754970316855252
1676469337.9824336,269,0,0,,0.16146114228699804,0.18603394089698794,0.1754272013900101
1676469337.9921486,270,0,0,,0.16102496174408795,0.18566941328763964,0.17535554845644832
1676469338.005642,271,0,0,,0.16198052457755208,0.18669151852846147,0.17528900604909065
1676469338.0148818,272,0,0,,0.1615298775195897,0.18630932484626772,0.17522055267332198
1676469338.0231478,273,0,0,,0.1610929493476689,0.18594268325805666,0.17515026608961226
1676469338.0348432,274,0,0,,0.1612956663363755,0.1862143286037445,0.175081337732631
1676469338.041984,275,0,0,,0.16085581075124145,0.18584524678468706,0.1750105639665544
1676469338.0523992,276,0,0,,0.1605336896816671,0.18559514996528625,0.17493853971638085
1676469338.066673,277,0,0,,0.16133641988472344,0.18646555240631105,0.1748708674784124
1676469338.0730424,278,0,0,,0.16090082180104853,0.1860994570374489,0.17480136476359964
1676469338.083327,279,0,0,,0.16057182097526193,0.18584124996185303,0.17473057101340891
1676469338.0950263,280,0,0,,0.16014256571337582,0.1854845718407631,0.17465799387261272
1676469338.105639,281,0,0,,0.1606241844360888,0.1860360105109215,0.17458817392516732
1676469338.1125004,282,0,0,,0.16017942382965683,0.1856629352283478,0.17451648860130906
1676469338.1231039,283,0,0,,0.15987307868867517,0.18542944287300112,0.17444363581567407
1676469338.1352942,284,0,0,,0.16059529276672005,0.18622055418014527,0.1743747385865748
1676469338.142536,285,0,0,,0.160164245286721,0.18586020567178727,0.17430403961493374
1676469338.1549344,286,0,0,,0.15986535662346482,0.18563315125226976,0.17423220537119508
1676469338.1632073,287,0,0,,0.16006117506725193,0.18589947233438492,0.17416170273286702
1676469338.1725943,288,0,0,,0.15964123397224547,0.18555177237749101,0.17408946159475447
1676469338.183231,289,0,0,,0.1592185745998323,0.1852030975174904,0.1740154770823419
1676469338.1947088,290,0,0,,0.1589053156994164,0.18496501354932787,0.17394030215008854
1676469338.2021062,291,0,0,,0.15887946232852337,0.18501408972978592,0.17386537259873747
1676469338.2130554,292,0,0,,0.15855938558910487,0.18477016217947007,0.17378922340963482
1676469338.223491,293,0,0,,0.15812592120732666,0.18441462467432024,0.17371129653300643
1676469338.2340724,294,0,0,,0.16018266647573115,0.1865386765599251,0.17364398991580604
1676469338.2424874,295,0,0,,0.15976700113546252,0.18619205096483232,0.1735749501706302
1676469338.2538686,296,0,0,,0.15947940865300297,0.18597458555459978,0.1735048230984032
1676469338.2656589,297,0,0,,0.16004426098429564,0.18660640585660937,0.17343785512768628
1676469338.2724502,298,0,0,,0.1597798532304108,0.18640994836091995,0.17336990486949086
1676469338.2820895,299,0,0,,0.15951203504158856,0.18621107479810717,0.1733009602434814
1676469338.2948754,300,0,0,,0.15914262678924201,0.18591210601568223,0.17323052077355983
1676469338.30473,301,0,0,,0.16065201473274826,0.18748407359123231,0.17316794114151596
1676469338.3148093,302,0,0,,0.1603041134359658,0.1872001714372635,0.1731039419987023
1676469338.3221865,303,0,0,,0.16005636133514048,0.18701733267307283,0.17303902866206766
1676469338.3324811,304,0,0,,0.1609540367130816,0.1879751323890686,0.172978904324013
1676469338.3431,305,0,0,,0.16063477568560244,0.18771728493690493,0.17291749074869753
1676469338.3524687,306,0,0,,0.16039172006478905,0.18753654658317567,0.1728551734816134
1676469338.3664522,307,0,0,,0.16003196757710575,0.1872405911397934,0.17279137643731235
1676469338.373061,308,0,0,,0.1607386777734399,0.18800726501107218,0.17273141276236773
1676469338.3824399,309,0,0,,0.16052649920031425,0.18785580740094185,0.17267069179937244
1676469338.3919578,310,0,0,,0.1602055055153608,0.18759682956814766,0.17260867594721316
1676469338.4026175,311,0,0,,0.16100910720441342,0.1884581405544281,0.17255096664998532
1676469338.4132452,312,0,0,,0.1607010502090931,0.18820903836727143,0.17249201184182167
1676469338.423457,313,0,0,,0.16048223648622034,0.18804997477054597,0.17243226171567438
1676469338.4342213,314,0,0,,0.16065419063706396,0.18828052628993988,0.1723736643471241
1676469338.441689,315,0,0,,0.16034058434734344,0.18802678606987,0.17231379827747345
1676469338.452316,316,0,0,,0.16012174220371247,0.18786860092163088,0.1722531412820816
1676469338.4656618,317,0,0,,0.16111726311622263,0.18891952421307565,0.172197738903147
1676469338.4738543,318,0,0,,0.1608982775730729,0.1887567548954487,0.17214152267762423
1676469338.4822588,319,0,0,,0.16066976771242023,0.18858531844258308,0.17208444926983715
1676469338.492564,320,0,0,,0.16042259051368235,0.18839616044163704,0.17202643007204532
1676469338.5028389,321,0,0,,0.16159688321118057,0.18962234143197537,0.1719745417792052
1676469338.5139792,322,0,0,,0.1614148577522695,0.18949285171449184,0.17192200603777766
1676469338.5223732,323,0,0,,0.16114575504700243,0.1892773621982336,0.17186839284876884
1676469338.5335238,324,0,0,,0.16208873681341113,0.19026899896979332,0.17181973784361781
1676469338.5419338,325,0,0,,0.16185113240881266,0.1900809896171093,0.17177014279170336
1676469338.552061,326,0,0,,0.16169910811719596,0.18997906997561456,0.17172003814158143
1676469338.5673242,327,0,0,,0.16147582356957493,0.1898067516696453,0.17166907189992964
1676469338.5740376,328,0,0,,0.16261849585289062,0.19099445169448853,0.1716240441584021
1676469338.5838828,329,0,0,,0.16245490615347924,0.1908764795970917,0.17157842655638755
1676469338.5933719,330,0,0,,0.16224691937471925,0.19071491822719575,0.17153200114752354
1676469338.6021209,331,0,0,,0.1630684071414381,0.1915785134267807,0.17148989371465742
1676469338.6151042,332,0,0,,0.16291843037213385,0.1914711807537079,0.17144724961842597
1676469338.6233728,333,0,0,,0.16273448738819657,0.1913305848455429,0.1714039025426537
1676469338.6399972,334,0,0,,0.16322286372283026,0.19185966286584735,0.17136320085698292
1676469338.6453056,335,0,0,,0.16304555749151856,0.1917237379448116,0.17132181954670697
1676469338.6530778,336,0,0,,0.16290656674375312,0.19162661412641407,0.17127995261733905
1676469338.66483,337,0,0,,0.1638714885752175,0.19262839398793877,0.17124309458727874
1676469338.673205,338,0,0,,0.16370113762683275,0.19249556521348657,0.17120557241334616
1676469338.6823246,339,0,0,,0.163578682963052,0.19241105527333915,0.1711676276897129
1676469338.6921554,340,0,0,,0.1634105447408788,0.1922815095036477,0.1711290352372311
1676469338.7026799,341,0,0,,0.16316933104002196,0.19207989632118494,0.17108943471883703
1676469338.7124922,342,0,0,,0.16300021881129406,0.19195102894771846,0.17104918986357565
1676469338.72246,343,0,0,,0.1628781204681119,0.19186958269108087,0.17100853777703104
1676469338.7333424,344,0,0,,0.16279191316541433,0.19182425411779433,0.17096765904762
1676469338.7426035,345,0,0,,0.16264056402029192,0.1917143333061412,0.17092623071415072
1676469338.7534873,346,0,0,,0.16252430386504718,0.19163987378198655,0.17088443008306065
1676469338.764804,347,0,0,,0.16308291888643503,0.19223730229191482,0.17084561659452022
1676469338.7759614,348,0,0,,0.16295662884173656,0.19215026094250381,0.17080636789923276
1676469338.786109,349,0,0,,0.16284252634758278,0.19207577955059707,0.17076674679698572
1676469338.7993858,350,0,0,,0.16267578393898793,0.19194929068855943,0.17072649325042852
1676469338.8059318,351,0,0,,0.16253036470810178,0.1918446482165903,0.17068571649151149
1676469338.814055,352,0,0,,0.16237586156948022,0.1917314876397699,0.17064437392971032
1676469338.823216,353,0,0,,0.1622573960622035,0.19165474839054047,0.17060264767166303
1676469338.836223,354,0,0,,0.16249134033799806,0.1919290474291891,0.17056229290880898
1676469338.8427944,355,0,0,,0.16233708724602908,0.19181571575842798,0.1705213714876011
1676469338.8541706,356,0,0,,0.16223130141883157,0.19175117406092584,0.17048012735790574
1676469338.8642104,357,0,0,,0.16368839412065558,0.19324205648034812,0.17044633764030748
1676469338.8750856,358,0,0,,0.16356602874795462,0.1931539215001464,0.1704121072478082
1676469338.8846052,359,0,0,,0.16347076805088037,0.19309319482892753,0.17037757322195285
1676469338.8925707,360,0,0,,0.16334521578352412,0.1930026294144988,0.17034258636902533
1676469338.902526,361,0,0,,0.1636370093828123,0.19332778409332038,0.17030922528949194
1676469338.9144456,362,0,0,,0.16352716838179493,0.1932516846689582,0.17027548371283674
1676469338.9215424,363,0,0,,0.16344633407828918,0.19320482623428106,0.17024150784400813
1676469338.9329915,364,0,0,,0.16380020039089135,0.19359073885262013,0.17020946153827124
1676469338.9423802,365,0,0,,0.16369779476909152,0.19352072958290578,0.17017706518618575
1676469338.953931,366,0,0,,0.16361417846821358,0.1934697644597292,0.1701444140084844
1676469338.9639792,367,0,0,,0.16474402630187684,0.19462647989392282,0.170117546407954
1676469338.9729712,368,0,0,,0.16466133468620592,0.1945709336102009,0.17009040107600504
1676469338.9824333,369,0,0,,0.16459205721047332,0.19452901107907294,0.17006304613140039
1676469338.9967766,370,0,0,,0.16451159210036806,0.19447616514325142,0.17003542695711665
1676469339.0020826,371,0,0,,0.16448558902878277,0.19447777320563794,0.17000781582314484
1676469339.014147,372,0,0,,0.1644058718849223,0.19442592642962933,0.169979945455293
1676469339.0227203,373,0,0,,0.16434812478345745,0.19439619833648206,0.1699519264469754
1676469339.0319846,374,0,0,,0.16417416279412322,0.1942509814399481,0.16992318135417514
1676469339.0419269,375,0,0,,0.16409997758844608,0.1942057673972845,0.16989421019116158
1676469339.054578,376,0,0,,0.1640402894922059,0.19417520328462123,0.16986508620758467
1676469339.0660682,377,0,0,,0.16398224730396382,0.19414642895162107,0.16983581835234277
1676469339.075559,378,0,0,,0.16399634016687387,0.19418957394480707,0.1698067662220668
1676469339.0830896,379,0,0,,0.16393031076659076,0.19415278064131739,0.1697775301252734
1676469339.0927522,380,0,0,,0.16384427321084252,0.1940962617766857,0.16974801143415683
1676469339.1022031,381,0,0,,0.16350228333949263,0.1937853451794386,0.169716938160054
1676469339.113617,382,0,0,,0.1634290897823345,0.19374343445003034,0.16968565533230417
1676469339.1229987,383,0,0,,0.16334897682033592,0.19369484725177288,0.16965412956856304
1676469339.1326656,384,0,0,,0.16304842280134074,0.19342715744554997,0.16962126535579078
1676469339.1421325,385,0,0,,0.16297278084258252,0.1933845925241709,0.16958818831841163
1676469339.1520936,386,0,0,,0.16291264702562802,0.1933576703554392,0.16955497667018885
1676469339.1641333,387,0,0,,0.16285368001923375,0.19333204313337804,0.16952163688585573
1676469339.1776462,388,0,0,,0.1633433181081187,0.19385241912662984,0.1694908989814889
1676469339.1853511,389,0,0,,0.16328045248601847,0.19382045124828817,0.1694600012377303
1676469339.198194,390,0,0,,0.16321224682390206,0.19378332894146444,0.16942891788243764
1676469339.2023504,391,0,0,,0.16373991031691543,0.19433929595470428,0.16940061436221115
1676469339.2148075,392,0,0,,0.16366970590116495,0.19429760352134706,0.1693721023798179
1676469339.223202,393,0,0,,0.16361012307099812,0.1942666872549057,0.16934343581609243
1676469339.233109,394,0,0,,0.16343591665024573,0.19412187147676946,0.16931404517347629
1676469339.2418451,395,0,0,,0.163401394256283,0.1941167652565241,0.1692846289997589
1676469339.2562778,396,0,0,,0.16335073933284694,0.19409563217222692,0.16925510716062003
1676469339.2644525,397,0,0,,0.16328891376755947,0.19406348916113378,0.1692254246064257
1676469339.2751298,398,0,0,,0.16291274483744017,0.19371872659802436,0.16919401823941582
1676469339.2824984,399,0,0,,0.1628682111026477,0.19370566454052926,0.1691625465621185
1676469339.2964895,400,0,0,,0.1628122691950571,0.19368131605267525,0.16913095314238186
1676469339.3022404,401,0,0,,0.16277596804381128,0.19367663174271585,0.16909933630109542
1676469339.312662,402,0,0,,0.16272098097690457,0.19365337778687478,0.1690676031900298
1676469339.3222349,403,0,0,,0.1626812307659101,0.19364540057301521,0.1690358301928949
1676469339.3327363,404,0,0,,0.1629173810144883,0.19391199086725713,0.16900539014723118
1676469339.3430448,405,0,0,,0.16286982500825042,0.1938949600607157,0.16897486494753475
1676469339.3517442,406,0,0,,0.1628273203292411,0.19388304018080235,0.16894428014843876
1676469339.363952,407,0,0,,0.1630980861868035,0.19418289158046245,0.16891519460634108
1676469339.3773463,408,0,0,,0.163065585162304,0.19417949309051039,0.16888609207179361
1676469339.3822234,409,0,0,,0.16302418846295588,0.19416726009070873,0.16885692837224717
1676469339.3966608,410,0,0,,0.16297964386204894,0.19415195571124555,0.1688276881508034
1676469339.4021606,411,0,0,,0.1622421935285639,0.19344726903259754,0.16879492449596636
1676469339.4143093,412,0,0,,0.16219167547530944,0.19342960296452047,0.16876207251078898
1676469339.4225883,413,0,0,,0.16214268495899553,0.19341354472458364,0.16872914023441188
1676469339.4325562,414,0,0,,0.16088253011800163,0.19219242774486542,0.16869010237313622
1676469339.4423056,415,0,0,,0.16081796918672436,0.1921670316553116,0.16865093753141278
1676469339.4575922,416,0,0,,0.1607515301043641,0.19213989310741425,0.16861163699694987
1676469339.4650855,417,0,0,,0.16069251872159357,0.19212028032302858,0.168572238398565
1676469339.4764845,418,0,0,,0.16107487010652835,0.19253993204772474,0.16853493805880362
1676469339.482438,419,0,0,,0.16101382407122367,0.1925163044899702,0.16849751958125347
1676469339.4921985,420,0,0,,0.1609571089651268,0.1924971038645506,0.1684600051005762
1676469339.5030117,421,0,0,,0.16173146225780954,0.19330493249475955,0.16842652976305
1676469339.513686,422,0,0,,0.16169441488106065,0.19330137822687626,0.1683930366541844
1676469339.5227273,423,0,0,,0.1616562907208931,0.19329677021563055,0.16835952050526254
1676469339.5324385,424,0,0,,0.1630840293013435,0.19475075502097608,0.16833327428036743
1676469339.5424173,425,0,0,,0.16308010089845176,0.19477296180903914,0.16830713908941264
1676469339.5541844,426,0,0,,0.1630740797774356,0.19479297580897809,0.16828110396845752
1676469339.5660443,427,0,0,,0.163079755595411,0.19482452898204328,0.16825522661336773
1676469339.5741537,428,0,0,,0.16572071060975901,0.19747809352874757,0.16824261708101146
1676469339.5825586,429,0,0,,0.16573426296383256,0.1975041252565384,0.16823013770729417
1676469339.5920885,430,0,0,,0.1657823179005992,0.19756435840129855,0.16821795949930066
1676469339.6022294,431,0,0,,0.16780343045374269,0.19958753328800202,0.16821589716574067
1676469339.6133559,432,0,0,,0.16789867485271803,0.1996843559074402,0.16821431894527789
1676469339.6224136,433,0,0,,0.16796433966297025,0.1997512643957138,0.16821307526725643
1676469339.632247,434,0,0,,0.16913383810361737,0.2009161819267273,0.16821765617689008
1676469339.6426737,435,0,0,,0.16926266398517006,0.2010398087644577,0.16822285522071237
1676469339.652124,436,0,0,,0.16933638151689884,0.20110798636436464,0.16822839515253418
1676469339.6648602,437,0,0,,0.16940491683396217,0.20117066833972932,0.16823424849423285
1676469339.6754136,438,0,0,,0.16851048235276456,0.20027485956072807,0.1682356227920365
1676469339.6821454,439,0,0,,0.16858715026919957,0.20034977858424188,0.1682373716849577
1676469339.6920438,440,0,0,,0.16867879733874316,0.2004392295062542,0.16823956783248897
1676469339.7024841,441,0,0,,0.1681472802175116,0.19990817152738571,0.1682391086901259
1676469339.7125547,442,0,0,,0.16822966409763807,0.1999906023955345,0.16823906170210357
1676469339.722823,443,0,0,,0.1682767218361687,0.20003747277021408,0.16823924906595464
1676469339.7326744,444,0,0,,0.16712025639732592,0.19888657445907593,0.16823368193825
1676469339.7421818,445,0,0,,0.16719453715871088,0.19896602509498595,0.16822851206372494
1676469339.7517552,446,0,0,,0.1672320739999842,0.19900851933956146,0.16822355466042277
1676469339.7641952,447,0,0,,0.16726008638299222,0.19904132509708405,0.16821876128590818
1676469339.771512,448,0,0,,0.1646307514847588,0.19642984099388122,0.1682009104908776
1676469339.782807,449,0,0,,0.16464119588747733,0.19645799541950226,0.16818320046797508
1676469339.795467,450,0,0,,0.16465786600888485,0.19649220451831817,0.1681656614905667
1676469339.8022206,451,0,0,,0.16342028675841502,0.19527823409736156,0.16814205266105348
1676469339.812058,452,0,0,,0.163427865227462,0.19530926623523237,0.16811859899222964
1676469339.8247437,453,0,0,,0.16342411372824722,0.1953288703840971,0.16809524334415013
1676469339.8361785,454,0,0,,0.16360735991590433,0.1955344443500042,0.16807291556590015
1676469339.843709,455,0,0,,0.16359764158217724,0.19554699106097223,0.16805065052120502
1676469339.8534358,456,0,0,,0.1635898291200083,0.19556137174010277,0.16802845737990552
1676469339.8638437,457,0,0,,0.16366740568371826,0.19566064507842065,0.16800676060529762
1676469339.8719404,458,0,0,,0.163670609221391,0.19568542150855064,0.16798518771284038
1676469339.881945,459,0,0,,0.16364970750717933,0.19568608934760096,0.1679636181595784
1676469339.8991494,460,0,0,,0.16362438659965212,0.1956823566567898,0.16794202994286234
1676469339.9065516,461,0,0,,0.16346970401203745,0.19554992444694042,0.16791977956509704
1676469339.912532,462,0,0,,0.1634945481917482,0.1955967847031355,0.1678977634886127
1676469339.9222217,463,0,0,,0.16346879869346134,0.1955930698555708,0.16787572883789056
1676469339.9382315,464,0,0,,0.16392655335088485,0.19607047215223314,0.16785608119865175
1676469339.952411,465,0,0,,0.16393093066384312,0.19609437757730486,0.16783655308653828
1676469339.9649575,466,0,0,,0.1639825723173451,0.19616519326448442,0.16781737905286068
1676469339.9718375,467,0,0,,0.16486670968055245,0.19706401057481768,0.16780269910573478
1676469339.9798164,468,0,0,,0.16484835302267783,0.19706035215616227,0.16778800086651557
1676469339.9836154,469,0,0,,0.16488113323556897,0.19710759439706804,0.16777353883850094
1676469339.9961896,470,0,0,,0.16494837268646473,0.19718888940095902,0.16775948328550572
1676469340.002047,471,0,0,,0.16597721114552133,0.1982265948855877,0.16775061625993365
1676469340.0129697,472,0,0,,0.1660276580453586,0.19828561371684075,0.16774204432851786
1676469340.0224614,473,0,0,,0.16610081925500744,0.19836694022536278,0.16773387902964468
1676469340.0317864,474,0,0,,0.16742194581670278,0.19968961869359017,0.16773232712311262
1676469340.0416768,475,0,0,,0.16753326384465805,0.19980192708611488,0.16773133675854318
1676469340.0531905,476,0,0,,0.16759679679070227,0.19986612938523293,0.16773066740546935
1676469340.065167,477,0,0,,0.16770304136484973,0.19997251140236855,0.1677305299624812
1676469340.0746164,478,0,0,,0.1681302573990237,0.20039773874282837,0.16773251865619535
1676469340.0825186,479,0,0,,0.16820155084868782,0.2004666986989975,0.16773485214969033
1676469340.092312,480,0,0,,0.16831969351369255,0.20058193170547486,0.1677377618082177
1676469340.1019857,481,0,0,,0.16797069290622585,0.20023177223682403,0.16773892066940183
1676469340.1142783,482,0,0,,0.16806578349737042,0.2003252366447449,0.16774054685262554
1676469340.1265476,483,0,0,,0.1681247651817214,0.20038230679512026,0.16774245838660115
1676469340.1334198,484,0,0,,0.16588100058391803,0.19814780318140984,0.1677331974025082
1676469340.141368,485,0,0,,0.16594963462360018,0.19822531066775323,0.16772432395584697
1676469340.154166,486,0,0,,0.1659798319158029,0.19826418702483178,0.16771564489097113
1676469340.1663141,487,0,0,,0.1660093642979991,0.19830220836520196,0.16770715593279714
1676469340.1739335,488,0,0,,0.16354855790184253,0.19586209151148798,0.16768646639035456
1676469340.1827576,489,0,0,,0.16354828600168342,0.19588240757346154,0.1676658784282219
1676469340.1920178,490,0,0,,0.16355806113969798,0.19591261961340906,0.16764544152628894
1676469340.2026389,491,0,0,,0.1619350647936549,0.19431803310185672,0.1676170316917982
1676469340.2166564,492,0,0,,0.16190191965325884,0.1943133213546872,0.16758859829857164
1676469340.2245996,493,0,0,,0.16187681941699944,0.1943166379287839,0.16756018148821555
1676469340.2322538,494,0,0,,0.161522020812374,0.19399187992453576,0.16753014088783824
1676469340.2425234,495,0,0,,0.16149989573616946,0.19399975606799127,0.1675001396681782
1676469340.2522624,496,0,0,,0.1614746668901857,0.19400450469851493,0.16747016219167077
1676469340.2660837,497,0,0,,0.16144276609235966,0.1940025909459591,0.16744017514640058
1676469340.2742515,498,0,0,,0.16087515332721733,0.1934676399809122,0.16740751334630513
1676469340.2828867,499,0,0,,0.1608587359805521,0.19348380361616613,0.16737493236438597
1676469340.2918634,500,0,0,,0.1608453650798049,0.19350291812479498,0.16734244695500994
1676469340.3024702,501,0,0,,0.16168181163135284,0.19436752704113722,0.16731428459021563
1676469340.3129232,502,0,0,,0.16167972425098978,0.19439347229927778,0.167286251951712
1676469340.3223846,503,0,0,,0.16169272960288938,0.1944343061205745,0.1672584234823149
1676469340.3331916,504,0,0,,0.16346165094713383,0.19622211688041688,0.16723953406671696
1676469340.3432002,505,0,0,,0.16349855777100736,0.1962776355266571,0.16722092224435026
1676469340.3570902,506,0,0,,0.16351603972617798,0.19631354973316192,0.16720248999301607
1676469340.3671563,507,0,0,,0.16353499064053706,0.19635074691295623,0.16718424372758084
1676469340.373493,508,0,0,,0.164800808151282,0.19762842231214048,0.16717238583914154
1676469340.3832152,509,0,0,,0.16483559187947328,0.1976748318809271,0.16716075999854618
1676469340.3919613,510,0,0,,0.16490364638260122,0.19775411580502988,0.16714953057757134
1676469340.4022582,511,0,0,,0.16566274390062208,0.1985206102716923,0.1671421336289298
1676469340.4135199,512,0,0,,0.16570516252824777,0.19857017800927163,0.16713498451897615
1676469340.4230149,513,0,0,,0.16578928030858153,0.19866099083542824,0.1671282894731533
1676469340.4346604,514,0,0,,0.16592655096932166,0.1988042402946949,0.16712231067462677
1676469340.4422305,515,0,0,,0.1660070270174634,0.1988902650177479,0.1671167619997155
1676469340.4530966,516,0,0,,0.16605855115100857,0.19894705388188363,0.16711149726912494
1676469340.467123,517,0,0,,0.1661310329095375,0.19902441357254982,0.16710661933698767
1676469340.476856,518,0,0,,0.1660321028334927,0.19893082934975626,0.16710127348373646
1676469340.4815946,519,0,0,,0.1660710962402236,0.1989749480164051,0.1670961482238185
1676469340.4926302,520,0,0,,0.1661502955730867,0.19905885308384896,0.16709144248923774
1676469340.5026295,521,0,0,,0.16534006560793035,0.19825733643651008,0.16708272917142028
1676469340.5152133,522,0,0,,0.16541996161051506,0.19834550491452219,0.16707445669599288
1676469340.5219991,523,0,0,,0.16547029394708987,0.1984038181602955,0.16706647578679437
1676469340.5320191,524,0,0,,0.1647200645166766,0.19766526241779328,0.16705480209888335
1676469340.5422077,525,0,0,,0.16477749691392296,0.19773402469158174,0.16704347222234123
1676469340.5533261,526,0,0,,0.16480909455920573,0.19777673864364625,0.16703235591555948
1676469340.5674741,527,0,0,,0.1648530076371085,0.19783149425029756,0.16702151338681095
1676469340.5740516,528,0,0,,0.16467896345405394,0.19766910454452039,0.16700985890953357
1676469340.5832827,529,0,0,,0.1647095947924685,0.19771117998301985,0.16699841480944866
1676469340.5938098,530,0,0,,0.16475995285481626,0.19777267467200757,0.1669872781828087
1676469340.6021204,531,0,0,,0.16415123446283453,0.19717806595027448,0.16697316851256006
1676469340.6153734,532,0,0,,0.16421544122444204,0.1972559927481413,0.1669594484763008
1676469340.62318,533,0,0,,0.16422548039776796,0.1972796337527037,0.1669458466450643
1676469340.6318924,534,0,0,,0.1635228578473773,0.19659404099732639,0.16692881685005093
1676469340.6422627,535,0,0,,0.16355322041715198,0.19664119757920503,0.16691202283794696
1676469340.653653,536,0,0,,0.16355648077359164,0.19666115217477084,0.1668953285988208
1676469340.6644332,537,0,0,,0.16205932157416458,0.19518805271178485,0.16687126886237974
1676469340.6732814,538,0,0,,0.1620520299842384,0.19520473743468525,0.16684729254955316
1676469340.6822932,539,0,0,,0.16204604277327472,0.19522263703852893,0.1668234057347458
1676469340.6931243,540,0,0,,0.1620421140897807,0.19524249587565662,0.1667996182141241
1676469340.7029324,541,0,0,,0.1624295792968456,0.19565170256987216,0.16677787672697345
1676469340.7148201,542,0,0,,0.16243762174688692,0.19568133832827211,0.16675628341861481
1676469340.7229042,543,0,0,,0.1624371614528496,0.1957023662032187,0.1667347952496309
1676469340.7331378,544,0,0,,0.16306100078118185,0.1963444831159711,0.16671651766521076
1676469340.742947,545,0,0,,0.1630872363278318,0.1963887747886777,0.16669846153915413
1676469340.7522287,546,0,0,,0.16311155815735498,0.19643094190865756,0.16668061624869743
1676469340.7659342,547,0,0,,0.16478872102402786,0.19811751718938353,0.16667120383464434
1676469340.7763193,548,0,0,,0.1648465721944932,0.19818444612920286,0.16666212606529035
1676469340.7831652,549,0,0,,0.16487755070665813,0.1982243031257391,0.16665324758091904
1676469340.7944555,550,0,0,,0.16494033191505114,0.198295606302619,0.16664472561243215
1676469340.8025973,551,0,0,,0.16551733099199573,0.19887821430802347,0.16663911668397224
1676469340.8123717,552,0,0,,0.16559030550314824,0.19895640678524973,0.16663389871789852
1676469340.8238451,553,0,0,,0.16562353814914263,0.19899466610074043,0.1666288720484022
1676469340.8321095,554,0,0,,0.16351336557621846,0.19689999356001617,0.1666133720162023
1676469340.8422835,555,0,0,,0.16355731193099954,0.19695914419382812,0.16659816773717143
1676469340.8524845,556,0,0,,0.1635780516392905,0.1969949093553424,0.16658314228394813
1676469340.8686476,557,0,0,,0.1628764958116118,0.1963117945548892,0.1665647012567226
1676469340.8724265,558,0,0,,0.16288112677139527,0.19633475175589324,0.16654637501550207
1676469340.8818133,559,0,0,,0.16289242269661763,0.1963642265483737,0.16652819614824393
1676469340.8971367,560,0,0,,0.1629168047947783,0.1964065757676959,0.1665102290270824
1676469340.9034758,561,0,0,,0.1630550029868219,0.19656196413904428,0.1664930388477776
1676469340.9131746,562,0,0,,0.16308373045487887,0.19660765334039926,0.16647607711447962
1676469340.9220097,563,0,0,,0.1630994918143276,0.19664021363168954,0.16645927818263806
1676469340.9330976,564,0,0,,0.1633053921863798,0.1968618049788475,0.1664435872075323
1676469340.9420621,565,0,0,,0.16333216722856797,0.19690405972242356,0.16642810750614442
1676469340.95279,566,0,0,,0.1633344931783203,0.19692177678823472,0.1664127163900856
1676469340.9643574,567,0,0,,0.16335199248951712,0.19695450358152392,0.16639748890799322
1676469340.9752252,568,0,0,,0.16324864683678486,0.19686682380974294,0.16638182302704194
1676469340.9836192,569,0,0,,0.16325583216077721,0.1968895613270998,0.16636627083367744
1676469340.992042,570,0,0,,0.16327130126369932,0.196920428288579,0.16635087297512033
1676469341.0024257,571,0,0,,0.16247916494678782,0.19614755420066418,0.16633161074612365
1676469341.0138419,572,0,0,,0.1624910469966512,0.19617854353286326,0.16631250346378795
1676469341.022006,573,0,0,,0.1624943710590631,0.19620086327888073,0.16629350778018237
1676469341.0355651,574,0,0,,0.16254438792162537,0.19626953247904777,0.1662748554425776
1676469341.042394,575,0,0,,0.1625385217078686,0.1962822549903393,0.1662562667175293
1676469341.0517762,576,0,0,,0.16253378293012977,0.19629603603243828,0.1662377468976915
1676469341.0666733,577,0,0,,0.1625292425815463,0.1963099459540844,0.1662192966274619
1676469341.0732627,578,0,0,,0.1625822290143028,0.19638102725058795,0.16620120176371486
1676469341.0822985,579,0,0,,0.16257581790237724,0.19639265287429095,0.1661831650280863
1676469341.0956383,580,0,0,,0.16257784962919203,0.19641262149363756,0.1661652281355545
1676469341.1020322,581,0,0,,0.16269250803252386,0.1965445571114123,0.16614795092111156
1676469341.1142726,582,0,0,,0.16273693517143728,0.19660595447793605,0.16613098069350124
1676469341.12718,583,0,0,,0.16274741931897477,0.19663327226415278,0.166114147054822
1676469341.1331964,584,0,0,,0.16365547750138418,0.1975535626333952,0.16610191486798898
1676469341.1421666,585,0,0,,0.1637104364503868,0.19762041948497297,0.16609001696541384
1676469341.1525016,586,0,0,,0.1637349083424665,0.1976566083353758,0.16607830000709073
1676469341.165191,587,0,0,,0.16571109436696843,0.19963462125360967,0.16607647311335877
1676469341.1722245,588,0,0,,0.16580024506718294,0.19972514622271062,0.16607509884447233
1676469341.182273,589,0,0,,0.16586517172777132,0.19979111729681492,0.1660740544309564
1676469341.1959283,590,0,0,,0.16595721068346278,0.19988373756468297,0.16607347311877982
1676469341.2020607,591,0,0,,0.16629255944446997,0.2002179963439703,0.16607456310049967
1676469341.2170777,592,0,0,,0.16634440911642687,0.20026850349843503,0.16607590561799185
1676469341.223046,593,0,0,,0.1664350340877898,0.200357341760993,0.1660776923267968
1676469341.2319634,594,0,0,,0.16605759234356954,0.1999800000166893,0.16607759232688024
1676469341.2416203,595,0,0,,0.1661303716451533,0.20005251673460006,0.16607785491055324
1676469341.2538357,596,0,0,,0.16617446966424063,0.20009613408327104,0.1660783355809696
1676469341.2645252,597,0,0,,0.164379031202095,0.19830914987176657,0.16606988133032843
1676469341.272354,598,0,0,,0.1644266868700482,0.19836498063653707,0.16606170623351113
1676469341.2825718,599,0,0,,0.16444058798141703,0.1983869470128417,0.16605364096857533
1676469341.297176,600,0,0,,0.16448177270134165,0.19843595197290181,0.16604582072843985
1676469341.30247,601,0,0,,0.16335688724418507,0.19732444429427387,0.1660324429499112
1676469341.3164701,602,0,0,,0.16336372315612807,0.19734455741912127,0.1660191657370068
1676469341.3223479,603,0,0,,0.16338708463376686,0.19738101382762194,0.16600607080614493
1676469341.3323488,604,0,0,,0.16260853186042057,0.1966193642331101,0.16598916762731047
1676469341.3428643,605,0,0,,0.16263355336086543,0.1966610803318955,0.16597247302896995
1676469341.35285,606,0,0,,0.16263499506680806,0.1966791264058091,0.16595586866099898
1676469341.365871,607,0,0,,0.16265871487467176,0.1967192499638535,0.16593946491081826
1676469341.374988,608,0,0,,0.16282064643937857,0.19689669803836848,0.1659239484010101
1676469341.3830156,609,0,0,,0.16283027282369542,0.196921715843468,0.16590855698022744
1676469341.3921368,610,0,0,,0.16285794619289937,0.1969645663807681,0.1658933798121313
1676469341.4020956,611,0,0,,0.16342186068661346,0.1975407769895345,0.16588108369707896
1676469341.4129007,612,0,0,,0.16344520510634356,0.19757624020822348,0.16586896489812009
1676469341.4231732,613,0,0,,0.16346163515219897,0.19760464701898398,0.165856988133215
1676469341.4325984,614,0,0,,0.16333017754427254,0.19748576060801745,0.16584441693625507
1676469341.4419236,615,0,0,,0.16336495852939095,0.1975328772071004,0.16583208132229058
1676469341.4526956,616,0,0,,0.16339646973234773,0.19757650588065387,0.16581996385169384
1676469341.4656594,617,0,0,,0.16342145259579924,0.19761342163592577,0.16580803095987348
1676469341.4726057,618,0,0,,0.1634749197709324,0.19767849632941187,0.16579642344152054
1676469341.48237,619,0,0,,0.16349825373281074,0.19771326397143305,0.1657849897613777
1676469341.4922256,620,0,0,,0.16352526202437528,0.19775151468954982,0.16577374733482547
1676469341.5025747,621,0,0,,0.1631414388319226,0.19738078755930066,0.16576065127262196
1676469341.5125477,622,0,0,,0.1631559318300257,0.19740823936060073,0.16574769246942497
1676469341.5215511,623,0,0,,0.16316312519007195,0.19742829126432537,0.1657348339257466
1676469341.5327637,624,0,0,,0.16288195425621382,0.19716131376165896,0.16572064049455487
1676469341.542611,625,0,0,,0.1628963698792061,0.19718978048224003,0.1657065893969661
1676469341.552496,626,0,0,,0.16290433240828814,0.19721168458838018,0.16569264781990797
1676469341.567592,627,0,0,,0.16348858219644707,0.19780689987715333,0.16568168231929375
1676469341.572824,628,0,0,,0.16349170237691366,0.19782091548021882,0.16567078689669484
1676469341.5817828,629,0,0,,0.16350452405951266,0.1978445145898685,0.16566000946964418
1676469341.5969574,630,0,0,,0.16352737851098106,0.19787797914560884,0.16564939936537224
1676469341.6024625,631,0,0,,0.1634471972847477,0.1978087541486323,0.1656384431361154
1676469341.6132984,632,0,0,,0.16346855226228463,0.19784090460315348,0.16562764765913116
1676469341.6227765,633,0,0,,0.16347007738874259,0.19785316391006114,0.16561691347868146
1676469341.631972,634,0,0,,0.16303384822937622,0.19742978582158685,0.1656040624077894
1676469341.6416736,635,0,0,,0.163046196696572,0.19745485998883844,0.16559133670773357
1676469341.6547918,636,0,0,,0.16304867822806163,0.1974699915625155,0.16557868666554615
1676469341.6686623,637,0,0,,0.16305310977669357,0.19748698817029595,0.16556612160639764
1676469341.6749325,638,0,0,,0.16288599393609093,0.19733320629820228,0.16555278763788867
1676469341.6820078,639,0,0,,0.16289184274751398,0.19735229364141824,0.16553954910609575
1676469341.6922793,640,0,0,,0.16290047258081808,0.19737405320867896,0.16552641937213913
1676469341.7030146,641,0,0,,0.1635884168406233,0.19807163927212357,0.16551677756849975
1676469341.7138534,642,0,0,,0.16359403349729107,0.19808682181969287,0.16550721167759821
1676469341.7234232,643,0,0,,0.1636200748544574,0.1981222519172728,0.16549782293718457
1676469341.731742,644,0,0,,0.16378254141701645,0.1982932522187382,0.16548928919827827
1676469341.7424603,645,0,0,,0.16381935563672262,0.19833837456561626,0.16548098107110637
1676469341.7518656,646,0,0,,0.1638387142516371,0.19836590366221965,0.16547281058941746
1676469341.7653258,647,0,0,,0.16387632000388355,0.19841145215369763,0.16546486785018594
1676469341.7733452,648,0,0,,0.16429766066313387,0.19883859981387855,0.16545906084925532
1676469341.783481,649,0,0,,0.1643307981358275,0.19887735053390265,0.16545344760192485
1676469341.7960212,650,0,0,,0.16434454575666488,0.19889661507934334,0.16544793067732155
1676469341.802276,651,0,0,,0.16410419965377226,0.1986629542054236,0.16544124544834868
1676469341.8148966,652,0,0,,0.16413963412799687,0.1987048643578589,0.165434769770138
1676469341.8230298,653,0,0,,0.16416407598985955,0.19873562807932496,0.1654284479105346
1676469341.8325312,654,0,0,,0.16385334282715824,0.19843273126032204,0.1654206115668362
1676469341.8419209,655,0,0,,0.16386500662772696,0.19845213438894602,0.16541287223878093
1676469341.854048,656,0,0,,0.1638831604243951,0.1984778986921534,0.1654052617322417
1676469341.8657162,657,0,0,,0.16389213628133834,0.19849440253641457,0.16539773374492378
1676469341.8749835,658,0,0,,0.16298714193781652,0.19760140118695796,0.16538574075085857
1676469341.882639,659,0,0,,0.16297452217015548,0.19760077753163874,0.16537374463851676
1676469341.8925776,660,0,0,,0.16297872271370703,0.1976168936071545,0.16536182910655253
1676469341.9037197,661,0,0,,0.1620690843433928,0.19672363705158236,0.16534544729181044
1676469341.9138787,662,0,0,,0.16204320915861836,0.1967141909122467,0.1653290182463717
1676469341.9233685,663,0,0,,0.16201849919710867,0.1967059511947632,0.1653125480023455
1676469341.9327178,664,0,0,,0.16222665591554752,0.1969294606101513,0.16529719530539624
1676469341.9420505,665,0,0,,0.16221947263903133,0.19693758938670158,0.16528188325232976
1676469341.9517658,666,0,0,,0.16220354740308635,0.19693697925448417,0.1652665681486022
1676469341.9666302,667,0,0,,0.1618756559635859,0.19662595802485944,0.1652496979387265
1676469341.973259,668,0,0,,0.16186160848243944,0.19662876671016216,0.1652328417722773
1676469341.9834046,669,0,0,,0.16185944601394348,0.1966433873051405,0.165216058708803
1676469341.9949155,670,0,0,,0.16183938556528205,0.1966401262253523,0.16519925933992974
1676469342.0031843,671,0,0,,0.16179174827656562,0.19660944172799588,0.16518230654856975
1676469342.0128686,672,0,0,,0.16178597560414784,0.19662056622445584,0.165165409379692
1676469342.0220416,673,0,0,,0.16179001360785178,0.19664139724195004,0.16514861636590175
1676469342.0355337,674,0,0,,0.16209418511600904,0.1969607649254799,0.16513342019052915
1676469342.0419745,675,0,0,,0.1620917333051365,0.19697344588518143,0.16511828741995507
1676469342.052568,676,0,0,,0.16209922504864147,0.19699595783948898,0.1651032672091525
1676469342.0680537,677,0,0,,0.16158083822683952,0.1964950955399871,0.16508574268685244
1676469342.072489,678,0,0,,0.1615606149887096,0.19649241025060415,0.16506820473810546
1676469342.0819561,679,0,0,,0.1615575437978562,0.19650680503457785,0.16505073876327836
1676469342.094133,680,0,0,,0.16153389416166355,0.19650065213769674,0.16503324202396683
1676469342.1048312,681,0,0,,0.16086466716052703,0.19585216431498528,0.16501250284554175
1676469342.112333,682,0,0,,0.16083346782134583,0.19584175619482994,0.1649917116265159
1676469342.123196,683,0,0,,0.16080772786560465,0.1958368320786953,0.16497089578690938
1676469342.132433,684,0,0,,0.16027008470773807,0.19532257604062558,0.1649475086671125
1676469342.1422493,685,0,0,,0.1602284426715832,0.195304411944747,0.16492403072683623
1676469342.1521716,686,0,0,,0.16019091036734096,0.19529042750298978,0.1649004828643512
1676469342.1640072,687,0,0,,0.15999377601979484,0.19511770463228226,0.1648760713875126
1676469342.17272,688,0,0,,0.15994736105181687,0.19509581061124803,0.16485155044056884
1676469342.1821146,689,0,0,,0.15991185878132094,0.1950848839211464,0.16482697486017456
1676469342.1948428,690,0,0,,0.15986280909852493,0.19506053158044814,0.1648022775180768
1676469342.20264,691,0,0,,0.1601755282547142,0.19539626938968896,0.16477925886502526
1676469342.2157345,692,0,0,,0.1601424790101271,0.19538628870159389,0.16475619030853322
1676469342.2247894,693,0,0,,0.16010190013702474,0.1953688655009866,0.16473303463603817
1676469342.2331877,694,0,0,,0.16054953442803283,0.19583731322586537,0.1647122212021675
1676469342.2419052,695,0,0,,0.16052618695316276,0.1958347917920351,0.16469139516112766
1676469342.252039,696,0,0,,0.1605125154088404,0.19584191069424153,0.16467060471459888
1676469342.2664075,697,0,0,,0.16128120996090584,0.1966274679067731,0.16465374205413275
1676469342.2725594,698,0,0,,0.16125825537641605,0.1966214062908292,0.16463684908558687
1676469342.282149,699,0,0,,0.16124969336423386,0.19662969579964876,0.16461999756458512
1676469342.297798,700,0,0,,0.16123964917763134,0.19663646926671266,0.1646031799109187
