Time,header.seq,header.stamp.secs,header.stamp.nsecs,header.frame_id,child_frame_id,pose.pose.position.x,pose.pose.position.y,pose.pose.position.z,pose.pose.orientation.x,pose.pose.orientation.y,pose.pose.orientation.z,pose.pose.orientation.w,pose.covariance,twist.twist.linear.x,twist.twist.linear.y,twist.twist.linear.z,twist.twist.angular.x,twist.twist.angular.y,twist.twist.angular.z,twist.covariance
1676469335.1226215,6495,1676469334,904672248,map,base_link,-1.3273644447326662,-0.5847855210304257,0.12553523480892165,-0.010592430494222222,-0.10361556375033444,0.0037533439662141886,0.9945539560001923,"(0.0005533775547519326, -2.238557532721631e-22, 6.672223105423128e-21, 0.0, 0.0, 0.0, -2.238557532721631e-22, 0.0005523693980649114, -4.2255650587239064e-36, 0.0, 0.0, 0.0, 6.6722231054231236e-21, -4.225565058723907e-36, 0.0004988947184756398, 0.0, 0.0, 0.0, 0.0, 0.0, 0.0, 0.0, 0.0, 0.0, 0.0, 0.0, 0.0, 0.0, 0.0, 0.0, 0.0, 0.0, 0.0, 0.0, 0.0, 0.0)",0.00559273874387145,-0.0019229274475947022,8.77519269124607e-05,0.0007205696310847998,-0.00022015754075255231,0.0010981576051563025,"(0.0018541410099714994, 0.0, 0.0, 0.0, 0.0, 0.0, 0.0, 0.0018605386139824986, -4.5350883915812305e-20, 0.0, 0.0, 0.0, 0.0, -4.535088391581231e-20, 0.0014902205439284444, 0.0, 0.0, 0.0, 0.0, 0.0, 0.0, 0.0, 0.0, 0.0, 0.0, 0.0, 0.0, 0.0, 0.0, 0.0, 0.0, 0.0, 0.0, 0.0, 0.0, 0.0)"
1676469335.122771,6496,1676469334,934648248,map,base_link,-1.3273446559906008,-0.5847607851028439,0.1255329102277754,-0.010595607273482644,-0.10361523145746625,0.0037515812028448814,0.9945539597093415,"(0.0005693527054972947, -2.3173981848555916e-22, 7.006758099074358e-21, 0.0, 0.0, 0.0, -2.3173981848555916e-22, 0.0005683090421371162, -4.375637890286282e-36, 0.0, 0.0, 0.0, 7.006758099074364e-21, -4.375637890286281e-36, 0.0005121381836943328, 0.0, 0.0, 0.0, 0.0, 0.0, 0.0, 0.0, 0.0, 0.0, 0.0, 0.0, 0.0, 0.0, 0.0, 0.0, 0.0, 0.0, 0.0, 0.0, 0.0, 0.0)",0.005712948739528656,-0.0019436912843957543,0.0003516577125992628,-0.001827979926019907,0.0008632635581307114,0.0009320048848167061,"(0.0018817330710589886, 0.0, 0.0, 0.0, 0.0, 0.0, 0.0, 0.0018881503492593765, -4.6110113685763436e-20, 0.0, 0.0, 0.0, 0.0, -4.611011368576343e-20, 0.0015116326976567507, 0.0, 0.0, 0.0, 0.0, 0.0, 0.0, 0.0, 0.0, 0.0, 0.0, 0.0, 0.0, 0.0, 0.0, 0.0, 0.0, 0.0, 0.0, 0.0, 0.0, 0.0)"
1676469335.1229534,6497,1676469334,974615808,map,base_link,-1.327314376831055,-0.5847379565238949,0.12553592026233656,-0.010594416729423534,-0.10362257656739896,0.003747220506982123,0.9945532334092544,"(0.0005681499605998397, -2.2295102447718324e-22, 6.912064665116069e-21, 0.0, 0.0, 0.0, -2.2295102447718324e-22, 0.0005671458784490824, -4.350660917466397e-36, 0.0, 0.0, 0.0, 6.91206466511607e-21, -4.3506609174663973e-36, 0.0005117086693644524, 0.0, 0.0, 0.0, 0.0, 0.0, 0.0, 0.0, 0.0, 0.0, 0.0, 0.0, 0.0, 0.0, 0.0, 0.0, 0.0, 0.0, 0.0, 0.0, 0.0, 0.0)",0.005944079253822565,-0.0019650827161967754,0.0004483888333197685,0.002460724674165249,9.964719356503331e-05,-0.0006043199100531638,"(0.0018726505804806948, 0.0, 0.0, 0.0, 0.0, 0.0, 0.0, 0.0018787931185215712, -4.524441439386097e-20, 0.0, 0.0, 0.0, 0.0, -4.5244414393860976e-20, 0.0015093444380909204, 0.0, 0.0, 0.0, 0.0, 0.0, 0.0, 0.0, 0.0, 0.0, 0.0, 0.0, 0.0, 0.0, 0.0, 0.0, 0.0, 0.0, 0.0, 0.0, 0.0, 0.0)"
1676469335.1241105,6498,1676469335,4589808,map,base_link,-1.3272937536239626,-0.5847197175025937,0.12553869187831862,-0.010590196606157105,-0.10362620480194124,0.0037510034355758212,0.9945528700471992,"(0.0005514157237485051, -2.0426191251231327e-22, 6.4784736673783576e-21, 0.0, 0.0, 0.0, -2.0426191251231327e-22, 0.0005504958098754287, -4.17709860297005e-36, 0.0, 0.0, 0.0, 6.478473667378361e-21, -4.1770986029700475e-36, 0.0004985149716958404, 0.0, 0.0, 0.0, 0.0, 0.0, 0.0, 0.0, 0.0, 0.0, 0.0, 0.0, 0.0, 0.0, 0.0, 0.0, 0.0, 0.0, 0.0, 0.0, 0.0, 0.0)",0.005761378910392523,-0.0019395726267248392,0.000399078620830551,0.0017966049490496516,0.00044553790939971805,-2.798716559482278e-05,"(0.0018349559977650642, 0.0, 0.0, 0.0, 0.0, 0.0, 0.0, 0.0018407106399536133, -4.3375438026602714e-20, 0.0, 0.0, 0.0, 0.0, -4.337543802660271e-20, 0.0014865233097225428, 0.0, 0.0, 0.0, 0.0, 0.0, 0.0, 0.0, 0.0, 0.0, 0.0, 0.0, 0.0, 0.0, 0.0, 0.0, 0.0, 0.0, 0.0, 0.0, 0.0, 0.0)"
1676469335.1243513,6499,1676469335,34564808,map,base_link,-1.3272695541381838,-0.5847056508064267,0.1255423575639723,-0.010594163680440237,-0.10362283834310416,0.0037435008992977165,0.9945532070230365,"(0.0005664213676936924, -2.10284821347465e-22, 6.766089647004202e-21, 0.0, 0.0, 0.0, -2.10284821347465e-22, 0.0005654743290506303, -4.312807613990567e-36, 0.0, 0.0, 0.0, 6.766089647004196e-21, -4.312807613990568e-36, 0.0005111720529384911, 0.0, 0.0, 0.0, 0.0, 0.0, 0.0, 0.0, 0.0, 0.0, 0.0, 0.0, 0.0, 0.0, 0.0, 0.0, 0.0, 0.0, 0.0, 0.0, 0.0, 0.0)",0.005962482653558254,-0.001949202618561685,0.00048702285857871196,-0.0003449743671808392,2.733793371589859e-05,0.0004005538357887417,"(0.0018593689892441034, 0.0, 0.0, 0.0, 0.0, 0.0, 0.0, 0.0018651324789971113, -4.399687616162354e-20, 0.0, 0.0, 0.0, 0.0, -4.3996876161623546e-20, 0.0015058707213029265, 0.0, 0.0, 0.0, 0.0, 0.0, 0.0, 0.0, 0.0, 0.0, 0.0, 0.0, 0.0, 0.0, 0.0, 0.0, 0.0, 0.0, 0.0, 0.0, 0.0, 0.0)"
1676469335.1244936,6500,1676469335,74531856,map,base_link,-1.3272317647933962,-0.5846862196922299,0.12554709613323195,-0.010597235003252237,-0.10362810017126242,0.0037394789342039885,0.9945526290560907,"(0.0005653127445839345, -2.0218103628385956e-22, 6.667169082186429e-21, 0.0, 0.0, 0.0, -2.0218103628385956e-22, 0.0005644022021442652, -4.2874808609176874e-36, 0.0, 0.0, 0.0, 6.667169082186425e-21, -4.2874808609176894e-36, 0.0005108711775392294, 0.0, 0.0, 0.0, 0.0, 0.0, 0.0, 0.0, 0.0, 0.0, 0.0, 0.0, 0.0, 0.0, 0.0, 0.0, 0.0, 0.0, 0.0, 0.0, 0.0, 0.0)",0.006072451360523701,-0.001941447495482862,0.000381009769625962,0.0004787808284163475,-0.000971463043242693,0.000182309770025313,"(0.001850784057751298, 0.0, 0.0, 0.0, 0.0, 0.0, 0.0, 0.001856316695921123, -4.320501265630196e-20, 0.0, 0.0, 0.0, 0.0, -4.320501265630195e-20, 0.0015035209944471717, 0.0, 0.0, 0.0, 0.0, 0.0, 0.0, 0.0, 0.0, 0.0, 0.0, 0.0, 0.0, 0.0, 0.0, 0.0, 0.0, 0.0, 0.0, 0.0, 0.0, 0.0)"
1676469335.124629,6501,1676469335,104506856,map,base_link,-1.327207922935486,-0.58467423915863,0.12555143237113936,-0.010590291535753372,-0.10363594169469247,0.003743693436341919,0.9945518913549753,"(0.0005487954476848245, -1.8521090902945135e-22, 6.245674949657032e-21, 0.0, 0.0, 0.0, -1.8521090902945135e-22, 0.0005479613319039345, -4.117435543319295e-36, 0.0, 0.0, 0.0, 6.245674949657031e-21, -4.117435543319296e-36, 0.0004977956414222717, 0.0, 0.0, 0.0, 0.0, 0.0, 0.0, 0.0, 0.0, 0.0, 0.0, 0.0, 0.0, 0.0, 0.0, 0.0, 0.0, 0.0, 0.0, 0.0, 0.0, 0.0)",0.005932087078690529,-0.0019197951769456267,0.0005176360718905928,0.0012434240197762847,0.00041404410148970783,-0.00012020378926536074,"(0.0018140044994652271, 0.0, 0.0, 0.0, 0.0, 0.0, 0.0, 0.0018192017450928688, -4.1455622034909736e-20, 0.0, 0.0, 0.0, 0.0, -4.1455622034909724e-20, 0.0014806909020990133, 0.0, 0.0, 0.0, 0.0, 0.0, 0.0, 0.0, 0.0, 0.0, 0.0, 0.0, 0.0, 0.0, 0.0, 0.0, 0.0, 0.0, 0.0, 0.0, 0.0, 0.0)"
1676469335.1489205,6502,1676469335,134481856,map,base_link,-1.3271874189376833,-0.5846590995788571,0.12555405497550948,-0.010586350727083643,-0.10363642561742686,0.0037487235862749386,0.9945518565594076,"(0.0005637063295580447, -1.9058758301104603e-22, 6.5180005486866186e-21, 0.0, 0.0, 0.0, -1.9058758301104603e-22, 0.0005628479993902147, -4.249625784200064e-36, 0.0, 0.0, 0.0, 6.518000548686618e-21, -4.2496257842000645e-36, 0.0005104828160256147, 0.0, 0.0, 0.0, 0.0, 0.0, 0.0, 0.0, 0.0, 0.0, 0.0, 0.0, 0.0, 0.0, 0.0, 0.0, 0.0, 0.0, 0.0, 0.0, 0.0, 0.0)",0.005843345075845718,-0.0016876308945938945,0.000484577030874789,0.0037540956400334835,-0.000759444257710129,-6.231657607713705e-05,"(0.0018383001442998648, 0.0, 0.0, 0.0, 0.0, 0.0, 0.0, 0.0018435165984556079, -4.207648989932558e-20, 0.0, 0.0, 0.0, 0.0, -4.207648989932558e-20, 0.0014999359846115112, 0.0, 0.0, 0.0, 0.0, 0.0, 0.0, 0.0, 0.0, 0.0, 0.0, 0.0, 0.0, 0.0, 0.0, 0.0, 0.0, 0.0, 0.0, 0.0, 0.0, 0.0)"
1676469335.1793582,6503,1676469335,174449136,map,base_link,-1.3271653652191164,-0.5846414566040036,0.1255559623241423,-0.010592183084629414,-0.103633230536188,0.0037566354903880357,0.9945521246112159,"(0.0005635236739180982, -1.8404768629304866e-22, 6.444221789166266e-21, 0.0, 0.0, 0.0, -1.8404768629304866e-22, 0.0005626947968266904, -4.234125007855187e-36, 0.0, 0.0, 0.0, 6.4442217891662634e-21, -4.2341250078551864e-36, 0.0005109026096761227, 0.0, 0.0, 0.0, 0.0, 0.0, 0.0, 0.0, 0.0, 0.0, 0.0, 0.0, 0.0, 0.0, 0.0, 0.0, 0.0, 0.0, 0.0, 0.0, 0.0, 0.0)",0.005901167634874582,-0.0018077782588079572,0.00044385518413037083,-0.0019375415286049247,0.001014639507047832,0.00039646922959946085,"(0.0018328982405364513, 0.0, 0.0, 0.0, 0.0, 0.0, 0.0, 0.0018379401881247759, -4.146511704048277e-20, 0.0, 0.0, 0.0, 0.0, -4.146511704048277e-20, 0.0014993518125265837, 0.0, 0.0, 0.0, 0.0, 0.0, 0.0, 0.0, 0.0, 0.0, 0.0, 0.0, 0.0, 0.0, 0.0, 0.0, 0.0, 0.0, 0.0, 0.0, 0.0, 0.0)"
1676469335.2219384,6504,1676469335,204423136,map,base_link,-1.3271508216857912,-0.5846315622329709,0.125556632876396,-0.010595954974215843,-0.10363999262604297,0.003758832479600679,0.9945513476159844,"(0.0005471043987199664, -1.6861559799010624e-22, 6.03349151430602e-21, 0.0, 0.0, 0.0, -1.6861559799010624e-22, 0.0005463450215756893, -4.0667099793400586e-36, 0.0, 0.0, 0.0, 6.0334915143060245e-21, -4.066709979340059e-36, 0.0004978372016921639, 0.0, 0.0, 0.0, 0.0, 0.0, 0.0, 0.0, 0.0, 0.0, 0.0, 0.0, 0.0, 0.0, 0.0, 0.0, 0.0, 0.0, 0.0, 0.0, 0.0, 0.0)",0.005885470658540726,-0.0019034231081604958,0.00043890159577131293,-0.0011143246665596962,-0.0004677032993640751,-0.0003002735320478677,"(0.0017965721199288964, 0.0, 0.0, 0.0, 0.0, 0.0, 0.0, 0.00180132407695055, -3.9807098026774804e-20, 0.0, 0.0, 0.0, 0.0, -3.98070980267748e-20, 0.001476274454034865, 0.0, 0.0, 0.0, 0.0, 0.0, 0.0, 0.0, 0.0, 0.0, 0.0, 0.0, 0.0, 0.0, 0.0, 0.0, 0.0, 0.0, 0.0, 0.0, 0.0, 0.0)"
1676469335.2666793,6505,1676469335,234397136,map,base_link,-1.3271359205245974,-0.5846236348152157,0.12555705010890944,-0.010596308015917157,-0.10364286448499624,0.003759790270891226,0.9945510467839531,"(0.0005619128933176398, -1.7353990757421098e-22, 6.292593963682442e-21, 0.0, 0.0, 0.0, -1.7353990757421098e-22, 0.0005611313390545547, -4.195748726099596e-36, 0.0, 0.0, 0.0, 6.292593963682443e-21, -4.1957487260995965e-36, 0.0005105299642309546, 0.0, 0.0, 0.0, 0.0, 0.0, 0.0, 0.0, 0.0, 0.0, 0.0, 0.0, 0.0, 0.0, 0.0, 0.0, 0.0, 0.0, 0.0, 0.0, 0.0, 0.0)",0.005670774728059769,-0.0019218086963519454,0.0004416922456584873,-8.764688391238451e-05,0.0005000849487259984,0.0001657023094594478,"(0.0018205514643341303, 0.0, 0.0, 0.0, 0.0, 0.0, 0.0, 0.0018253346206620336, -4.0415776357009026e-20, 0.0, 0.0, 0.0, 0.0, -4.0415776357009026e-20, 0.0014953147619962692, 0.0, 0.0, 0.0, 0.0, 0.0, 0.0, 0.0, 0.0, 0.0, 0.0, 0.0, 0.0, 0.0, 0.0, 0.0, 0.0, 0.0, 0.0, 0.0, 0.0, 0.0)"
1676469335.3099992,6506,1676469335,284355136,map,base_link,-1.3271229267120364,-0.5846117734909054,0.12555868923664076,-0.010581535728485997,-0.1037608037040956,0.0038126080283382045,0.9945387226752609,"(0.0005765487439930439, -1.7510379591981905e-22, 6.506096149807484e-21, 0.0, 0.0, 0.0, -1.7510379591981905e-22, 0.0005757601466029882, -4.314886006584923e-36, 0.0, 0.0, 0.0, 6.506096149807485e-21, -4.314886006584924e-36, 0.0005234224372543395, 0.0, 0.0, 0.0, 0.0, 0.0, 0.0, 0.0, 0.0, 0.0, 0.0, 0.0, 0.0, 0.0, 0.0, 0.0, 0.0, 0.0, 0.0, 0.0, 0.0, 0.0)",0.007704749237746,-0.002603584667667746,0.0018299513030797245,-0.025955427438020706,-0.03313555568456649,0.04739218577742577,"(0.0018406364833936095, 0.0, 0.0, 0.0, 0.0, 0.0, 0.0, 0.0018453772645443678, -4.069478125049951e-20, 0.0, 0.0, 0.0, 0.0, -4.0694781250499525e-20, 0.0015130791580304503, 0.0, 0.0, 0.0, 0.0, 0.0, 0.0, 0.0, 0.0, 0.0, 0.0, 0.0, 0.0, 0.0, 0.0, 0.0, 0.0, 0.0, 0.0, 0.0, 0.0, 0.0)"
1676469335.3100588,6507,1676469335,304337136,map,base_link,-1.3271048069000246,-0.5846130847930905,0.1255578696727751,-0.010615843352042893,-0.10359237520761891,0.0038704592922681413,0.9945556996585565,"(0.0005751190474256873, -1.710583657365519e-22, 6.4288244828315775e-21, 0.0, 0.0, 0.0, -1.710583657365519e-22, 0.0005743486690334976, -4.29211738723306e-36, 0.0, 0.0, 0.0, 6.428824482831574e-21, -4.2921173872330596e-36, 0.0005226237117312849, 0.0, 0.0, 0.0, 0.0, 0.0, 0.0, 0.0, 0.0, 0.0, 0.0, 0.0, 0.0, 0.0, 0.0, 0.0, 0.0, 0.0, 0.0, 0.0, 0.0, 0.0)",0.005754093173891306,-0.0019956403411924835,0.002159857423976064,0.006358541082590818,0.052680931985378265,-0.0036123106256127423,"(0.0018339086091145873, 0.0, 0.0, 0.0, 0.0, 0.0, 0.0, 0.0018385634757578373, -4.025788268325289e-20, 0.0, 0.0, 0.0, 0.0, -4.0257882683252885e-20, 0.0015098329167813063, 0.0, 0.0, 0.0, 0.0, 0.0, 0.0, 0.0, 0.0, 0.0, 0.0, 0.0, 0.0, 0.0, 0.0, 0.0, 0.0, 0.0, 0.0, 0.0, 0.0, 0.0)"
1676469335.354181,6508,1676469335,334320136,map,base_link,-1.3271310329437258,-0.5846637487411496,0.12554711103439314,-0.010274406095242378,-0.10385357148705465,0.0037397456446700596,0.9945325108239433,"(0.0005568819469772279, -1.5583307258674773e-22, 5.9793657055100686e-21, 0.0, 0.0, 0.0, -1.5583307258674773e-22, 0.0005561801372095942, -4.107482978977117e-36, 0.0, 0.0, 0.0, 5.979365705510075e-21, -4.1074829789771156e-36, 0.0005080567207187414, 0.0, 0.0, 0.0, 0.0, 0.0, 0.0, 0.0, 0.0, 0.0, 0.0, 0.0, 0.0, 0.0, 0.0, 0.0, 0.0, 0.0, 0.0, 0.0, 0.0, 0.0)",0.0035884068347513676,-0.005640020128339529,-0.00025643580011092056,0.028370467945933342,-0.024268878623843197,-0.029016168788075444,"(0.001793574308976531, 0.0, 0.0, 0.0, 0.0, 0.0, 0.0, 0.0017979638651013374, -3.852370403024874e-20, 0.0, 0.0, 0.0, 0.0, -3.8523704030248744e-20, 0.001483393949456513, 0.0, 0.0, 0.0, 0.0, 0.0, 0.0, 0.0, 0.0, 0.0, 0.0, 0.0, 0.0, 0.0, 0.0, 0.0, 0.0, 0.0, 0.0, 0.0, 0.0, 0.0)"
1676469335.378846,6509,1676469335,374279440,map,base_link,-1.3272261619567873,-0.5848038196563717,0.12553206086158736,-0.009274456231873751,-0.10438484761598203,0.0034863301328007927,0.9944876311880568,"(0.0005544308805838227, -1.491510042009678e-22, 5.847654580905479e-21, 0.0, 0.0, 0.0, -1.491510042009678e-22, 0.0005537591641768813, -4.0685970197494286e-36, 0.0, 0.0, 0.0, 5.8476545809054835e-21, -4.0685970197494306e-36, 0.0005066811572760344, 0.0, 0.0, 0.0, 0.0, 0.0, 0.0, 0.0, 0.0, 0.0, 0.0, 0.0, 0.0, 0.0, 0.0, 0.0, 0.0, 0.0, 0.0, 0.0, 0.0, 0.0)",0.0050598448142409325,-0.0055319396778941154,0.0011942343553528196,0.10270215570926666,0.002237062435597175,-0.05248770862817764,"(0.001782128936611116, 0.0, 0.0, 0.0, 0.0, 0.0, 0.0, 0.0017863818211480975, -3.7780370553411647e-20, 0.0, 0.0, 0.0, 0.0, -3.778037055341164e-20, 0.0014778816839680076, 0.0, 0.0, 0.0, 0.0, 0.0, 0.0, 0.0, 0.0, 0.0, 0.0, 0.0, 0.0, 0.0, 0.0, 0.0, 0.0, 0.0, 0.0, 0.0, 0.0, 0.0)"
1676469335.421936,6510,1676469335,404254440,map,base_link,-1.3268679380416872,-0.5850135684013363,0.1256029456853865,-0.008151274386531977,-0.10225912997435872,0.0036191609570811957,0.9947178292383912,"(0.0005686247022822499, -1.5324813317251952e-22, 6.07748789148088e-21, 0.0, 0.0, 0.0, -1.5324813317251952e-22, 0.0005679345340467989, -4.188619960656964e-36, 0.0, 0.0, 0.0, 6.077487891480875e-21, -4.188619960656966e-36, 0.0005189982475712895, 0.0, 0.0, 0.0, 0.0, 0.0, 0.0, 0.0, 0.0, 0.0, 0.0, 0.0, 0.0, 0.0, 0.0, 0.0, 0.0, 0.0, 0.0, 0.0, 0.0, 0.0)",0.03455304726958275,-0.015409606508910656,-0.0004103797837160509,0.14861389994621277,0.3273354172706604,0.0766956508159637,"(0.0018042847514152527, 0.0, 0.0, 0.0, 0.0, 0.0, 0.0, 0.0018085798947140574, -3.8327944388321394e-20, 0.0, 0.0, 0.0, 0.0, -3.832794438832138e-20, 0.0014956084778532386, 0.0, 0.0, 0.0, 0.0, 0.0, 0.0, 0.0, 0.0, 0.0, 0.0, 0.0, 0.0, 0.0, 0.0, 0.0, 0.0, 0.0, 0.0, 0.0, 0.0, 0.0)"
1676469335.4662666,6511,1676469335,434228440,map,base_link,-1.3251655101776125,-0.5853484272956845,0.12592126429080946,-0.006583456280620057,-0.09113961760003138,0.005535902687378642,0.9958009758746813,"(0.000551042496226728, -1.4015541503945363e-22, 5.665110960248739e-21, 0.0, 0.0, 0.0, -1.4015541503945363e-22, 0.0005504112923517823, -4.01474608907657e-36, 0.0, 0.0, 0.0, 5.665110960248743e-21, -4.0147460890765734e-36, 0.0005047833546996117, 0.0, 0.0, 0.0, 0.0, 0.0, 0.0, 0.0, 0.0, 0.0, 0.0, 0.0, 0.0, 0.0, 0.0, 0.0, 0.0, 0.0, 0.0, 0.0, 0.0, 0.0)",0.09040552377700806,-0.009964660741388798,-0.0025386372581124293,0.10596656799316406,1.073590636253357,0.14173482358455644,"(0.0017669491935521364, 0.0, 0.0, 0.0, 0.0, 0.0, 0.0, 0.0017710155807435513, -3.680257031733368e-20, 0.0, 0.0, 0.0, 0.0, -3.680257031733367e-20, 0.0014704997884109616, 0.0, 0.0, 0.0, 0.0, 0.0, 0.0, 0.0, 0.0, 0.0, 0.0, 0.0, 0.0, 0.0, 0.0, 0.0, 0.0, 0.0, 0.0, 0.0, 0.0, 0.0)"
1676469335.5101392,6512,1676469335,474196744,map,base_link,-1.32077431678772,-0.5854016542434689,0.12646524608135207,-0.006851144393659339,-0.06646525122656081,0.008651097952737977,0.997727758631803,"(0.000548966636415571, -1.3477874105785895e-22, 5.553031401220858e-21, 0.0, 0.0, 0.0, -1.3477874105785895e-22, 0.0005483596469275653, -3.9817047378021306e-36, 0.0, 0.0, 0.0, 5.553031401220857e-21, -3.98170473780213e-36, 0.0005036226939409971, 0.0, 0.0, 0.0, 0.0, 0.0, 0.0, 0.0, 0.0, 0.0, 0.0, 0.0, 0.0, 0.0, 0.0, 0.0, 0.0, 0.0, 0.0, 0.0, 0.0, 0.0)",0.13088710606098175,0.001898187329061329,-0.002821642672643066,-0.1399570107460022,1.3171744346618652,0.21901033818721755,"(0.0017590468050912023, 0.0, 0.0, 0.0, 0.0, 0.0, 0.0, 0.001762939733453095, -3.633935376166684e-20, 0.0, 0.0, 0.0, 0.0, -3.6339353761666833e-20, 0.0014662063913419843, 0.0, 0.0, 0.0, 0.0, 0.0, 0.0, 0.0, 0.0, 0.0, 0.0, 0.0, 0.0, 0.0, 0.0, 0.0, 0.0, 0.0, 0.0, 0.0, 0.0, 0.0)"
1676469335.5542367,6513,1676469335,504173744,map,base_link,-1.3169523477554324,-0.5850910544395443,0.12685395777225478,-0.008599560194880415,-0.04610861515479272,0.011050941464046673,0.9988383080631104,"(0.000563129666261375, -1.3885002063526838e-22, 5.779058155507949e-21, 0.0, 0.0, 0.0, -1.3885002063526838e-22, 0.0005625043413601816, -4.100812449646734e-36, 0.0, 0.0, 0.0, 5.779058155507954e-21, -4.1008124496467345e-36, 0.0005159400752745569, 0.0, 0.0, 0.0, 0.0, 0.0, 0.0, 0.0, 0.0, 0.0, 0.0, 0.0, 0.0, 0.0, 0.0, 0.0, 0.0, 0.0, 0.0, 0.0, 0.0, 0.0)",0.12816889584064484,0.00909618940204382,0.000595314020756631,-0.12072228640317917,1.2876317501068115,0.19898138940334303,"(0.001784532330930233, 0.0, 0.0, 0.0, 0.0, 0.0, 0.0, 0.0017883774125948548, -3.72231876588079e-20, 0.0, 0.0, 0.0, 0.0, -3.7223187658807894e-20, 0.0014844270190224051, 0.0, 0.0, 0.0, 0.0, 0.0, 0.0, 0.0, 0.0, 0.0, 0.0, 0.0, 0.0, 0.0, 0.0, 0.0, 0.0, 0.0, 0.0, 0.0, 0.0, 0.0)"
1676469335.554365,6514,1676469335,534145744,map,base_link,-1.3134894371032717,-0.5847405195236203,0.12719981372356398,-0.010789760258453851,-0.02865771324446426,0.013513886770130542,0.9994397273391507,"(0.0005461177206598222, -1.2737288963609512e-22, 5.399286446116018e-21, 0.0, 0.0, 0.0, -1.2737288963609512e-22, 0.00054554408416152, -3.936373498458873e-36, 0.0, 0.0, 0.0, 5.399286446116022e-21, -3.936373498458872e-36, 0.00050202920101583, 0.0, 0.0, 0.0, 0.0, 0.0, 0.0, 0.0, 0.0, 0.0, 0.0, 0.0, 0.0, 0.0, 0.0, 0.0, 0.0, 0.0, 0.0, 0.0, 0.0, 0.0)",0.09915301203727722,0.007205047644674779,0.005339076742529868,-0.14372891187667847,1.0111474990844727,0.18982155621051777,"(0.001752224168740213, 0.0, 0.0, 0.0, 0.0, 0.0, 0.0, 0.0017557555111125112, -3.615591196480723e-20, 0.0, 0.0, 0.0, 0.0, -3.615591196480723e-20, 0.0014605200849473476, 0.0, 0.0, 0.0, 0.0, 0.0, 0.0, 0.0, 0.0, 0.0, 0.0, 0.0, 0.0, 0.0, 0.0, 0.0, 0.0, 0.0, 0.0, 0.0, 0.0, 0.0)"
1676469335.5979974,6515,1676469335,574112792,map,base_link,-1.3103218078613283,-0.5846483111381527,0.12753191590309126,-0.01161163101650026,-0.014845374420561467,0.015414889300405743,0.9997035721534666,"(0.0005443989066407084, -1.2268122459927092e-22, 5.307565547686226e-21, 0.0, 0.0, 0.0, -1.2268122459927092e-22, 0.0005438463995233178, -3.9092317939603044e-36, 0.0, 0.0, 0.0, 5.307565547686221e-21, -3.909231793960306e-36, 0.0005010593449696898, 0.0, 0.0, 0.0, 0.0, 0.0, 0.0, 0.0, 0.0, 0.0, 0.0, 0.0, 0.0, 0.0, 0.0, 0.0, 0.0, 0.0, 0.0, 0.0, 0.0, 0.0)",0.047263290733098984,-0.0072539825923740855,0.0039418740198016175,-0.027036704123020172,0.44647952914237976,0.046597145497798864,"(0.0017503320705145597, 0.0, 0.0, 0.0, 0.0, 0.0, 0.0, 0.0017535417573526502, -3.63117669211505e-20, 0.0, 0.0, 0.0, 0.0, -3.6311766921150515e-20, 0.0014570336788892746, 0.0, 0.0, 0.0, 0.0, 0.0, 0.0, 0.0, 0.0, 0.0, 0.0, 0.0, 0.0, 0.0, 0.0, 0.0, 0.0, 0.0, 0.0, 0.0, 0.0, 0.0)"
1676469335.6125605,6516,1676469335,604086792,map,base_link,-1.3089694976806643,-0.584911227226257,0.12766589224338515,-0.010257066608011733,-0.0111589744182756,0.015313319985923278,0.9997678487374063,"(0.0005585955805145204, -1.2622259159676357e-22, 5.5371351081068066e-21, 0.0, 0.0, 0.0, -1.2622259159676357e-22, 0.0005580271244980395, -4.0292232712321543e-36, 0.0, 0.0, 0.0, 5.537135108106808e-21, -4.029223271232154e-36, 0.0005133814411237836, 0.0, 0.0, 0.0, 0.0, 0.0, 0.0, 0.0, 0.0, 0.0, 0.0, 0.0, 0.0, 0.0, 0.0, 0.0, 0.0, 0.0, 0.0, 0.0, 0.0, 0.0)",0.02142949402332306,-0.010398630984127522,0.003856932977214457,0.12064281105995178,0.11560492217540741,-0.025731613859534277,"(0.0017803964437916875, 0.0, 0.0, 0.0, 0.0, 0.0, 0.0, 0.0017833476886153221, -3.7725154102083635e-20, 0.0, 0.0, 0.0, 0.0, -3.772515410208364e-20, 0.0014752984279766679, 0.0, 0.0, 0.0, 0.0, 0.0, 0.0, 0.0, 0.0, 0.0, 0.0, 0.0, 0.0, 0.0, 0.0, 0.0, 0.0, 0.0, 0.0, 0.0, 0.0, 0.0)"
1676469335.6551254,6517,1676469335,634061792,map,base_link,-1.30816125869751,-0.5851562023162838,0.1277554035186766,-0.009061567083363068,-0.011257902166455783,0.01417576655193907,0.9997951124093255,"(0.0005421314854174852, -1.1550801772478763e-22, 5.19357558213163e-21, 0.0, 0.0, 0.0, -1.1550801772478763e-22, 0.0005416112835519016, -3.8748246405751085e-36, 0.0, 0.0, 0.0, 5.19357558213163e-21, -3.87482464057511e-36, 0.0004997227224521339, 0.0, 0.0, 0.0, 0.0, 0.0, 0.0, 0.0, 0.0, 0.0, 0.0, 0.0, 0.0, 0.0, 0.0, 0.0, 0.0, 0.0, 0.0, 0.0, 0.0, 0.0)",0.004455213434994221,-0.00685064448043704,0.0018898884300142535,0.04608849808573723,-0.10146158188581468,-0.07542352378368376,"(0.0017526207957416773, 0.0, 0.0, 0.0, 0.0, 0.0, 0.0, 0.0017550858901813626, -3.7107436982760394e-20, 0.0, 0.0, 0.0, 0.0, -3.710743698276039e-20, 0.0014520806726068258, 0.0, 0.0, 0.0, 0.0, 0.0, 0.0, 0.0, 0.0, 0.0, 0.0, 0.0, 0.0, 0.0, 0.0, 0.0, 0.0, 0.0, 0.0, 0.0, 0.0, 0.0)"
1676469335.6979663,6518,1676469335,674029584,map,base_link,-1.307484269142151,-0.5853388309478756,0.1278478801250456,-0.008464223610925598,-0.01389461439879416,0.013270207653819567,0.9997796065580252,"(0.0005408197757788002, -1.1023474131976208e-22, 5.132528113867639e-21, 0.0, 0.0, 0.0, -1.1023474131976208e-22, 0.0005403233226388693, -3.8559011906272356e-36, 0.0, 0.0, 0.0, 5.132528113867641e-21, -3.855901190627235e-36, 0.0004989095032215118, 0.0, 0.0, 0.0, 0.0, 0.0, 0.0, 0.0, 0.0, 0.0, 0.0, 0.0, 0.0, 0.0, 0.0, 0.0, 0.0, 0.0, 0.0, 0.0, 0.0, 0.0)",0.0009778381790965796,-0.002554831095039844,0.0025432331021875147,0.02225629799067974,-0.13878664374351501,-0.04189531877636908,"(0.0017543704016134143, 0.0, 0.0, 0.0, 0.0, 0.0, 0.0, 0.0017564865993335843, -3.756010353223494e-20, 0.0, 0.0, 0.0, 0.0, -3.756010353223495e-20, 0.0014497850788757205, 0.0, 0.0, 0.0, 0.0, 0.0, 0.0, 0.0, 0.0, 0.0, 0.0, 0.0, 0.0, 0.0, 0.0, 0.0, 0.0, 0.0, 0.0, 0.0, 0.0, 0.0)"
1676469335.741956,6519,1676469335,704003584,map,base_link,-1.3069107532501223,-0.5854445099830624,0.1279265880584715,-0.00828918881965773,-0.01551666886595328,0.012904054072852006,0.9997619983600361,"(0.0005551247159019113, -1.1212174709214867e-22, 5.373638525656675e-21, 0.0, 0.0, 0.0, -1.1212174709214867e-22, 0.0005546197644434869, -3.978763836635338e-36, 0.0, 0.0, 0.0, 5.37363852565668e-21, -3.978763836635338e-36, 0.0005112456274218857, 0.0, 0.0, 0.0, 0.0, 0.0, 0.0, 0.0, 0.0, 0.0, 0.0, 0.0, 0.0, 0.0, 0.0, 0.0, 0.0, 0.0, 0.0, 0.0, 0.0, 0.0)",0.008561711758375168,-0.0020523604471236463,0.002252769656479359,-0.010521197691559792,-0.05977622047066689,-0.05202879011631011,"(0.0017852082382887602, 0.0, 0.0, 0.0, 0.0, 0.0, 0.0, 0.001787114073522389, -3.892707068592203e-20, 0.0, 0.0, 0.0, 0.0, -3.892707068592202e-20, 0.001469250419177115, 0.0, 0.0, 0.0, 0.0, 0.0, 0.0, 0.0, 0.0, 0.0, 0.0, 0.0, 0.0, 0.0, 0.0, 0.0, 0.0, 0.0, 0.0, 0.0, 0.0, 0.0)"
1676469335.7860017,6520,1676469335,733978584,map,base_link,-1.3061499595642092,-0.5856134891510006,0.1280348896980284,-0.007910176046267522,-0.0158446655563847,0.012719489323709135,0.9997622915285522,"(0.000539132917765528, -1.0103235700510965e-22, 5.059027361267215e-21, 0.0, 0.0, 0.0, -1.0103235700510965e-22, 0.0005386779084801674, -3.832582149878386e-36, 0.0, 0.0, 0.0, 5.0590273612672114e-21, -3.8325821498783853e-36, 0.0004978228243999183, 0.0, 0.0, 0.0, 0.0, 0.0, 0.0, 0.0, 0.0, 0.0, 0.0, 0.0, 0.0, 0.0, 0.0, 0.0, 0.0, 0.0, 0.0, 0.0, 0.0, 0.0)",0.017271393910050392,-0.007254573982208967,0.0018349223537370571,-0.03212333843111992,0.007905080914497375,0.0015245556132867924,"(0.001759369159117341, 0.0, 0.0, 0.0, 0.0, 0.0, 0.0, 0.0017607924528419971, -3.8360948799585084e-20, 0.0, 0.0, 0.0, 0.0, -3.8360948799585084e-20, 0.001447551534511149, 0.0, 0.0, 0.0, 0.0, 0.0, 0.0, 0.0, 0.0, 0.0, 0.0, 0.0, 0.0, 0.0, 0.0, 0.0, 0.0, 0.0, 0.0, 0.0, 0.0, 0.0)"
1676469335.7860467,6521,1676469335,773950632,map,base_link,-1.3048853874206545,-0.5858831405639645,0.12822593748569472,-0.00675692466481588,-0.014250981596773408,0.012686271166741963,0.9997951628300876,"(0.0005381940281949937, -9.379452664527065e-23, 5.021810075909174e-21, 0.0, 0.0, 0.0, -9.379452664527065e-23, 0.0005377716151997447, -3.8203561850205164e-36, 0.0, 0.0, 0.0, 5.021810075909172e-21, -3.820356185020515e-36, 0.0004971878370270133, 0.0, 0.0, 0.0, 0.0, 0.0, 0.0, 0.0, 0.0, 0.0, 0.0, 0.0, 0.0, 0.0, 0.0, 0.0, 0.0, 0.0, 0.0, 0.0, 0.0, 0.0)",0.020535428076982498,-0.0069735348224639875,0.010698113590478897,0.15947428345680237,0.11977894604206085,-0.043571226298809065,"(0.0017643312457948923, 0.0, 0.0, 0.0, 0.0, 0.0, 0.0, 0.0017650797963142395, -3.90306745980833e-20, 0.0, 0.0, 0.0, 0.0, -3.90306745980833e-20, 0.0014463701518252492, 0.0, 0.0, 0.0, 0.0, 0.0, 0.0, 0.0, 0.0, 0.0, 0.0, 0.0, 0.0, 0.0, 0.0, 0.0, 0.0, 0.0, 0.0, 0.0, 0.0, 0.0)"
1676469335.830046,6522,1676469335,803921632,map,base_link,-1.3039276599884035,-0.5861219763755795,0.12837915122508986,-0.006248929692013598,-0.01267571184636692,0.012665781763485042,0.9998199421406359,"(0.000552650832105428, -9.29285719415042e-23, 5.275844245283752e-21, 0.0, 0.0, 0.0, -9.29285719415042e-23, 0.0005522323190234601, -3.9466042682649614e-36, 0.0, 0.0, 0.0, 5.275844245283758e-21, -3.946604268264961e-36, 0.0005095702945254743, 0.0, 0.0, 0.0, 0.0, 0.0, 0.0, 0.0, 0.0, 0.0, 0.0, 0.0, 0.0, 0.0, 0.0, 0.0, 0.0, 0.0, 0.0, 0.0, 0.0, 0.0)",0.020867954939603806,-0.005765860434621572,0.010528323240578175,0.22196440398693085,0.15333762764930725,-0.0244707800447941,"(0.0017973330104723573, 0.0, 0.0, 0.0, 0.0, 0.0, 0.0, 0.001797573990188539, -4.0596751733502024e-20, 0.0, 0.0, 0.0, 0.0, -4.0596751733502036e-20, 0.0014660763554275036, 0.0, 0.0, 0.0, 0.0, 0.0, 0.0, 0.0, 0.0, 0.0, 0.0, 0.0, 0.0, 0.0, 0.0, 0.0, 0.0, 0.0, 0.0, 0.0, 0.0, 0.0)"
1676469335.844511,6523,1676469335,833896632,map,base_link,-1.3030782938003542,-0.5863495469093319,0.1285456866025923,-0.0060628729476984505,-0.011416543503001546,0.012639441828742723,0.999836570135501,"(0.0005370797007344663, -8.136096806283296e-23, 4.987686508583182e-21, 0.0, 0.0, 0.0, -8.136096806283296e-23, 0.000536713283509016, -3.8078753695839306e-36, 0.0, 0.0, 0.0, 4.9876865085831876e-21, -3.807875369583931e-36, 0.0004963521496392787, 0.0, 0.0, 0.0, 0.0, 0.0, 0.0, 0.0, 0.0, 0.0, 0.0, 0.0, 0.0, 0.0, 0.0, 0.0, 0.0, 0.0, 0.0, 0.0, 0.0, 0.0)",0.01972651295363903,-0.005650240927934646,0.00675921654328704,0.1660640388727188,0.11829322576522827,-0.045073609799146666,"(0.0017743040807545185, 0.0, 0.0, 0.0, 0.0, 0.0, 0.0, 0.001773933181539178, -4.033019299596541e-20, 0.0, 0.0, 0.0, 0.0, -4.033019299596541e-20, 0.0014446121640503407, 0.0, 0.0, 0.0, 0.0, 0.0, 0.0, 0.0, 0.0, 0.0, 0.0, 0.0, 0.0, 0.0, 0.0, 0.0, 0.0, 0.0, 0.0, 0.0, 0.0, 0.0)"
1676469335.8859825,6524,1676469335,873862424,map,base_link,-1.3021043539047243,-0.5866823792457577,0.1287866830825804,-0.00581541971974515,-0.010075499054848008,0.012780894521194745,0.999850651141967,"(0.0005365367396734655, -7.204226147454025e-23, 4.9813066061898804e-21, 0.0, 0.0, 0.0, -7.204226147454025e-23, 0.0005362122901715338, -3.8038570192268997e-36, 0.0, 0.0, 0.0, 4.9813066061898774e-21, -3.8038570192268997e-36, 0.0004958612844347954, 0.0, 0.0, 0.0, 0.0, 0.0, 0.0, 0.0, 0.0, 0.0, 0.0, 0.0, 0.0, 0.0, 0.0, 0.0, 0.0, 0.0, 0.0, 0.0, 0.0, 0.0)",0.017564918845891953,-0.012398549355566502,0.006040511652827265,-0.15499871969223022,0.03315726667642594,0.038807041943073266,"(0.0017820993671193719, 0.0, 0.0, 0.0, 0.0, 0.0, 0.0, 0.0017811154248192906, -4.136402231898352e-20, 0.0, 0.0, 0.0, 0.0, -4.136402231898352e-20, 0.0014433525502681732, 0.0, 0.0, 0.0, 0.0, 0.0, 0.0, 0.0, 0.0, 0.0, 0.0, 0.0, 0.0, 0.0, 0.0, 0.0, 0.0, 0.0, 0.0, 0.0, 0.0, 0.0)"
1676469335.9300995,6525,1676469335,903836424,map,base_link,-1.3014831542968752,-0.5869715809822079,0.12896333634853346,-0.005178990526223404,-0.009181272134496703,0.01310333080472912,0.9998586021717599,"(0.0005512152565643191, -6.826824992976707e-23, 5.258679100073606e-21, 0.0, 0.0, 0.0, -6.826824992976707e-23, 0.0005509078036993742, -3.9359212981055566e-36, 0.0, 0.0, 0.0, 5.2586791000736095e-21, -3.935921298105556e-36, 0.0005082748830318451, 0.0, 0.0, 0.0, 0.0, 0.0, 0.0, 0.0, 0.0, 0.0, 0.0, 0.0, 0.0, 0.0, 0.0, 0.0, 0.0, 0.0, 0.0, 0.0, 0.0, 0.0)",0.014194885268807411,-0.011672454886138437,0.0085245193913579,-0.0505203902721405,0.03151935338974,0.048127956688404076,"(0.0018167841481044888, 0.0, 0.0, 0.0, 0.0, 0.0, 0.0, 0.0018154280260205269, -4.3171167095895895e-20, 0.0, 0.0, 0.0, 0.0, -4.31711670958959e-20, 0.0014629086945205927, 0.0, 0.0, 0.0, 0.0, 0.0, 0.0, 0.0, 0.0, 0.0, 0.0, 0.0, 0.0, 0.0, 0.0, 0.0, 0.0, 0.0, 0.0, 0.0, 0.0, 0.0)"
1676469335.973941,6526,1676469335,933811424,map,base_link,-1.3009458780288699,-0.5873194336891171,0.12913967669010146,-0.004434073451433902,-0.008490572706020555,0.013275371722119777,0.9998660187478207,"(0.0005360190407373011, -5.67264954452381e-23, 4.99794425109041e-21, 0.0, 0.0, 0.0, -5.67264954452381e-23, 0.0005357635673135519, -3.8045915983179495e-36, 0.0, 0.0, 0.0, 4.997944251090406e-21, -3.8045915983179475e-36, 0.000495207728818059, 0.0, 0.0, 0.0, 0.0, 0.0, 0.0, 0.0, 0.0, 0.0, 0.0, 0.0, 0.0, 0.0, 0.0, 0.0, 0.0, 0.0, 0.0, 0.0, 0.0, 0.0)",0.013802479952573776,-0.013564727269113062,0.012580918148159983,0.016894783824682236,0.02611633762717247,-0.0006505597266368599,"(0.0017949305474758148, 0.0, 0.0, 0.0, 0.0, 0.0, 0.0, 0.001793158589862287, -4.305235121534663e-20, 0.0, 0.0, 0.0, 0.0, -4.305235121534662e-20, 0.0014416094636544585, 0.0, 0.0, 0.0, 0.0, 0.0, 0.0, 0.0, 0.0, 0.0, 0.0, 0.0, 0.0, 0.0, 0.0, 0.0, 0.0, 0.0, 0.0, 0.0, 0.0, 0.0)"
1676469336.0179307,6527,1676469335,973779472,map,base_link,-1.3002966642379763,-0.5878472328186032,0.12939454615116103,-0.003267704349238496,-0.00789236257474317,0.012770573003583518,0.9998819894328935,"(0.000535866420250386, -4.586974990547961e-23, 5.026500551635195e-21, 0.0, 0.0, 0.0, -4.586974990547961e-23, 0.0005356598412618041, -3.8095574966602104e-36, 0.0, 0.0, 0.0, 5.026500551635194e-21, -3.80955749666021e-36, 0.0004948219284415245, 0.0, 0.0, 0.0, 0.0, 0.0, 0.0, 0.0, 0.0, 0.0, 0.0, 0.0, 0.0, 0.0, 0.0, 0.0, 0.0, 0.0, 0.0, 0.0, 0.0, 0.0)",0.017623718827962875,-0.009407603181898592,0.014368392527103426,0.13044792413711548,0.039829034358263,-0.13069218397140503,"(0.0018035954562947154, 0.0, 0.0, 0.0, 0.0, 0.0, 0.0, 0.001801265636458993, -4.415650916072488e-20, 0.0, 0.0, 0.0, 0.0, -4.415650916072487e-20, 0.001440700376406312, 0.0, 0.0, 0.0, 0.0, 0.0, 0.0, 0.0, 0.0, 0.0, 0.0, 0.0, 0.0, 0.0, 0.0, 0.0, 0.0, 0.0, 0.0, 0.0, 0.0, 0.0)"
1676469336.0179665,6528,1676469336,3753472,map,base_link,-1.2987890243530276,-0.5894173979759213,0.1304087191820143,0.012867801425995824,0.005522834318171748,0.004410218712648328,0.9998922627796084,"(0.0005508054164238274, -3.9549573037691636e-23, 5.332899819312826e-21, 0.0, 0.0, 0.0, -3.9549573037691636e-23, 0.0005506273009814322, -3.9487642364280265e-36, 0.0, 0.0, 0.0, 5.332899819312831e-21, -3.948764236428026e-36, 0.0005072589847259223, 0.0, 0.0, 0.0, 0.0, 0.0, 0.0, 0.0, 0.0, 0.0, 0.0, 0.0, 0.0, 0.0, 0.0, 0.0, 0.0, 0.0, 0.0, 0.0, 0.0, 0.0)",0.09848158061504364,-0.11925350129604338,0.08475299179553987,2.3513615131378174,1.9758554697036743,-0.3502805233001711,"(0.0018397725652903318, 0.0, 0.0, 0.0, 0.0, 0.0, 0.0, 0.0018369387835264206, -4.609839462483087e-20, 0.0, 0.0, 0.0, 0.0, -4.6098394624830885e-20, 0.0014605168253183365, 0.0, 0.0, 0.0, 0.0, 0.0, 0.0, 0.0, 0.0, 0.0, 0.0, 0.0, 0.0, 0.0, 0.0, 0.0, 0.0, 0.0, 0.0, 0.0, 0.0, 0.0)"
1676469336.0621507,6529,1676469336,33727472,map,base_link,-1.2945038080215456,-0.5952689647674557,0.13567911088466628,0.07445814233469643,0.050336067139247945,0.0018602116158493267,0.9959512393013732,"(0.0005358992493711412, -2.869282749793315e-23, 5.092858664908145e-21, 0.0, 0.0, 0.0, -2.869282749793315e-23, 0.0005357700283639133, -3.82304861528102e-36, 0.0, 0.0, 0.0, 5.0928586649081435e-21, -3.82304861528102e-36, 0.0004943129024468362, 0.0, 0.0, 0.0, 0.0, 0.0, 0.0, 0.0, 0.0, 0.0, 0.0, 0.0, 0.0, 0.0, 0.0, 0.0, 0.0, 0.0, 0.0, 0.0, 0.0, 0.0)",0.1369456648826599,-0.1865250319242477,0.35412582755088806,4.251553535461426,3.0150504112243652,-0.19981126487255133,"(0.0018180046463385224, 0.0, 0.0, 0.0, 0.0, 0.0, 0.0, 0.001814710907638073, -4.594021581577227e-20, 0.0, 0.0, 0.0, 0.0, -4.594021581577226e-20, 0.0014395805774256587, 0.0, 0.0, 0.0, 0.0, 0.0, 0.0, 0.0, 0.0, 0.0, 0.0, 0.0, 0.0, 0.0, 0.0, 0.0, 0.0, 0.0, 0.0, 0.0, 0.0, 0.0)"
1676469336.0776007,6530,1676469336,73695520,map,base_link,-1.2863389253616335,-0.6068422794342038,0.1592509448528288,0.11418427645822138,0.08799298080495738,-0.0003730913778421389,0.9895549996410536,"(0.0005360842333175242, -1.6659934524700823e-23, 5.151917314437244e-21, 0.0, 0.0, 0.0, -1.6659934524700823e-23, 0.0005360092036426067, -3.835840019214816e-36, 0.0, 0.0, 0.0, 5.151917314437246e-21, -3.835840019214816e-36, 0.0004940156359225512, 0.0, 0.0, 0.0, 0.0, 0.0, 0.0, 0.0, 0.0, 0.0, 0.0, 0.0, 0.0, 0.0, 0.0, 0.0, 0.0, 0.0, 0.0, 0.0, 0.0, 0.0)",0.09729254990816116,-0.1525139659643172,0.9797637462615967,1.018233060836792,0.9663713574409485,-0.1739463508129121,"(0.001825360581278801, 0.0, 0.0, 0.0, 0.0, 0.0, 0.0, 0.0018215577583760023, -4.6864410614981395e-20, 0.0, 0.0, 0.0, 0.0, -4.686441061498139e-20, 0.001438880804926157, 0.0, 0.0, 0.0, 0.0, 0.0, 0.0, 0.0, 0.0, 0.0, 0.0, 0.0, 0.0, 0.0, 0.0, 0.0, 0.0, 0.0, 0.0, 0.0, 0.0, 0.0)"
1676469336.1179442,6531,1676469336,103670520,map,base_link,-1.2766964435577395,-0.621144354343414,0.19270417094230635,0.12421501723586956,0.09527848622973041,-0.002156766889191056,0.9876679905321112,"(0.0005512822535820305, -7.767742939755776e-24, 5.487300585613407e-21, 0.0, 0.0, 0.0, -7.767742939755776e-24, 0.0005512472707778215, -3.9821733760014446e-36, 0.0, 0.0, 0.0, 5.4873005856134016e-21, -3.982173376001446e-36, 0.0005064750439487398, 0.0, 0.0, 0.0, 0.0, 0.0, 0.0, 0.0, 0.0, 0.0, 0.0, 0.0, 0.0, 0.0, 0.0, 0.0, 0.0, 0.0, 0.0, 0.0, 0.0, 0.0)",0.1118556559085846,-0.20717705786228163,1.458199381828308,0.3484750986099243,0.14987029135227203,-0.060753878206014654,"(0.0018611846026033163, 0.0, 0.0, 0.0, 0.0, 0.0, 0.0, 0.0018569112289696932, -4.8759462605652716e-20, 0.0, 0.0, 0.0, 0.0, -4.875946260565271e-20, 0.0014587600016966462, 0.0, 0.0, 0.0, 0.0, 0.0, 0.0, 0.0, 0.0, 0.0, 0.0, 0.0, 0.0, 0.0, 0.0, 0.0, 0.0, 0.0, 0.0, 0.0, 0.0, 0.0)"
1676469336.162268,6532,1676469336,133644520,map,base_link,-1.2633308172225954,-0.6407694816589352,0.23706018924713118,0.12235972077637154,0.09429695546892368,-0.0028843679805423687,0.987991836859427,"(0.0005365654360502958, 2.055026834311428e-24, 5.258750383899234e-21, 0.0, 0.0, 0.0, 2.055026834311428e-24, 0.0005365746910683811, -3.8597169753781636e-36, 0.0, 0.0, 0.0, 5.258750383899235e-21, -3.859716975378166e-36, 0.0004936244804412127, 0.0, 0.0, 0.0, 0.0, 0.0, 0.0, 0.0, 0.0, 0.0, 0.0, 0.0, 0.0, 0.0, 0.0, 0.0, 0.0, 0.0, 0.0, 0.0, 0.0, 0.0)",0.17329268157482147,-0.28314918279647805,1.7506918907165527,-0.5228460431098938,-0.2202519178390503,-0.025939941406249972,"(0.001838510506786406, 0.0, 0.0, 0.0, 0.0, 0.0, 0.0, 0.0018338668160140514, -4.847740676442557e-20, 0.0, 0.0, 0.0, 0.0, -4.8477406764425555e-20, 0.0014380187494680285, 0.0, 0.0, 0.0, 0.0, 0.0, 0.0, 0.0, 0.0, 0.0, 0.0, 0.0, 0.0, 0.0, 0.0, 0.0, 0.0, 0.0, 0.0, 0.0, 0.0, 0.0)"
1676469336.205948,6533,1676469336,173612568,map,base_link,-1.241784453392029,-0.6721444129943845,0.30344590544700606,0.09913988481313663,0.08255912331466564,-0.002306397731228896,0.9916400522683924,"(0.000537016661837697, 1.479877814645651e-23, 5.342052662522897e-21, 0.0, 0.0, 0.0, 1.479877814645651e-23, 0.000537083309609443, -3.878714875275653e-36, 0.0, 0.0, 0.0, 5.342052662522895e-21, -3.8787148752756536e-36, 0.0004933954915031791, 0.0, 0.0, 0.0, 0.0, 0.0, 0.0, 0.0, 0.0, 0.0, 0.0, 0.0, 0.0, 0.0, 0.0, 0.0, 0.0, 0.0, 0.0, 0.0, 0.0, 0.0)",0.262010782957077,-0.43019211292266823,1.7802196741104126,-1.691315770149231,-0.9726629257202148,0.011522069573402524,"(0.001850292319431901, 0.0, 0.0, 0.0, 0.0, 0.0, 0.0, 0.0018461932195350528, -5.010779616732183e-20, 0.0, 0.0, 0.0, 0.0, -5.0107796167321826e-20, 0.0014370320132002234, 0.0, 0.0, 0.0, 0.0, 0.0, 0.0, 0.0, 0.0, 0.0, 0.0, 0.0, 0.0, 0.0, 0.0, 0.0, 0.0, 0.0, 0.0, 0.0, 0.0, 0.0)"
1676469336.2500234,6534,1676469336,203586568,map,base_link,-1.2244654893875124,-0.6977932453155515,0.3521676063537596,0.07333245283125414,0.06616234328237827,-0.0021053875826346647,0.9951082801912929,"(0.0005525702727027237, 2.4272581099602906e-23, 5.720284641281352e-21, 0.0, 0.0, 0.0, 2.4272581099602906e-23, 0.0005526795866899192, -4.03540680638761e-36, 0.0, 0.0, 0.0, 5.7202846412813475e-21, -4.03540680638761e-36, 0.0005058606038801372, 0.0, 0.0, 0.0, 0.0, 0.0, 0.0, 0.0, 0.0, 0.0, 0.0, 0.0, 0.0, 0.0, 0.0, 0.0, 0.0, 0.0, 0.0, 0.0, 0.0, 0.0)",0.35693272948265076,-0.578617990016937,1.6214501857757568,-1.7550805807113647,-1.2202459573745728,-0.038243856281041946,"(0.0019015568541362882, 0.0, 0.0, 0.0, 0.0, 0.0, 0.0, 0.0018989189993590117, -5.515788453685587e-20, 0.0, 0.0, 0.0, 0.0, -5.515788453685586e-20, 0.0014485206920653582, 0.0, 0.0, 0.0, 0.0, 0.0, 0.0, 0.0, 0.0, 0.0, 0.0, 0.0, 0.0, 0.0, 0.0, 0.0, 0.0, 0.0, 0.0, 0.0, 0.0, 0.0)"
1676469336.250073,6535,1676469336,233561568,map,base_link,-1.2064888477325442,-0.7246882915496824,0.39743235707283003,0.045554525649216575,0.047327909633084676,-0.0017799626395758378,0.9978385154476092,"(0.0005382869858294725, 2.8537731133079455e-23, 5.55921883728498e-21, 0.0, 0.0, 0.0, 2.8537731133079455e-23, 0.0005384155083447695, -3.9285327680275264e-36, 0.0, 0.0, 0.0, 5.559218837284983e-21, -3.9285327680275264e-36, 0.0004928925191052258, 0.0, 0.0, 0.0, 0.0, 0.0, 0.0, 0.0, 0.0, 0.0, 0.0, 0.0, 0.0, 0.0, 0.0, 0.0, 0.0, 0.0, 0.0, 0.0, 0.0, 0.0)",0.44005516171455383,-0.6964073777198789,1.3907188177108765,-1.8981925249099731,-1.280715823173523,0.02500214800238625,"(0.0019128535641357303, 0.0, 0.0, 0.0, 0.0, 0.0, 0.0, 0.001909925020299852, -6.180351877532144e-20, 0.0, 0.0, 0.0, 0.0, -6.180351877532143e-20, 0.0014052609913051128, 0.0, 0.0, 0.0, 0.0, 0.0, 0.0, 0.0, 0.0, 0.0, 0.0, 0.0, 0.0, 0.0, 0.0, 0.0, 0.0, 0.0, 0.0, 0.0, 0.0, 0.0)"
1676469336.295526,6536,1676469336,273529616,map,base_link,-1.1817616224288943,-0.7620753645896909,0.45091512799262984,0.010753886410124265,0.02272773904873171,-0.001833328385687761,0.999682183274722,"(0.0005400623776949942, 3.462526345358689e-23, 5.876296422041013e-21, 0.0, 0.0, 0.0, 3.462526345358689e-23, 0.0005402183160185814, -4.00070807324407e-36, 0.0, 0.0, 0.0, 5.8762964220410116e-21, -4.000708073244069e-36, 0.0004920787760056555, 0.0, 0.0, 0.0, 0.0, 0.0, 0.0, 0.0, 0.0, 0.0, 0.0, 0.0, 0.0, 0.0, 0.0, 0.0, 0.0, 0.0, 0.0, 0.0, 0.0, 0.0)",0.5285792350769043,-0.810626983642578,1.0733016729354858,-1.6467872858047485,-1.1810352802276611,-0.0188190639019011,"(0.001983707770705223, 0.0, 0.0, 0.0, 0.0, 0.0, 0.0, 0.0019832304678857327, -7.425295378516888e-20, 0.0, 0.0, 0.0, 0.0, -7.425295378516888e-20, 0.0013769090874120593, 0.0, 0.0, 0.0, 0.0, 0.0, 0.0, 0.0, 0.0, 0.0, 0.0, 0.0, 0.0, 0.0, 0.0, 0.0, 0.0, 0.0, 0.0, 0.0, 0.0, 0.0)"
1676469336.3125193,6537,1676469336,303502616,map,base_link,-1.162680268287659,-0.7911757230758665,0.4863063991069792,-0.011890654444256873,0.0062775856599211095,-0.002061948699440263,0.9999075135278273,"(0.0005571889341808856, 3.9795142282043316e-23, 6.5452452268399216e-21, 0.0, 0.0, 0.0, 3.9795142282043316e-23, 0.0005573681555688381, -4.22318397181402e-36, 0.0, 0.0, 0.0, 6.545245226839925e-21, -4.223183971814021e-36, 0.0005037429509684443, 0.0, 0.0, 0.0, 0.0, 0.0, 0.0, 0.0, 0.0, 0.0, 0.0, 0.0, 0.0, 0.0, 0.0, 0.0, 0.0, 0.0, 0.0, 0.0, 0.0, 0.0)",0.5661745667457581,-0.8663160800933837,0.8670483231544496,-1.4150999784469604,-1.0016114711761475,-0.050147935748100156,"(0.002052875002846122, 0.0, 0.0, 0.0, 0.0, 0.0, 0.0, 0.002055344171822071, -8.310918499681089e-20, 0.0, 0.0, 0.0, 0.0, -8.310918499681089e-20, 0.001376706175506115, 0.0, 0.0, 0.0, 0.0, 0.0, 0.0, 0.0, 0.0, 0.0, 0.0, 0.0, 0.0, 0.0, 0.0, 0.0, 0.0, 0.0, 0.0, 0.0, 0.0, 0.0)"
1676469336.3547742,6538,1676469336,333477616,map,base_link,-1.1432502269744875,-0.8210933208465574,0.5185588598251342,-0.03151356845906491,-0.008549417380463446,-0.002547042415966143,0.9994635468800593,"(0.0005438133957795799, 3.62020764962661e-23, 6.568661963557258e-21, 0.0, 0.0, 0.0, 3.62020764962661e-23, 0.0005439764354377985, -4.1575267808848425e-36, 0.0, 0.0, 0.0, 6.5686619635572564e-21, -4.1575267808848425e-36, 0.0004901762004010379, 0.0, 0.0, 0.0, 0.0, 0.0, 0.0, 0.0, 0.0, 0.0, 0.0, 0.0, 0.0, 0.0, 0.0, 0.0, 0.0, 0.0, 0.0, 0.0, 0.0, 0.0)",0.5926473140716553,-0.8947837352752684,0.7056345939636232,-1.2217729091644287,-0.9682750701904297,-0.06080170720815647,"(0.0020236948039382696, 0.0, 0.0, 0.0, 0.0, 0.0, 0.0, 0.0020281162578612566, -8.436778647878508e-20, 0.0, 0.0, 0.0, 0.0, -8.436778647878509e-20, 0.0013392010005190969, 0.0, 0.0, 0.0, 0.0, 0.0, 0.0, 0.0, 0.0, 0.0, 0.0, 0.0, 0.0, 0.0, 0.0, 0.0, 0.0, 0.0, 0.0, 0.0, 0.0, 0.0)"
1676469336.3979857,6539,1676469336,373446664,map,base_link,-1.1173298358917239,-0.8613542318344114,0.5580739974975585,-0.05546953187344987,-0.02646948395840943,-0.0033505484090110486,0.9981038381219314,"(0.0005460590473376215, 3.2932128137267414e-23, 7.042692275571195e-21, 0.0, 0.0, 0.0, 3.2932128137267414e-23, 0.000546207360457629, -4.263154021556373e-36, 0.0, 0.0, 0.0, 7.04269227557119e-21, -4.263154021556376e-36, 0.0004885511007159948, 0.0, 0.0, 0.0, 0.0, 0.0, 0.0, 0.0, 0.0, 0.0, 0.0, 0.0, 0.0, 0.0, 0.0, 0.0, 0.0, 0.0, 0.0, 0.0, 0.0, 0.0)",0.607996940612793,-0.8931822180747985,0.5653693675994874,-1.166793704032898,-0.8733394742012024,-0.08015520870685566,"(0.0019854444544762373, 0.0, 0.0, 0.0, 0.0, 0.0, 0.0, 0.0019907772075384855, -8.271008111390985e-20, 0.0, 0.0, 0.0, 0.0, -8.271008111390986e-20, 0.0013153981417417526, 0.0, 0.0, 0.0, 0.0, 0.0, 0.0, 0.0, 0.0, 0.0, 0.0, 0.0, 0.0, 0.0, 0.0, 0.0, 0.0, 0.0, 0.0, 0.0, 0.0, 0.0)"
1676469336.4419265,6540,1676469336,403420664,map,base_link,-1.0982524156570437,-0.8913160562515257,0.5865404605865477,-0.07190149488511442,-0.03901629660448126,-0.003970263377667588,0.996640463612334,"(0.0005628568469546735, 3.0722004938102293e-23, 7.759094723087691e-21, 0.0, 0.0, 0.0, 3.0722004938102293e-23, 0.0005629952065646648, -4.493222897685265e-36, 0.0, 0.0, 0.0, 7.759094723087694e-21, -4.4932228976852676e-36, 0.0004994990304112434, 0.0, 0.0, 0.0, 0.0, 0.0, 0.0, 0.0, 0.0, 0.0, 0.0, 0.0, 0.0, 0.0, 0.0, 0.0, 0.0, 0.0, 0.0, 0.0, 0.0, 0.0)",0.6008009910583496,-0.8913666605949401,0.5138180851936341,-1.0304919481277466,-0.802025318145752,-0.05671112984418859,"(0.001974706305190921, 0.0, 0.0, 0.0, 0.0, 0.0, 0.0, 0.001980456756427884, -8.131596907942532e-20, 0.0, 0.0, 0.0, 0.0, -8.131596907942533e-20, 0.0013164614792913198, 0.0, 0.0, 0.0, 0.0, 0.0, 0.0, 0.0, 0.0, 0.0, 0.0, 0.0, 0.0, 0.0, 0.0, 0.0, 0.0, 0.0, 0.0, 0.0, 0.0, 0.0)"
1676469336.486203,6541,1676469336,443385664,map,base_link,-1.0739159584045412,-0.9301561117172239,0.6243250966072081,-0.09106623779265735,-0.05274108822392859,-0.004985549708531551,0.9944347660467323,"(0.0005636789719574153, 2.2463123509643158e-23, 8.114936452217801e-21, 0.0, 0.0, 0.0, 2.2463123509643158e-23, 0.000563780136872083, -4.567917727515693e-36, 0.0, 0.0, 0.0, 8.114936452217798e-21, -4.567917727515694e-36, 0.0004974154871888459, 0.0, 0.0, 0.0, 0.0, 0.0, 0.0, 0.0, 0.0, 0.0, 0.0, 0.0, 0.0, 0.0, 0.0, 0.0, 0.0, 0.0, 0.0, 0.0, 0.0, 0.0)",0.5848006010055542,-0.8648505806922911,0.5016499757766725,-0.9261132478713989,-0.5746095180511475,-0.03611309081315987,"(0.001915143453516066, 0.0, 0.0, 0.0, 0.0, 0.0, 0.0, 0.0019211260369047523, -7.668789521434773e-20, 0.0, 0.0, 0.0, 0.0, -7.668789521434773e-20, 0.001294921850785613, 0.0, 0.0, 0.0, 0.0, 0.0, 0.0, 0.0, 0.0, 0.0, 0.0, 0.0, 0.0, 0.0, 0.0, 0.0, 0.0, 0.0, 0.0, 0.0, 0.0, 0.0)"
1676469336.4862459,6542,1676469336,473361200,map,base_link,-1.0567270517349245,-0.9580583572387693,0.6529653668403624,-0.10303927988594794,-0.05957197150480675,-0.005869744902759976,0.9928744704778566,"(0.0005480605759657919, 1.3894049351476637e-23, 7.891693331321296e-21, 0.0, 0.0, 0.0, 1.3894049351476637e-23, 0.0005481231492012739, -4.441585224271695e-36, 0.0, 0.0, 0.0, 7.8916933313213e-21, -4.4415852242716925e-36, 0.00048362000961788, 0.0, 0.0, 0.0, 0.0, 0.0, 0.0, 0.0, 0.0, 0.0, 0.0, 0.0, 0.0, 0.0, 0.0, 0.0, 0.0, 0.0, 0.0, 0.0, 0.0, 0.0)",0.5627540946006775,-0.8414798378944396,0.5112296342849733,-0.7327660918235779,-0.3876396119594574,-0.04051902145147319,"(0.0018436142709106207, 0.0, 0.0, 0.0, 0.0, 0.0, 0.0, 0.001849559834226966, -7.186642833035346e-20, 0.0, 0.0, 0.0, 0.0, -7.186642833035348e-20, 0.0012627259129658341, 0.0, 0.0, 0.0, 0.0, 0.0, 0.0, 0.0, 0.0, 0.0, 0.0, 0.0, 0.0, 0.0, 0.0, 0.0, 0.0, 0.0, 0.0, 0.0, 0.0, 0.0)"
1676469336.5300844,6543,1676469336,503336200,map,base_link,-1.0407106876373293,-0.9843804240226743,0.6816557645797728,-0.11282208985906916,-0.06435866691761394,-0.006719004437847484,0.9915059197667794,"(0.0005633701803162694, 6.514047323855093e-24, 8.493517721721814e-21, 0.0, 0.0, 0.0, 6.514047323855093e-24, 0.0005633995169773698, -4.641095069215869e-36, 0.0, 0.0, 0.0, 8.493517721721814e-21, -4.64109506921587e-36, 0.0004940153448842466, 0.0, 0.0, 0.0, 0.0, 0.0, 0.0, 0.0, 0.0, 0.0, 0.0, 0.0, 0.0, 0.0, 0.0, 0.0, 0.0, 0.0, 0.0, 0.0, 0.0, 0.0)",0.5320974588394165,-0.8054937124252318,0.5202054977416993,-0.5686684250831604,-0.26086345314979553,-0.0589516460895538,"(0.0018410470802336931, 0.0, 0.0, 0.0, 0.0, 0.0, 0.0, 0.0018467630725353956, -7.11653804188763e-20, 0.0, 0.0, 0.0, 0.0, -7.116538041887632e-20, 0.0012656536418944597, 0.0, 0.0, 0.0, 0.0, 0.0, 0.0, 0.0, 0.0, 0.0, 0.0, 0.0, 0.0, 0.0, 0.0, 0.0, 0.0, 0.0, 0.0, 0.0, 0.0, 0.0)"
1676469336.5452354,6544,1676469336,533310200,map,base_link,-1.0259690284729006,-1.0090790987014768,0.7099022269248961,-0.11947160938048927,-0.06715126480900588,-0.007463624605937618,0.9905359884656563,"(0.0005471037002280354, -2.274746684520826e-24, 8.185061915674943e-21, 0.0, 0.0, 0.0, -2.274746684520826e-24, 0.0005470934556797147, -4.494482642785432e-36, 0.0, 0.0, 0.0, 8.185061915674944e-21, -4.494482642785431e-36, 0.00048026759759522974, 0.0, 0.0, 0.0, 0.0, 0.0, 0.0, 0.0, 0.0, 0.0, 0.0, 0.0, 0.0, 0.0, 0.0, 0.0, 0.0, 0.0, 0.0, 0.0, 0.0, 0.0)",0.5031366348266602,-0.7580966353416442,0.5178669095039369,-0.3474433422088623,-0.1151648685336113,-0.05085220932960509,"(0.001785453176125884, 0.0, 0.0, 0.0, 0.0, 0.0, 0.0, 0.0017905503045767546, -6.787844044907984e-20, 0.0, 0.0, 0.0, 0.0, -6.787844044907985e-20, 0.001236280775628984, 0.0, 0.0, 0.0, 0.0, 0.0, 0.0, 0.0, 0.0, 0.0, 0.0, 0.0, 0.0, 0.0, 0.0, 0.0, 0.0, 0.0, 0.0, 0.0, 0.0, 0.0)"
1676469336.5859935,6545,1676469336,573280248,map,base_link,-1.008303761482239,-1.0392925739288328,0.7460338473320006,-0.12329911999977325,-0.06706924313774147,-0.008042088405689516,0.9900678854236465,"(0.0005459871026687324, -1.2860073585785352e-23, 8.333075651199649e-21, 0.0, 0.0, 0.0, -1.2860073585785352e-23, 0.0005459291860461235, -4.517816571084843e-36, 0.0, 0.0, 0.0, 8.333075651199649e-21, -4.51781657108484e-36, 0.00047794237616471946, 0.0, 0.0, 0.0, 0.0, 0.0, 0.0, 0.0, 0.0, 0.0, 0.0, 0.0, 0.0, 0.0, 0.0, 0.0, 0.0, 0.0, 0.0, 0.0, 0.0, 0.0)",0.4611073434352875,-0.6876813173294066,0.5059562921524049,-0.1195514053106308,0.08518695086240768,0.007847708649933328,"(0.0017649983055889606, 0.0, 0.0, 0.0, 0.0, 0.0, 0.0, 0.0017689267406240106, -6.696426815575344e-20, 0.0, 0.0, 0.0, 0.0, -6.696426815575343e-20, 0.0012221219949424267, 0.0, 0.0, 0.0, 0.0, 0.0, 0.0, 0.0, 0.0, 0.0, 0.0, 0.0, 0.0, 0.0, 0.0, 0.0, 0.0, 0.0, 0.0, 0.0, 0.0, 0.0)"
1676469336.630188,6546,1676469336,603253248,map,base_link,-0.9965596795082096,-1.0598028898239134,0.7713459134101867,-0.12336399370827454,-0.06490271551112507,-0.008321129328450388,0.9902018769110826,"(0.0005605309852398932, -1.9942807580770652e-23, 8.891295725466252e-21, 0.0, 0.0, 0.0, -1.9942807580770652e-23, 0.0005604411708191037, -4.704673096386936e-36, 0.0, 0.0, 0.0, 8.891295725466254e-21, -4.704673096386936e-36, 0.0004879280459135771, 0.0, 0.0, 0.0, 0.0, 0.0, 0.0, 0.0, 0.0, 0.0, 0.0, 0.0, 0.0, 0.0, 0.0, 0.0, 0.0, 0.0, 0.0, 0.0, 0.0, 0.0)",0.412757933139801,-0.6292932629585265,0.4846180379390717,0.042954374104738235,0.16471678018569946,-0.012926485389471075,"(0.001786031760275364, 0.0, 0.0, 0.0, 0.0, 0.0, 0.0, 0.0017889111768454313, -6.852943285820419e-20, 0.0, 0.0, 0.0, 0.0, -6.852943285820419e-20, 0.0012293258914723992, 0.0, 0.0, 0.0, 0.0, 0.0, 0.0, 0.0, 0.0, 0.0, 0.0, 0.0, 0.0, 0.0, 0.0, 0.0, 0.0, 0.0, 0.0, 0.0, 0.0, 0.0)"
1676469336.6748974,6547,1676469336,633228248,map,base_link,-0.9862710237503055,-1.0782859325408933,0.7946841716766356,-0.12293691765938301,-0.06263041322495551,-0.008528838858899556,0.990399540723042,"(0.0005440731765702367, -2.4763719588306266e-23, 8.53170446710834e-21, 0.0, 0.0, 0.0, -2.4763719588306266e-23, 0.0005439616506919265, -4.5469713225359534e-36, 0.0, 0.0, 0.0, 8.531704467108341e-21, -4.54697132253595e-36, 0.00047440652269870043, 0.0, 0.0, 0.0, 0.0, 0.0, 0.0, 0.0, 0.0, 0.0, 0.0, 0.0, 0.0, 0.0, 0.0, 0.0, 0.0, 0.0, 0.0, 0.0, 0.0, 0.0)",0.3711174428462982,-0.5755774378776549,0.45753476023674017,0.02908479981124401,0.18059448897838593,0.0151802599430084,"(0.00175195443443954, 0.0, 0.0, 0.0, 0.0, 0.0, 0.0, 0.001753233838826418, -6.698766350732306e-20, 0.0, 0.0, 0.0, 0.0, -6.698766350732306e-20, 0.001206238055601716, 0.0, 0.0, 0.0, 0.0, 0.0, 0.0, 0.0, 0.0, 0.0, 0.0, 0.0, 0.0, 0.0, 0.0, 0.0, 0.0, 0.0, 0.0, 0.0, 0.0, 0.0)"
1676469336.7179434,6548,1676469336,673196296,map,base_link,-0.9746062159538272,-1.0997835397720335,0.8228176832199096,-0.12013239190172068,-0.05817609543077692,-0.008432397827922924,0.9910160061925629,"(0.0005427716532722116, -2.7826872794166697e-23, 8.658600369292077e-21, 0.0, 0.0, 0.0, -2.7826872794166697e-23, 0.0005426463321782649, -4.565230486974976e-36, 0.0, 0.0, 0.0, 8.658600369292079e-21, -4.565230486974976e-36, 0.0004720688157249242, 0.0, 0.0, 0.0, 0.0, 0.0, 0.0, 0.0, 0.0, 0.0, 0.0, 0.0, 0.0, 0.0, 0.0, 0.0, 0.0, 0.0, 0.0, 0.0, 0.0, 0.0)",0.32187771797180176,-0.4919515252113342,0.4323562681674958,0.24356137216091156,0.2581188976764679,0.07901655882596967,"(0.001747892121784389, 0.0, 0.0, 0.0, 0.0, 0.0, 0.0, 0.0017469351878389716, -6.70841675504522e-20, 0.0, 0.0, 0.0, 0.0, -6.708416755045222e-20, 0.0011991513893008232, 0.0, 0.0, 0.0, 0.0, 0.0, 0.0, 0.0, 0.0, 0.0, 0.0, 0.0, 0.0, 0.0, 0.0, 0.0, 0.0, 0.0, 0.0, 0.0, 0.0, 0.0)"
1676469336.71798,6549,1676469336,703169296,map,base_link,-0.9673936367034915,-1.113475203514099,0.8419063091278075,-0.11578747923795275,-0.053859328688907165,-0.008389753571454663,0.9917772160855284,"(0.0005570916691794991, -2.71677132435385e-23, 9.219090833404794e-21, 0.0, 0.0, 0.0, -2.71677132435385e-23, 0.000556969316676259, -4.7514412396469134e-36, 0.0, 0.0, 0.0, 9.21909083340479e-21, -4.751441239646916e-36, 0.0004818120796699077, 0.0, 0.0, 0.0, 0.0, 0.0, 0.0, 0.0, 0.0, 0.0, 0.0, 0.0, 0.0, 0.0, 0.0, 0.0, 0.0, 0.0, 0.0, 0.0, 0.0, 0.0)",0.28544557094573975,-0.4325276613235473,0.4187005162239075,0.2793481647968292,0.29349756240844727,0.04398209974169728,"(0.0017730578547343612, 0.0, 0.0, 0.0, 0.0, 0.0, 0.0, 0.0017702908953651786, -6.851824129758129e-20, 0.0, 0.0, 0.0, 0.0, -6.851824129758129e-20, 0.0012107969960197806, 0.0, 0.0, 0.0, 0.0, 0.0, 0.0, 0.0, 0.0, 0.0, 0.0, 0.0, 0.0, 0.0, 0.0, 0.0, 0.0, 0.0, 0.0, 0.0, 0.0, 0.0)"
1676469336.7620444,6550,1676469336,743135296,map,base_link,-0.9599425792694095,-1.128231644630432,0.8650041818618773,-0.11063307285199038,-0.048174992452712444,-0.008140509807480928,0.9926597016358738,"(0.0005556889227591455, -2.0808762284537102e-23, 9.332214700478044e-21, 0.0, 0.0, 0.0, -2.0808762284537102e-23, 0.0005555952084250748, -4.7665396515446836e-36, 0.0, 0.0, 0.0, 9.332214700478044e-21, -4.766539651544684e-36, 0.00047948560677468777, 0.0, 0.0, 0.0, 0.0, 0.0, 0.0, 0.0, 0.0, 0.0, 0.0, 0.0, 0.0, 0.0, 0.0, 0.0, 0.0, 0.0, 0.0, 0.0, 0.0, 0.0)",0.2349371612071991,-0.35371181368827814,0.4138032495975495,0.2688249349594116,0.27078431844711304,0.053054861724376644,"(0.0017668957589194179, 0.0, 0.0, 0.0, 0.0, 0.0, 0.0, 0.0017620234284549952, -6.781340108658094e-20, 0.0, 0.0, 0.0, 0.0, -6.781340108658094e-20, 0.001208284986205399, 0.0, 0.0, 0.0, 0.0, 0.0, 0.0, 0.0, 0.0, 0.0, 0.0, 0.0, 0.0, 0.0, 0.0, 0.0, 0.0, 0.0, 0.0, 0.0, 0.0, 0.0)"
1676469336.7788966,6551,1676469336,773112344,map,base_link,-0.9558575153350833,-1.1367104053497312,0.880863070487976,-0.10480246721052472,-0.043351229130797864,-0.007757978659999665,0.9935174562987172,"(0.000539448345080018, -1.2795450100429647e-23, 8.928174412652588e-21, 0.0, 0.0, 0.0, -1.2795450100429647e-23, 0.0005393907194957137, -4.601310800469132e-36, 0.0, 0.0, 0.0, 8.928174412652582e-21, -4.6013108004691326e-36, 0.0004665442684199661, 0.0, 0.0, 0.0, 0.0, 0.0, 0.0, 0.0, 0.0, 0.0, 0.0, 0.0, 0.0, 0.0, 0.0, 0.0, 0.0, 0.0, 0.0, 0.0, 0.0, 0.0)",0.2027231901884079,-0.30631464719772333,0.41987878084182745,0.4665958881378174,0.33770453929901123,0.055525388568639714,"(0.001733484328724444, 0.0, 0.0, 0.0, 0.0, 0.0, 0.0, 0.0017272474942728877, -6.53907204754093e-20, 0.0, 0.0, 0.0, 0.0, -6.539072047540931e-20, 0.0011932917404919863, 0.0, 0.0, 0.0, 0.0, 0.0, 0.0, 0.0, 0.0, 0.0, 0.0, 0.0, 0.0, 0.0, 0.0, 0.0, 0.0, 0.0, 0.0, 0.0, 0.0, 0.0)"
1676469336.821901,6552,1676469336,803086344,map,base_link,-0.9529548883438114,-1.1430617570877073,0.8957417011260985,-0.09803016618579821,-0.03808841252799764,-0.007392808225780959,0.9944268217520081,"(0.0005535080563277006, -9.17653492051015e-25, 9.463658510736557e-21, 0.0, 0.0, 0.0, -9.17653492051015e-25, 0.0005535039235837758, -4.781319314871265e-36, 0.0, 0.0, 0.0, 9.463658510736562e-21, -4.781319314871265e-36, 0.000476231420179829, 0.0, 0.0, 0.0, 0.0, 0.0, 0.0, 0.0, 0.0, 0.0, 0.0, 0.0, 0.0, 0.0, 0.0, 0.0, 0.0, 0.0, 0.0, 0.0, 0.0, 0.0)",0.17102409899234772,-0.24651855230331415,0.4243732690811158,0.47308722138404846,0.36989542841911316,0.034305308014154386,"(0.0017563631990924478, 0.0, 0.0, 0.0, 0.0, 0.0, 0.0, 0.0017483329866081476, -6.603033598596413e-20, 0.0, 0.0, 0.0, 0.0, -6.603033598596415e-20, 0.0012091543758288026, 0.0, 0.0, 0.0, 0.0, 0.0, 0.0, 0.0, 0.0, 0.0, 0.0, 0.0, 0.0, 0.0, 0.0, 0.0, 0.0, 0.0, 0.0, 0.0, 0.0, 0.0)"
1676469336.8660207,6553,1676469336,833060344,map,base_link,-0.9512438178062442,-1.1471265554428098,0.909644842147827,-0.09124546320327113,-0.03249855739689954,-0.006949406297797559,0.9952737290373077,"(0.0005373490275815129, 1.1877796608378632e-23, 9.030758966107413e-21, 0.0, 0.0, 0.0, 1.1877796608378632e-23, 0.0005374025204218924, -4.610853958965966e-36, 0.0, 0.0, 0.0, 9.030758966107415e-21, -4.610853958965967e-36, 0.0004636072844732553, 0.0, 0.0, 0.0, 0.0, 0.0, 0.0, 0.0, 0.0, 0.0, 0.0, 0.0, 0.0, 0.0, 0.0, 0.0, 0.0, 0.0, 0.0, 0.0, 0.0, 0.0)",0.14525006711483002,-0.19480636715888971,0.4285406768321991,0.4975874423980713,0.3833855092525482,0.03517274186015124,"(0.0017246002098545432, 0.0, 0.0, 0.0, 0.0, 0.0, 0.0, 0.0017154045635834336, -6.34882549668731e-20, 0.0, 0.0, 0.0, 0.0, -6.348825496687311e-20, 0.0011969836195930839, 0.0, 0.0, 0.0, 0.0, 0.0, 0.0, 0.0, 0.0, 0.0, 0.0, 0.0, 0.0, 0.0, 0.0, 0.0, 0.0, 0.0, 0.0, 0.0, 0.0, 0.0)"
1676469336.9100254,6554,1676469336,873029392,map,base_link,-0.9504836797714237,-1.1495121717453,0.9269490242004393,-0.0802090955027583,-0.024034836392500595,-0.0063163960890305895,0.9964682584889136,"(0.0005359587376005948, 3.384978162931843e-23, 9.074053197599865e-21, 0.0, 0.0, 0.0, 3.384978162931843e-23, 0.0005361111834645271, -4.61235282657201e-36, 0.0, 0.0, 0.0, 9.07405319759987e-21, -4.61235282657201e-36, 0.00046186347026377916, 0.0, 0.0, 0.0, 0.0, 0.0, 0.0, 0.0, 0.0, 0.0, 0.0, 0.0, 0.0, 0.0, 0.0, 0.0, 0.0, 0.0, 0.0, 0.0, 0.0, 0.0)",0.11089237034320831,-0.13326077163219446,0.4355620741844177,0.6133503317832947,0.4790396988391876,0.048438757658004705,"(0.0017237886786460876, 0.0, 0.0, 0.0, 0.0, 0.0, 0.0, 0.0017127660103142262, -6.25509582005144e-20, 0.0, 0.0, 0.0, 0.0, -6.25509582005144e-20, 0.0012019986752420664, 0.0, 0.0, 0.0, 0.0, 0.0, 0.0, 0.0, 0.0, 0.0, 0.0, 0.0, 0.0, 0.0, 0.0, 0.0, 0.0, 0.0, 0.0, 0.0, 0.0, 0.0)"
1676469336.9539924,6555,1676469336,903002392,map,base_link,-0.950906336307526,-1.149155020713806,0.9390193223953246,-0.07066151312229117,-0.01698206919782935,-0.005962202482464907,0.9973379754718219,"(0.0005498685641214252, 5.675234483938038e-23, 9.57629408360431e-21, 0.0, 0.0, 0.0, 5.675234483938038e-23, 0.0005501241539604962, -4.7851060513354405e-36, 0.0, 0.0, 0.0, 9.57629408360431e-21, -4.7851060513354405e-36, 0.00047167218872345984, 0.0, 0.0, 0.0, 0.0, 0.0, 0.0, 0.0, 0.0, 0.0, 0.0, 0.0, 0.0, 0.0, 0.0, 0.0, 0.0, 0.0, 0.0, 0.0, 0.0, 0.0)",0.09209797531366348,-0.08719903230667109,0.43534043431282043,0.665034830570221,0.4583815932273865,0.05393975973129267,"(0.001752351177856326, 0.0, 0.0, 0.0, 0.0, 0.0, 0.0, 0.001739871222525835, -6.350269706994445e-20, 0.0, 0.0, 0.0, 0.0, -6.350269706994444e-20, 0.0012213323498144746, 0.0, 0.0, 0.0, 0.0, 0.0, 0.0, 0.0, 0.0, 0.0, 0.0, 0.0, 0.0, 0.0, 0.0, 0.0, 0.0, 0.0, 0.0, 0.0, 0.0, 0.0)"
1676469336.9540265,6556,1676469336,932977392,map,base_link,-0.9521854519844059,-1.146936774253845,0.9501926898956298,-0.06189086937339336,-0.011298366340402018,-0.005508648354950843,0.9980037751638811,"(0.0005340305506251752, 7.427823406784766e-23, 9.112475179610957e-21, 0.0, 0.0, 0.0, 7.427823406784766e-23, 0.0005343650700524449, -4.610253546116422e-36, 0.0, 0.0, 0.0, 9.112475179610953e-21, -4.610253546116422e-36, 0.00045962154399603605, 0.0, 0.0, 0.0, 0.0, 0.0, 0.0, 0.0, 0.0, 0.0, 0.0, 0.0, 0.0, 0.0, 0.0, 0.0, 0.0, 0.0, 0.0, 0.0, 0.0, 0.0)",0.07492139935493469,-0.04882937297224993,0.42963001132011414,0.593235433101654,0.3495893180370331,0.05443290993571277,"(0.0017282437765970826, 0.0, 0.0, 0.0, 0.0, 0.0, 0.0, 0.001714803627692163, -6.147976189610446e-20, 0.0, 0.0, 0.0, 0.0, -6.147976189610446e-20, 0.0012127832742407918, 0.0, 0.0, 0.0, 0.0, 0.0, 0.0, 0.0, 0.0, 0.0, 0.0, 0.0, 0.0, 0.0, 0.0, 0.0, 0.0, 0.0, 0.0, 0.0, 0.0, 0.0)"
