Time,header.seq,header.stamp.secs,header.stamp.nsecs,header.frame_id,pose.position.x,pose.position.y,pose.position.z,pose.orientation.x,pose.orientation.y,pose.orientation.z,pose.orientation.w
1676469335.3280568,694,1676469335,326084136,world,-1.3298202753067017,-0.5838931202888489,0.1246131956577301,-0.021997669711709023,0.04675745218992233,-0.001842952799052,-0.9986624121665955
1676469335.3315074,695,1676469335,330108642,world,-1.329828143119812,-0.5838969945907593,0.124630406498909,-0.021934421733021736,0.04686497896909714,-0.0019189529120922089,-0.9986585378646851
1676469335.337994,696,1676469335,337089300,world,-1.3298368453979492,-0.5838931202888489,0.12463288009166718,-0.021704042330384254,0.04696139320731163,-0.0017469923477619886,-0.9986593723297119
1676469335.339563,697,1676469335,338581323,world,-1.3298416137695312,-0.5839205980300903,0.1246621161699295,-0.022141147404909134,0.0470011830329895,-0.0017932611517608166,-0.9986478686332703
1676469335.3467693,699,1676469335,346039295,world,-1.3298646211624146,-0.5839492678642273,0.12465878576040268,-0.02187357097864151,0.04718513414263725,-0.001633472740650177,-0.9986453056335449
1676469335.3475769,700,1676469335,346983432,world,-1.3298728466033936,-0.5839720964431763,0.12464912235736847,-0.022157510742545128,0.04726216569542885,-0.0016446878435090184,-0.998635470867157
1676469335.357125,701,1676469335,355623483,world,-1.329905390739441,-0.5839757919311523,0.12465734779834747,-0.022285331040620804,0.047137536108493805,-0.0017383821541443467,-0.9986383318901062
1676469335.3571627,702,1676469335,356545448,world,-1.3299243450164795,-0.5840010046958923,0.12465249747037888,-0.022370759397745132,0.04726419970393181,-0.0016791346715763211,-0.9986304640769958
1676469335.358143,703,1676469335,357592344,world,-1.3299471139907837,-0.5840206742286682,0.12464635819196701,-0.02231699600815773,0.047538015991449356,-0.0019045784138143063,-0.9986183643341064
1676469335.3674128,704,1676469335,366309881,world,-1.3299543857574463,-0.5840426087379456,0.12463635951280594,-0.022262705489993095,0.047588050365448,-0.001927694771438837,-0.9986170530319214
1676469335.3682325,705,1676469335,367758035,world,-1.3300180435180664,-0.5840248465538025,0.12476245313882828,-0.019835183396935463,0.04753502458333969,-0.001197109930217266,-0.9986719489097595
1676469335.3756986,706,1676469335,374493598,world,-1.3300338983535767,-0.5840396881103516,0.12477917224168777,-0.01963641308248043,0.04776846989989281,-0.0012049522483721375,-0.9986647367477417
1676469335.3763847,707,1676469335,375788688,world,-1.3300458192825317,-0.5840631127357483,0.1247597187757492,-0.019873177632689476,0.047623150050640106,-0.0008431511814706028,-0.9986673593521118
1676469335.3860462,708,1676469335,384734392,world,-1.3300561904907227,-0.5841007232666016,0.12479345500469208,-0.02001897618174553,0.04787002503871918,-0.0008167527266778052,-0.9986526966094971
1676469335.3868406,710,1676469335,386207580,world,-1.3300379514694214,-0.5841676592826843,0.1248202696442604,-0.01982950232923031,0.04810221120715141,-0.0006190428975969553,-0.9986453652381897
1676469335.397538,711,1676469335,396846294,world,-1.3300203084945679,-0.5841848850250244,0.12482953071594238,-0.01995333656668663,0.047842223197221756,-0.0006138219614513218,-0.9986554980278015
1676469335.398586,712,1676469335,397829532,world,-1.3299789428710938,-0.5842487812042236,0.12483425438404083,-0.02060152217745781,0.047752391546964645,-0.0006449083448387682,-0.9986464977264404
1676469335.4057913,713,1676469335,404335260,world,-1.3299367427825928,-0.5842943787574768,0.12487208098173141,-0.02037462405860424,0.04787817969918251,-0.0009255953482352197,-0.9986449480056763
1676469335.4068043,714,1676469335,406231403,world,-1.3298622369766235,-0.5843344330787659,0.1248759776353836,-0.020299376919865608,0.047439150512218475,-0.0008247755467891693,-0.9986675977706909
1676469335.4084098,715,1676469335,407447099,world,-1.3297584056854248,-0.5843878984451294,0.1249317154288292,-0.019702864810824394,0.047521449625492096,-0.0011133773950859904,-0.9986752867698669
1676469335.4151955,716,1676469335,414439201,world,-1.3296270370483398,-0.5844586491584778,0.12499609589576721,-0.019668670371174812,0.047043345868587494,-0.0010232307249680161,-0.9986987113952637
1676469335.4177892,717,1676469335,416184663,world,-1.3294717073440552,-0.5845196843147278,0.12505854666233063,-0.019886281341314316,0.04632267728447914,-0.001335800625383854,-0.9987276792526245
1676469335.4256115,718,1676469335,424231529,world,-1.3292641639709473,-0.584595263004303,0.12511464953422546,-0.019512927159667015,0.04587393254041672,-0.0016746652545407414,-0.9987553358078003
1676469335.4257736,719,1676469335,425133466,world,-1.328980565071106,-0.5846933126449585,0.1251528412103653,-0.0201663039624691,0.04458194971084595,-0.00209570350125432,-0.9987999796867371
1676469335.4378028,720,1676469335,435752630,world,-1.3286771774291992,-0.5847795605659485,0.12517869472503662,-0.021330708637833595,0.04284590482711792,-0.002280410612002015,-0.9988514184951782
1676469335.4386947,721,1676469335,438090562,world,-1.327895998954773,-0.584981381893158,0.12525488436222076,-0.02442937158048153,0.03805772215127945,-0.0023639986757189035,-0.998974084854126
1676469335.445349,722,1676469335,444357872,world,-1.3273954391479492,-0.5850442051887512,0.12531600892543793,-0.024868866428732872,0.03528834134340286,-0.00239161541685462,-0.9990648031234741
1676469335.4463952,723,1676469335,445805072,world,-1.3268969058990479,-0.5851311087608337,0.12536239624023438,-0.024958014488220215,0.03322619944810867,-0.0025109509006142616,-0.9991330504417419
1676469335.456728,724,1676469335,455292224,world,-1.3263241052627563,-0.585220217704773,0.12538841366767883,-0.025284452363848686,0.030503353103995323,-0.0026785624213516712,-0.9992112517356873
1676469335.4578598,725,1676469335,456254959,world,-1.325751543045044,-0.585285484790802,0.12545457482337952,-0.024716775864362717,0.028486335650086403,-0.002996585564687848,-0.9992841482162476
1676469335.4596589,726,1676469335,457080841,world,-1.325162410736084,-0.5853351950645447,0.12557178735733032,-0.02361326664686203,0.02646416425704956,-0.003399280598387122,-0.9993650317192078
1676469335.4677966,728,1676469335,466984748,world,-1.3238952159881592,-0.5854225754737854,0.12568894028663635,-0.023773597553372383,0.021384192630648613,-0.0035605982411652803,-0.9994823336601257
1676469335.4757423,729,1676469335,474793910,world,-1.32318115234375,-0.5855078101158142,0.12563705444335938,-0.026324277743697166,0.018405618146061897,-0.00511917844414711,-0.9994709491729736
1676469335.4782598,730,1676469335,476387500,world,-1.3225469589233398,-0.5855531096458435,0.1256715953350067,-0.028226815164089203,0.015335039235651493,-0.004968451336026192,-0.9994715452194214
1676469335.4866948,732,1676469335,485436201,world,-1.3211700916290283,-0.5855512022972107,0.12582330405712128,-0.02781403623521328,0.010729596950113773,-0.005482831038534641,-0.9995405077934265
1676469335.4876204,733,1676469335,486982107,world,-1.3204212188720703,-0.5855845212936401,0.12580953538417816,-0.029279762879014015,0.006620700936764479,-0.005189569666981697,-0.999535858631134
1676469335.4962726,734,1676469335,495304822,world,-1.31971275806427,-0.5856024026870728,0.12583710253238678,-0.02889307588338852,0.003072698600590229,-0.004877919796854258,-0.9995658993721008
1676469335.4972286,735,1676469335,496459722,world,-1.319015622138977,-0.5855767726898193,0.1258285641670227,-0.028724728152155876,6.049840885680169e-05,-0.0051559642888605595,-0.9995740652084351
1676469335.5058017,736,1676469335,505168914,world,-1.318320631980896,-0.5855704545974731,0.12588052451610565,-0.0281857680529356,-0.002251208992674947,-0.005717405118048191,-0.9995838403701782
1676469335.5067239,737,1676469335,506229400,world,-1.3175806999206543,-0.5855540633201599,0.12594687938690186,-0.027728674933314323,-0.0051762014627456665,-0.0061254543252289295,-0.9995833039283752
1676469335.5076869,738,1676469335,507045269,world,-1.316867470741272,-0.5854852795600891,0.12600861489772797,-0.027725042775273323,-0.007894088514149189,-0.006409296300262213,-0.9995639324188232
1676469335.5163252,739,1676469335,515293836,world,-1.3161706924438477,-0.585428774356842,0.12604887783527374,-0.027348816394805908,-0.010161406360566616,-0.007057999726384878,-0.999549388885498
1676469335.5169513,740,1676469335,516280174,world,-1.3154808282852173,-0.585364043712616,0.12609031796455383,-0.026101848110556602,-0.01248413510620594,-0.007672528736293316,-0.9995519518852234
1676469335.5274055,742,1676469335,525512218,world,-1.3142411708831787,-0.5852892994880676,0.1261029988527298,-0.025210395455360413,-0.018084976822137833,-0.008024358190596104,-0.9994864463806152
1676469335.536927,743,1676469335,534461498,world,-1.3136391639709473,-0.585266649723053,0.12604129314422607,-0.02651241235435009,-0.021710148081183434,-0.007440350949764252,-0.9993851184844971
1676469335.5372941,744,1676469335,536142349,world,-1.3130395412445068,-0.5852487683296204,0.1260344684123993,-0.02601325884461403,-0.024151017889380455,-0.007028495892882347,-0.9993451833724976
1676469335.538443,745,1676469335,537811040,world,-1.3124464750289917,-0.5852152109146118,0.1260523945093155,-0.025394368916749954,-0.026191214099526405,-0.007333134766668081,-0.9993074536323547
1676469335.545602,746,1676469335,544776678,world,-1.311894416809082,-0.5851684808731079,0.126068577170372,-0.025104273110628128,-0.028296969830989838,-0.00780017813667655,-0.9992538690567017
1676469335.5466266,747,1676469335,546082258,world,-1.3113882541656494,-0.585150957107544,0.12610171735286713,-0.02444327436387539,-0.029671913012862206,-0.008469000458717346,-0.9992249608039856
1676469335.5557568,748,1676469335,554759025,world,-1.310908555984497,-0.5851061344146729,0.12615524232387543,-0.023590628057718277,-0.030998723581433296,-0.009073648601770401,-0.9991998076438904
1676469335.5566797,749,1676469335,555952787,world,-1.3104708194732666,-0.5850797891616821,0.12619350850582123,-0.023116204887628555,-0.03252091631293297,-0.009574399329721928,-0.9991578459739685
1676469335.5657883,750,1676469335,564160346,world,-1.3100578784942627,-0.5850675702095032,0.12620949745178223,-0.023270664736628532,-0.03420855477452278,-0.009534698911011219,-0.9990982413291931
1676469335.56653,751,1676469335,565083980,world,-1.309643268585205,-0.5850741863250732,0.12622688710689545,-0.023309145122766495,-0.03563455864787102,-0.00939712394028902,-0.9990488886833191
1676469335.5668821,752,1676469335,566070556,world,-1.3093090057373047,-0.5850659608840942,0.12625940144062042,-0.02283407188951969,-0.036796003580093384,-0.009566172957420349,-0.9990161061286926
1676469335.579256,753,1676469335,575760841,world,-1.30902099609375,-0.5850762724876404,0.12627184391021729,-0.022346489131450653,-0.037884391844272614,-0.009633752517402172,-0.9989858269691467
1676469335.5793092,754,1676469335,578249454,world,-1.3087416887283325,-0.5851039886474609,0.126295804977417,-0.02216017059981823,-0.03906811773777008,-0.010092250071465969,-0.9989398717880249
1676469335.5850546,755,1676469335,584290981,world,-1.3085124492645264,-0.5851365327835083,0.126301109790802,-0.022205928340554237,-0.040086813271045685,-0.01023095566779375,-0.9988970160484314
1676469335.586633,756,1676469335,585832118,world,-1.3083218336105347,-0.5851587653160095,0.12629926204681396,-0.022430580109357834,-0.04119424894452095,-0.010249635204672813,-0.9988468289375305
1676469335.587464,757,1676469335,586963415,world,-1.3081361055374146,-0.5851996541023254,0.1263095736503601,-0.022564643993973732,-0.041933611035346985,-0.010243862867355347,-0.9988130331039429
1676469335.5969722,758,1676469335,595824480,world,-1.3079564571380615,-0.5852352976799011,0.12633149325847626,-0.022726336494088173,-0.04258529841899872,-0.01042844820767641,-0.9987799525260925
1676469335.5985997,759,1676469335,597415924,world,-1.3078181743621826,-0.5852705836296082,0.1263418048620224,-0.0224583949893713,-0.04311614856123924,-0.010450008325278759,-0.9987629652023315
1676469335.6052382,760,1676469335,604285240,world,-1.307685136795044,-0.5853331685066223,0.12634050846099854,-0.022885534912347794,-0.04369627311825752,-0.010401994921267033,-0.9987285733222961
1676469335.6062953,761,1676469335,605619668,world,-1.3075745105743408,-0.5853864550590515,0.12635326385498047,-0.023132428526878357,-0.04419461265206337,-0.010175107978284359,-0.9987033009529114
1676469335.6174436,762,1676469335,615424871,world,-1.3074843883514404,-0.5854335427284241,0.12636074423789978,-0.02366369031369686,-0.04469260200858116,-0.010040933266282082,-0.9986700415611267
1676469335.6185534,763,1676469335,617031574,world,-1.3074218034744263,-0.5854974985122681,0.12636013329029083,-0.024329058825969696,-0.04511779174208641,-0.009722950868308544,-0.9986380338668823
1676469335.6185968,764,1676469335,617953062,world,-1.3073596954345703,-0.5855503678321838,0.12638385593891144,-0.02459310181438923,-0.04518359154462814,-0.009675303474068642,-0.9986290335655212
1676469335.6258788,765,1676469335,625327348,world,-1.307318925857544,-0.5856167674064636,0.126370370388031,-0.024968793615698814,-0.04547649249434471,-0.009401921182870865,-0.9986090660095215
1676469335.6277554,766,1676469335,626979112,world,-1.3073136806488037,-0.5856549739837646,0.12639649212360382,-0.024974746629595757,-0.045325830578804016,-0.009197327308356762,-0.9986176490783691
1676469335.635933,767,1676469335,634938955,world,-1.307313323020935,-0.5857000350952148,0.12640120089054108,-0.025375910103321075,-0.04537414014339447,-0.009006863459944725,-0.9986071586608887
1676469335.6370203,768,1676469335,636169433,world,-1.3073580265045166,-0.5857779383659363,0.12642547488212585,-0.02559504471719265,-0.045128121972084045,-0.00880203302949667,-0.998614490032196
1676469335.645882,769,1676469335,644216537,world,-1.3074064254760742,-0.585804283618927,0.12642642855644226,-0.02556574158370495,-0.044949010014534,-0.008762543089687824,-0.9986236691474915
1676469335.6466935,770,1676469335,646043539,world,-1.3074405193328857,-0.5858367085456848,0.12642918527126312,-0.02621934562921524,-0.04486577957868576,-0.008419880643486977,-0.9986134171485901
1676469335.656485,771,1676469335,654523849,world,-1.3074886798858643,-0.5858489274978638,0.12645095586776733,-0.025961970910429955,-0.04438621178269386,-0.008481106720864773,-0.9986411333084106
1676469335.6570873,772,1676469335,655885457,world,-1.3075648546218872,-0.5858632922172546,0.1264503300189972,-0.02583898976445198,-0.04400530084967613,-0.008396187797188759,-0.9986618757247925
1676469335.658031,773,1676469335,657502889,world,-1.3076419830322266,-0.5858815312385559,0.12645922601222992,-0.025994913652539253,-0.04358145594596863,-0.008525758050382137,-0.9986752867698669
1676469335.6671252,774,1676469335,665359497,world,-1.3077012300491333,-0.5858819484710693,0.12646417319774628,-0.025902438908815384,-0.04315279424190521,-0.008312557823956013,-0.9986980557441711
1676469335.6681006,775,1676469335,667550325,world,-1.307790994644165,-0.5858904123306274,0.1264471858739853,-0.025986164808273315,-0.04299766197800636,-0.00814192183315754,-0.9987040162086487
1676469335.6760118,776,1676469335,675032615,world,-1.3078608512878418,-0.5859140157699585,0.12645207345485687,-0.026072463020682335,-0.0426316075026989,-0.008122085593640804,-0.9987176656723022
1676469335.677114,777,1676469335,676427841,world,-1.3079415559768677,-0.585919976234436,0.1264735758304596,-0.02579251490533352,-0.04216228425502777,-0.00829802080988884,-0.9987434148788452
1676469335.6852093,778,1676469335,684634447,world,-1.3080177307128906,-0.5859053134918213,0.1264583170413971,-0.025691017508506775,-0.04198027029633522,-0.00812553334981203,-0.9987550973892212
1676469335.6867013,779,1676469335,685920953,world,-1.3080933094024658,-0.585929274559021,0.1264457404613495,-0.026148207485675812,-0.041911981999874115,-0.007997400127351284,-0.9987471699714661
1676469335.6875348,780,1676469335,686773300,world,-1.3081542253494263,-0.5859248638153076,0.12645940482616425,-0.0261587742716074,-0.04138375446200371,-0.008146691136062145,-0.9987676739692688
1676469335.6964567,781,1676469335,695855855,world,-1.3082321882247925,-0.5859264731407166,0.12647782266139984,-0.026108400896191597,-0.04112132638692856,-0.008185467682778835,-0.9987795352935791
1676469335.6976192,782,1676469335,697098255,world,-1.308272123336792,-0.5859179496765137,0.1264626383781433,-0.026091519743204117,-0.04068310558795929,-0.008124211803078651,-0.9987983703613281
1676469335.7061272,783,1676469335,704331636,world,-1.308326005935669,-0.5859220623970032,0.12647518515586853,-0.026067495346069336,-0.040382035076618195,-0.008071521297097206,-0.9988116025924683
1676469335.7061622,784,1676469335,705453634,world,-1.3083677291870117,-0.5859155058860779,0.12648290395736694,-0.02597985416650772,-0.04008530452847481,-0.008213690482079983,-0.9988247752189636
1676469335.717705,785,1676469335,715441465,world,-1.3084203004837036,-0.5859233140945435,0.1264777034521103,-0.025947261601686478,-0.039918478578329086,-0.008018113672733307,-0.9988337755203247
1676469335.7177968,786,1676469335,716851472,world,-1.308470606803894,-0.5859178900718689,0.12646903097629547,-0.02626788802444935,-0.039924588054418564,-0.007976407185196877,-0.9988256096839905
1676469335.7252927,787,1676469335,724346160,world,-1.3085052967071533,-0.5859383940696716,0.12646490335464478,-0.02629711851477623,-0.03971542790532112,-0.007887822575867176,-0.9988338351249695
1676469335.7283778,788,1676469335,726553201,world,-1.3085285425186157,-0.5859593749046326,0.1264769285917282,-0.02593611180782318,-0.0394054539501667,-0.007850449532270432,-0.9988558888435364
1676469335.7358034,789,1676469335,734938621,world,-1.3085252046585083,-0.5859503149986267,0.12646879255771637,-0.026003830134868622,-0.039310529828071594,-0.00785805843770504,-0.9988577365875244
1676469335.7370439,790,1676469335,735903978,world,-1.3085298538208008,-0.5859833359718323,0.12646397948265076,-0.026384767144918442,-0.03958428278565407,-0.007779044099152088,-0.9988375902175903
1676469335.7375546,791,1676469335,737056732,world,-1.3085345029830933,-0.5860161185264587,0.12646785378456116,-0.026738803833723068,-0.03948798030614853,-0.007698604837059975,-0.9988325834274292
1676469335.746556,792,1676469335,745620965,world,-1.3085352182388306,-0.586031973361969,0.1264771670103073,-0.026721319183707237,-0.0396096371114254,-0.007669457700103521,-0.9988284707069397
1676469335.7476242,793,1676469335,747135639,world,-1.3084995746612549,-0.5860567092895508,0.12648272514343262,-0.026545953005552292,-0.039593178778886795,-0.007685035467147827,-0.9988337159156799
1676469335.756259,794,1676469335,755442857,world,-1.3084886074066162,-0.5860878825187683,0.1265174299478531,-0.026548022404313087,-0.039499033242464066,-0.007719479035586119,-0.9988370537757874
1676469335.757207,795,1676469335,756626605,world,-1.3084475994110107,-0.5861064195632935,0.12649692595005035,-0.026679644361138344,-0.03973211348056793,-0.00775163946673274,-0.9988241195678711
1676469335.7663934,796,1676469335,765689849,world,-1.3084063529968262,-0.5861514806747437,0.12650896608829498,-0.026897866278886795,-0.03990408778190613,-0.007727759890258312,-0.9988115429878235
1676469335.76739,797,1676469335,766758918,world,-1.3083696365356445,-0.5861887335777283,0.1265518069267273,-0.027152327820658684,-0.04004427045583725,-0.007677757181227207,-0.9987995028495789
1676469335.776791,798,1676469335,774865865,world,-1.3083491325378418,-0.5861946940422058,0.12655028700828552,-0.026991672813892365,-0.040057629346847534,-0.007798393256962299,-0.9988023638725281
1676469335.7782123,799,1676469335,777428150,world,-1.3082984685897827,-0.5862039923667908,0.12652643024921417,-0.026584146544337273,-0.040205568075180054,-0.007753079757094383,-0.9988076686859131
1676469335.785318,800,1676469335,784481048,world,-1.3082342147827148,-0.5862640738487244,0.12652157247066498,-0.027429772540926933,-0.040632035583257675,-0.007556515745818615,-0.9987691044807434
1676469335.7864993,801,1676469335,785792589,world,-1.3081729412078857,-0.5863410234451294,0.12655575573444366,-0.028357701376080513,-0.04068402573466301,-0.007714948151260614,-0.9987398386001587
1676469335.787797,802,1676469335,787164449,world,-1.3081485033035278,-0.5863072276115417,0.12655332684516907,-0.027491958811879158,-0.04091481864452362,-0.007614143192768097,-0.9987553954124451
1676469335.7973275,803,1676469335,795560359,world,-1.308066725730896,-0.5863196849822998,0.1265045702457428,-0.027811862528324127,-0.04113578423857689,-0.008072255179286003,-0.9987338781356812
1676469335.7983685,804,1676469335,797650337,world,-1.3080157041549683,-0.5863704681396484,0.12656252086162567,-0.02782600000500679,-0.04143209755420685,-0.007599934469908476,-0.9987249374389648
1676469335.8062193,805,1676469335,804365396,world,-1.3079673051834106,-0.5864598751068115,0.1265651285648346,-0.029366405680775642,-0.041908156126737595,-0.007479872554540634,-0.9986618161201477
1676469335.8063753,806,1676469335,805503606,world,-1.3079246282577515,-0.5864394307136536,0.12655071914196014,-0.028593525290489197,-0.041979677975177765,-0.007636113557964563,-0.9986801147460938
1676469335.8072348,807,1676469335,806420803,world,-1.3078566789627075,-0.5864632725715637,0.12651754915714264,-0.028704289346933365,-0.04234759882092476,-0.007622722536325455,-0.998661458492279
1676469335.8151038,808,1676469335,814249753,world,-1.3077943325042725,-0.5865415930747986,0.12653933465480804,-0.02950359880924225,-0.04256874695420265,-0.007608929183334112,-0.9986289143562317
1676469335.8164647,809,1676469335,815790414,world,-1.3077605962753296,-0.586578905582428,0.12657050788402557,-0.02982969768345356,-0.0428633876144886,-0.007373737171292305,-0.998608410358429
1676469335.8277912,811,1676469335,826304197,world,-1.3076651096343994,-0.5865800976753235,0.126503124833107,-0.029338601976633072,-0.043561603873968124,-0.007508669048547745,-0.9985917210578918
1676469335.8378246,812,1676469335,835446834,world,-1.3076024055480957,-0.5866355895996094,0.12654080986976624,-0.03001769445836544,-0.043822742998600006,-0.007518374361097813,-0.9985599517822266
1676469335.8382645,813,1676469335,837253093,world,-1.3075127601623535,-0.5866401791572571,0.12653905153274536,-0.029540803283452988,-0.04398364573717117,-0.007221876177936792,-0.9985693097114563
1676469335.845829,814,1676469335,845106840,world,-1.3074522018432617,-0.5866856575012207,0.1265210211277008,-0.030199233442544937,-0.04453545808792114,-0.007158514577895403,-0.9985256791114807
1676469335.84684,815,1676469335,846361875,world,-1.307415246963501,-0.5867144465446472,0.12656354904174805,-0.030049210414290428,-0.04466182366013527,-0.007263100706040859,-0.9985237121582031
1676469335.8575122,816,1676469335,855672836,world,-1.307386040687561,-0.58670973777771,0.12656916677951813,-0.03014335036277771,-0.04486819729208946,-0.0072068823501467705,-0.9985120296478271
1676469335.8575575,817,1676469335,856865167,world,-1.307339072227478,-0.5867220163345337,0.12653467059135437,-0.030050568282604218,-0.04493087902665138,-0.007169803138822317,-0.9985122680664062
1676469335.867203,818,1676469335,865393877,world,-1.3072773218154907,-0.5867917537689209,0.12653648853302002,-0.03043256141245365,-0.0452394038438797,-0.006950982380658388,-0.9984883666038513
1676469335.8678243,819,1676469335,866696119,world,-1.307260274887085,-0.5868211984634399,0.12658336758613586,-0.030462874099612236,-0.04551853984594345,-0.007083930540829897,-0.9984738230705261
1676469335.867863,820,1676469335,867307186,world,-1.3072259426116943,-0.586785614490509,0.1265493631362915,-0.03023124299943447,-0.04548738896846771,-0.007150747813284397,-0.998481810092926
1676469335.8776586,821,1676469335,875684499,world,-1.3071714639663696,-0.5868210196495056,0.12653864920139313,-0.03016717918217182,-0.045477401465177536,-0.007064018398523331,-0.9984848499298096
1676469335.8782465,822,1676469335,877404212,world,-1.3071396350860596,-0.5868943333625793,0.12657420337200165,-0.0301041379570961,-0.04584074392914772,-0.007146948482841253,-0.9984694719314575
1676469335.8863373,823,1676469335,884287595,world,-1.3071101903915405,-0.5869054794311523,0.1265854686498642,-0.030830595642328262,-0.045758381485939026,-0.006974044721573591,-0.9984523057937622
1676469335.8867252,824,1676469335,885608673,world,-1.307091236114502,-0.586894154548645,0.12655559182167053,-0.03032480925321579,-0.04593612253665924,-0.007004531566053629,-0.9984594583511353
1676469335.8873656,825,1676469335,886792421,world,-1.3070387840270996,-0.5869220495223999,0.12652355432510376,-0.030398622155189514,-0.04613887518644333,-0.007111455779522657,-0.9984471201896667
1676469335.895761,826,1676469335,895192384,world,-1.3070082664489746,-0.5869812965393066,0.1265769749879837,-0.03082779236137867,-0.046548403799533844,-0.007232035975903273,-0.9984140396118164
1676469335.897286,827,1676469335,896523952,world,-1.3069931268692017,-0.5869742631912231,0.12658783793449402,-0.031092466786503792,-0.04645616188645363,-0.007080883253365755,-0.9984112977981567
1676469335.906239,828,1676469335,904654026,world,-1.3069671392440796,-0.587003767490387,0.12658365070819855,-0.0303215142339468,-0.04639242962002754,-0.0069640823639929295,-0.9984387755393982
1676469335.9062777,829,1676469335,905564785,world,-1.306910514831543,-0.5870211720466614,0.12654592096805573,-0.030715713277459145,-0.046704716980457306,-0.0070467558689415455,-0.9984115958213806
1676469335.9154966,830,1676469335,914416790,world,-1.3068963289260864,-0.5870898962020874,0.12660670280456543,-0.031086087226867676,-0.046746134757995605,-0.007413070648908615,-0.9983954429626465
1676469335.9168406,831,1676469335,916264533,world,-1.3068768978118896,-0.5870798230171204,0.12659691274166107,-0.03088635765016079,-0.04663785547018051,-0.007475958205759525,-0.9984062910079956
1676469335.9181173,832,1676469335,917335033,world,-1.3068634271621704,-0.5870965719223022,0.1265925168991089,-0.029822152107954025,-0.046653490513563156,-0.007553929928690195,-0.9984373450279236
1676469335.9267128,833,1676469335,924971103,world,-1.3068196773529053,-0.5871520638465881,0.12659186124801636,-0.030456986278295517,-0.04681733623147011,-0.00788600742816925,-0.9984079599380493
1676469335.9284012,834,1676469335,927513360,world,-1.3068065643310547,-0.5871976613998413,0.12663884460926056,-0.030706224963068962,-0.046889953315258026,-0.007758657447993755,-0.9983978867530823
1676469335.9364374,835,1676469335,934531211,world,-1.3067922592163086,-0.5872111320495605,0.12662529945373535,-0.03027685359120369,-0.04692066088318825,-0.007631414104253054,-0.9984105229377747
1676469335.9384513,836,1676469335,936860322,world,-1.3067599534988403,-0.5872247219085693,0.12661053240299225,-0.030253132805228233,-0.04705693945288658,-0.007687765173614025,-0.9984044432640076
1676469335.9384878,837,1676469335,937809467,world,-1.3067355155944824,-0.587295651435852,0.1266234815120697,-0.030986731871962547,-0.047065865248441696,-0.007871869951486588,-0.9983800649642944
1676469335.9450786,838,1676469335,944482088,world,-1.3067246675491333,-0.5873377919197083,0.1266525387763977,-0.03129624202847481,-0.047203097492456436,-0.007822887971997261,-0.998364269733429
1676469335.9465957,839,1676469335,946032285,world,-1.306696891784668,-0.5873392224311829,0.12666450440883636,-0.029940729960799217,-0.04685458168387413,-0.008122186176478863,-0.9984199404716492
1676469335.9565213,840,1676469335,955080270,world,-1.306673288345337,-0.5873961448669434,0.12663209438323975,-0.0306555088609457,-0.047232735902071,-0.007956438697874546,-0.9983817338943481
1676469335.9570508,841,1676469335,956009387,world,-1.306647777557373,-0.5874671936035156,0.1266653835773468,-0.03091273084282875,-0.047178201377391815,-0.007989118807017803,-0.9983760714530945
1676469335.9677641,842,1676469335,966874361,world,-1.3066354990005493,-0.5874807238578796,0.12668205797672272,-0.03090815804898739,-0.04723823815584183,-0.007834822870790958,-0.9983747005462646
1676469335.9693031,843,1676469335,968683242,world,-1.3065935373306274,-0.5875682830810547,0.1266566962003708,-0.03082476370036602,-0.047261111438274384,-0.008073498494923115,-0.9983742833137512
1676469335.9773235,844,1676469335,975315809,world,-1.3065913915634155,-0.5876228213310242,0.12669508159160614,-0.03121715970337391,-0.04730662330985069,-0.008066106587648392,-0.9983599781990051
1676469335.9787433,845,1676469335,977823734,world,-1.3065838813781738,-0.5876297950744629,0.1266976147890091,-0.030706064775586128,-0.04718221724033356,-0.008215038105845451,-0.9983804821968079
1676469335.9861574,846,1676469335,984657049,world,-1.306575059890747,-0.5876668691635132,0.12669579684734344,-0.0306142196059227,-0.04689483344554901,-0.00813494436442852,-0.9983974695205688
1676469335.986641,847,1676469335,985673189,world,-1.3065612316131592,-0.5877206325531006,0.12670442461967468,-0.03135313838720322,-0.047157444059848785,-0.007714318577200174,-0.9983655214309692
1676469335.9877338,848,1676469335,986914873,world,-1.3064590692520142,-0.5878034234046936,0.12678571045398712,-0.031777460128068924,-0.04724651947617531,-0.006796480156481266,-0.9983546137809753
1676469335.9976785,849,1676469335,995815277,world,-1.3063230514526367,-0.5879009366035461,0.1268620640039444,-0.03200298920273781,-0.04747142642736435,-0.005570068024098873,-0.9983442425727844
1676469335.9987187,850,1676469335,998130798,world,-1.3061004877090454,-0.588101863861084,0.12700746953487396,-0.03258976340293884,-0.04760906100273132,-0.004328423645347357,-0.9983248710632324
1676469336.0052717,851,1676469336,4317522,world,-1.3058327436447144,-0.5884540677070618,0.12720248103141785,-0.03558569774031639,-0.04941532015800476,-0.003287340048700571,-0.9981388449668884
1676469336.0066254,852,1676469336,6084680,world,-1.30548894405365,-0.5889370441436768,0.127372145652771,-0.039809178560972214,-0.051929865032434464,-0.001560427714139223,-0.9978558421134949
1676469336.00779,853,1676469336,7274389,world,-1.3050494194030762,-0.589637815952301,0.12759645283222198,-0.0458601638674736,-0.05584438145160675,0.0002562621084507555,-0.9973856806755066
1676469336.0161803,854,1676469336,15163421,world,-1.304390788078308,-0.5904503464698792,0.12792818248271942,-0.05022065341472626,-0.059768788516521454,0.0002949297777377069,-0.9969481825828552
1676469336.0168347,855,1676469336,16140222,world,-1.3036787509918213,-0.5914734601974487,0.12844376266002655,-0.056902866810560226,-0.06399925798177719,-0.0005927480524405837,-0.996326208114624
1676469336.026748,857,1676469336,25390148,world,-1.3019764423370361,-0.5941640138626099,0.12979789078235626,-0.07322748750448227,-0.07476183027029037,-0.0008028798620216548,-0.9945088028907776
1676469336.0361197,858,1676469336,34342288,world,-1.301041603088379,-0.595738410949707,0.13059362769126892,-0.08419203013181686,-0.08130472898483276,0.0003440557629801333,-0.9931269884109497
1676469336.0380433,859,1676469336,37010431,world,-1.3000290393829346,-0.5974503755569458,0.1316138505935669,-0.09318426996469498,-0.08670809119939804,-0.0003526133659761399,-0.9918661117553711
1676469336.039241,860,1676469336,38355350,world,-1.2991136312484741,-0.5990073084831238,0.13265560567378998,-0.10408645123243332,-0.09268081933259964,-0.0006860095309093595,-0.9902403354644775
1676469336.0467558,862,1676469336,45882701,world,-1.2971248626708984,-0.6023476719856262,0.13521823287010193,-0.12185952067375183,-0.10341803729534149,-0.0003813428047578782,-0.9871448278427124
1676469336.0563245,863,1676469336,55105447,world,-1.2961785793304443,-0.6039010882377625,0.13695833086967468,-0.12720449268817902,-0.10775981098413467,-0.00016929949924815446,-0.9860054850578308
1676469336.058166,865,1676469336,57461977,world,-1.2942757606506348,-0.6068022847175598,0.1407943069934845,-0.1384165734052658,-0.11695721000432968,-0.0006119447061792016,-0.9834437370300293
1676469336.0677323,866,1676469336,65573692,world,-1.2933753728866577,-0.6081795692443848,0.14304828643798828,-0.14442989230155945,-0.1220059022307396,-0.0006719119264744222,-0.9819644093513489
1676469336.0686991,867,1676469336,68016052,world,-1.292460322380066,-0.6096000671386719,0.1456279456615448,-0.14696761965751648,-0.12508435547351837,-0.0003853387897834182,-0.9812005162239075
1676469336.076079,868,1676469336,75143575,world,-1.2915922403335571,-0.6109506487846375,0.14833441376686096,-0.15266390144824982,-0.12935128808021545,-0.00014019411173649132,-0.9797765612602234
1676469336.077561,869,1676469336,76336383,world,-1.2906537055969238,-0.6124320030212402,0.15150468051433563,-0.15172548592090607,-0.12985803186893463,-0.00037361058639362454,-0.9798552393913269
1676469336.0860882,870,1676469336,84130764,world,-1.2896809577941895,-0.6139674782752991,0.1548157036304474,-0.1539333164691925,-0.13102111220359802,-0.0010927611729130149,-0.9793552756309509
1676469336.086127,871,1676469336,85125684,world,-1.288777232170105,-0.615558385848999,0.15852274000644684,-0.15571226179599762,-0.13291843235492706,-0.00047738986904732883,-0.9788187742233276
1676469336.0867567,872,1676469336,85984945,world,-1.2877817153930664,-0.6173703670501709,0.1623242199420929,-0.1590120792388916,-0.13582299649715424,0.0004997102660126984,-0.9778891801834106
1676469336.0971825,873,1676469336,94326496,world,-1.2868211269378662,-0.6191525459289551,0.1665167361497879,-0.16155673563480377,-0.13661853969097137,0.0004944077227264643,-0.9773610830307007
1676469336.0983968,874,1676469336,97842454,world,-1.2857288122177124,-0.6211106181144714,0.17096315324306488,-0.16291746497154236,-0.13800576329231262,7.764482870697975e-05,-0.9769402742385864
1676469336.106537,875,1676469336,104723453,world,-1.2846109867095947,-0.6232170462608337,0.1756586730480194,-0.16377988457679749,-0.1382180154323578,0.000607661553658545,-0.9767659306526184
1676469336.1074295,876,1676469336,105882883,world,-1.283451795578003,-0.6253365278244019,0.180604949593544,-0.1627938151359558,-0.13868559896945953,0.00111240369733423,-0.9768640398979187
1676469336.107875,877,1676469336,106764793,world,-1.2822349071502686,-0.6274588704109192,0.18570688366889954,-0.16584113240242004,-0.13930106163024902,0.0008122297003865242,-0.9762639999389648
1676469336.1159997,878,1676469336,115045547,world,-1.2809864282608032,-0.6297435164451599,0.19104954600334167,-0.16635890305042267,-0.13975107669830322,0.0009206904796883464,-0.9761114716529846
1676469336.117007,879,1676469336,116411685,world,-1.2796754837036133,-0.6320907473564148,0.19659210741519928,-0.16807997226715088,-0.1400299370288849,0.001053620595484972,-0.9757764935493469
1676469336.1257071,880,1676469336,125026464,world,-1.2783122062683105,-0.6345838904380798,0.20236513018608093,-0.16799120604991913,-0.14037473499774933,0.001004742574878037,-0.9757422208786011
1676469336.127554,881,1676469336,125993013,world,-1.276911735534668,-0.6371826529502869,0.20834606885910034,-0.16756445169448853,-0.13999132812023163,0.0011576577089726925,-0.9758705496788025
1676469336.1358268,882,1676469336,135055303,world,-1.275464415550232,-0.6398125290870667,0.2145370990037918,-0.16641253232955933,-0.13903243839740753,0.0013931425055488944,-0.9762043356895447
1676469336.1373448,883,1676469336,136245727,world,-1.2724366188049316,-0.645154595375061,0.2270568162202835,-0.16582491993904114,-0.1393660604953766,0.0019146177219226956,-0.9762559533119202
1676469336.145175,884,1676469336,144324541,world,-1.2709286212921143,-0.6478605270385742,0.2336522936820984,-0.16443295776844025,-0.13854937255382538,0.0012972945114597678,-0.9766085147857666
1676469336.1475334,885,1676469336,146780967,world,-1.2693004608154297,-0.6506205201148987,0.24009856581687927,-0.16322195529937744,-0.1387278437614441,0.002007324481382966,-0.9767851233482361
1676469336.156029,886,1676469336,155383110,world,-1.2676409482955933,-0.6534506678581238,0.24677325785160065,-0.1606416404247284,-0.13750778138637543,0.0014870952581986785,-0.9773861169815063
1676469336.1575868,887,1676469336,156816482,world,-1.2659900188446045,-0.6563605070114136,0.2534213364124298,-0.16153545677661896,-0.1380961388349533,0.002220593160018325,-0.9771544337272644
1676469336.165537,888,1676469336,164909601,world,-1.264228343963623,-0.6593145132064819,0.2601544260978699,-0.15753895044326782,-0.136213019490242,0.0014415958430618048,-0.9780723452568054
1676469336.167007,889,1676469336,166287899,world,-1.2626118659973145,-0.6622310280799866,0.2668449282646179,-0.1581130474805832,-0.13630850613117218,0.0016298980917781591,-0.9779661297798157
1676469336.1679618,890,1676469336,167371273,world,-1.2609044313430786,-0.6651700735092163,0.27362310886383057,-0.1529921591281891,-0.13493292033672333,0.0014459806261584163,-0.9789711833000183
1676469336.1766925,891,1676469336,175388097,world,-1.259251356124878,-0.6680281162261963,0.2803611159324646,-0.1511981040239334,-0.13392822444438934,0.001772643649019301,-0.9793871641159058
1676469336.177274,892,1676469336,176636934,world,-1.2575749158859253,-0.6709276437759399,0.28712189197540283,-0.14709576964378357,-0.13217318058013916,0.001656563370488584,-0.9802502393722534
1676469336.184899,893,1676469336,184180498,world,-1.255854845046997,-0.673818826675415,0.29372623562812805,-0.14279991388320923,-0.12999434769153595,0.0013971839798614383,-0.9811767339706421
1676469336.1861374,894,1676469336,185286045,world,-1.254215121269226,-0.6767516136169434,0.30038920044898987,-0.14015009999275208,-0.1287284642457962,0.0014216299168765545,-0.9817254543304443
1676469336.1868188,895,1676469336,186253786,world,-1.2525080442428589,-0.6797051429748535,0.30687692761421204,-0.13700446486473083,-0.12664732336997986,0.0020366949029266834,-0.9824389219284058
1676469336.1962996,896,1676469336,195168495,world,-1.2508009672164917,-0.682711124420166,0.31332260370254517,-0.1354079693555832,-0.12574535608291626,0.0034548998810350895,-0.9827721118927002
1676469336.1985204,897,1676469336,197324991,world,-1.2491248846054077,-0.6857534646987915,0.3198706805706024,-0.12953859567642212,-0.12324979901313782,0.0024923367891460657,-0.9838816523551941
1676469336.2049959,898,1676469336,204207897,world,-1.247338056564331,-0.6887972354888916,0.32615363597869873,-0.12405352294445038,-0.12094881385564804,0.002404500963166356,-0.9848737716674805
1676469336.2071483,899,1676469336,205960988,world,-1.2457019090652466,-0.6918436288833618,0.33241575956344604,-0.1227077767252922,-0.11937075108289719,0.0026271154638379812,-0.985234260559082
1676469336.2187893,900,1676469336,216840744,world,-1.243975043296814,-0.6948500275611877,0.3385697305202484,-0.11825010180473328,-0.11724665015935898,0.0028058867901563644,-0.9860336184501648
1676469336.219392,901,1676469336,218047857,world,-1.242207407951355,-0.6979184746742249,0.3447045683860779,-0.11225857585668564,-0.1137532964348793,0.0026805754750967026,-0.9871428608894348
1676469336.2196088,902,1676469336,218671083,world,-1.2405513525009155,-0.7009193301200867,0.3506951630115509,-0.10828643292188644,-0.11211535334587097,0.003108376869931817,-0.987772524356842
1676469336.2248962,903,1676469336,224251031,world,-1.2388375997543335,-0.703991174697876,0.35654133558273315,-0.10512664169073105,-0.10952230542898178,0.0026417288463562727,-0.9884060025215149
1676469336.2261472,904,1676469336,225255012,world,-1.237113118171692,-0.7070711255073547,0.3621870279312134,-0.10216941684484482,-0.1082453578710556,0.003229490714147687,-0.9888548851013184
1676469336.2360098,905,1676469336,235193014,world,-1.235400676727295,-0.7101840376853943,0.36778831481933594,-0.09908632934093475,-0.10622642934322357,0.0038762958720326424,-0.9893850684165955
1676469336.2374015,906,1676469336,236343860,world,-1.2336368560791016,-0.7132429480552673,0.37330809235572815,-0.0946805328130722,-0.10349182784557343,0.0039004588034003973,-0.9901060461997986
1676469336.237774,907,1676469336,236901521,world,-1.2318934202194214,-0.7163092494010925,0.3787243366241455,-0.08940523117780685,-0.1004386767745018,0.003884990932419896,-0.9909105896949768
1676469336.2464097,908,1676469336,244908571,world,-1.2302005290985107,-0.7193906903266907,0.3839809000492096,-0.08613809198141098,-0.0985390767455101,0.003966552671045065,-0.9913902282714844
1676469336.2465663,909,1676469336,245911121,world,-1.228502869606018,-0.722491443157196,0.38910186290740967,-0.0833987146615982,-0.09678240865468979,0.0045939479023218155,-0.991794764995575
1676469336.2560737,910,1676469336,255169630,world,-1.2267545461654663,-0.7255885601043701,0.3941332697868347,-0.08026634901762009,-0.09469446539878845,0.004849931225180626,-0.9922534227371216
1676469336.2572393,911,1676469336,256645679,world,-1.2250070571899414,-0.7287395596504211,0.39909228682518005,-0.0747644305229187,-0.09227760136127472,0.004993624519556761,-0.9929099678993225
1676469336.258538,912,1676469336,257919549,world,-1.223233699798584,-0.7318565845489502,0.4038620591163635,-0.07157949358224869,-0.08988861739635468,0.004933671560138464,-0.9933640360832214
1676469336.2672133,913,1676469336,265867948,world,-1.2214233875274658,-0.7350121140480042,0.40848904848098755,-0.06836988776922226,-0.08745162934064865,0.004776885733008385,-0.9938083291053772
1676469336.268103,914,1676469336,267631769,world,-1.2196599245071411,-0.7382293343544006,0.41312456130981445,-0.06368455290794373,-0.08492421358823776,0.005316411145031452,-0.994335949420929
1676469336.2766192,915,1676469336,275251865,world,-1.2178744077682495,-0.7414060235023499,0.41758105158805847,-0.05910612642765045,-0.08269137144088745,0.00583643140271306,-0.9948038458824158
1676469336.2774882,916,1676469336,276356458,world,-1.2160815000534058,-0.7445713877677917,0.4219391345977783,-0.05584436655044556,-0.0799630656838417,0.0056338245049119,-0.995216429233551
1676469336.2850833,917,1676469336,284350156,world,-1.2143115997314453,-0.7477217316627502,0.4261793792247772,-0.051997508853673935,-0.07772902399301529,0.005485233385115862,-0.9956026077270508
1676469336.2861345,918,1676469336,285512685,world,-1.2124929428100586,-0.7509134411811829,0.43042612075805664,-0.047531016170978546,-0.07534527778625488,0.00505593279376626,-0.9960111975669861
1676469336.2876697,919,1676469336,286875724,world,-1.2107064723968506,-0.7540989518165588,0.43442386388778687,-0.04503880441188812,-0.07328684628009796,0.005042510572820902,-0.9962806701660156
1676469336.2982936,920,1676469336,297528028,world,-1.2089346647262573,-0.7573524713516235,0.43838876485824585,-0.04205092415213585,-0.07128537446260452,0.005365454591810703,-0.9965547919273376
1676469336.2998366,921,1676469336,298841238,world,-1.2071256637573242,-0.760597288608551,0.44224557280540466,-0.03927028924226761,-0.06976301223039627,0.0057917991653084755,-0.9967735409736633
1676469336.3055327,922,1676469336,304434061,world,-1.205291748046875,-0.7638688683509827,0.4459620714187622,-0.035335469990968704,-0.0669672042131424,0.0057347360998392105,-0.9971128702163696
1676469336.307437,923,1676469336,305977821,world,-1.2034368515014648,-0.7671363353729248,0.44965076446533203,-0.030091991648077965,-0.06502104550600052,0.006424596533179283,-0.997409462928772
1676469336.3074708,924,1676469336,306832790,world,-1.2015726566314697,-0.7703551650047302,0.45317158102989197,-0.02949126996099949,-0.06343042850494385,0.0062705441378057,-0.9975306987762451
1676469336.3167617,925,1676469336,314954280,world,-1.1997750997543335,-0.7735986709594727,0.4567784070968628,-0.02397606521844864,-0.06101509556174278,0.006555061787366867,-0.9978273510932922
1676469336.3168087,926,1676469336,316109418,world,-1.1979321241378784,-0.7769056558609009,0.4600920081138611,-0.022034000605344772,-0.05832414701581001,0.00620280671864748,-0.9980353116989136
1676469336.3255463,927,1676469336,324907541,world,-1.1960848569869995,-0.7801601886749268,0.4634783864021301,-0.018979156389832497,-0.0571514293551445,0.006272327154874802,-0.9981654286384583
1676469336.327858,928,1676469336,326387882,world,-1.1942623853683472,-0.783464252948761,0.4666452407836914,-0.01778026670217514,-0.055735256522893906,0.006713275332003832,-0.9982646703720093
1676469336.336247,929,1676469336,335586309,world,-1.1924163103103638,-0.78670334815979,0.4698609411716461,-0.01404041051864624,-0.053200189024209976,0.006561757065355778,-0.9984635710716248
1676469336.3373778,930,1676469336,336617708,world,-1.1887012720108032,-0.7932948470115662,0.4759462773799896,-0.009702760726213455,-0.05087915062904358,0.00807708129286766,-0.9986250996589661
1676469336.3462436,931,1676469336,344920635,world,-1.1868162155151367,-0.7965927720069885,0.47896483540534973,-0.005236360710114241,-0.047939661890268326,0.007640189956873655,-0.9988073706626892
1676469336.3471498,932,1676469336,346449851,world,-1.1849937438964844,-0.7998970150947571,0.48189473152160645,-0.0034796888940036297,-0.046823058277368546,0.008050745353102684,-0.9988647699356079
1676469336.356193,933,1676469336,354480743,world,-1.1830973625183105,-0.8031734824180603,0.48476168513298035,0.0008446715073660016,-0.04365404322743416,0.007575571537017822,-0.9990177154541016
1676469336.3567603,934,1676469336,355707645,world,-1.1812905073165894,-0.8064365386962891,0.48759517073631287,0.00339767849072814,-0.04191810265183449,0.007400705944746733,-0.999087929725647
1676469336.3659496,935,1676469336,364997625,world,-1.179405927658081,-0.8097208142280579,0.4902836084365845,0.004150744061917067,-0.04039904847741127,0.007633677683770657,-0.9991458654403687
1676469336.367122,936,1676469336,366511821,world,-1.1776090860366821,-0.812978982925415,0.4931333661079407,0.00882890447974205,-0.03865542635321617,0.007944160141050816,-0.9991820454597473
1676469336.376407,937,1676469336,375109672,world,-1.1757543087005615,-0.8162199258804321,0.49571773409843445,0.009102536365389824,-0.037747856229543686,0.00791794154793024,-0.9992144703865051
1676469336.3780148,938,1676469336,376593112,world,-1.1721160411834717,-0.8227240443229675,0.5010156631469727,0.014638759195804596,-0.034464966505765915,0.0093013234436512,-0.9992554783821106
1676469336.3852334,939,1676469336,384190559,world,-1.1702460050582886,-0.825961709022522,0.503515899181366,0.016495680436491966,-0.03371549770236015,0.00926789827644825,-0.999252438545227
1676469336.3860018,940,1676469336,385320425,world,-1.168466329574585,-0.8291785717010498,0.5061236619949341,0.018352176994085312,-0.0312545970082283,0.010071550495922565,-0.999292254447937
1676469336.387245,941,1676469336,386662721,world,-1.1666347980499268,-0.83238285779953,0.5086806416511536,0.022513963282108307,-0.029790591448545456,0.010160941630601883,-0.9992509484291077
1676469336.4063468,942,1676469336,404719352,world,-1.1648828983306885,-0.8355704545974731,0.5112070441246033,0.023259496316313744,-0.029178209602832794,0.01007977593690157,-0.9992527365684509
1676469336.406893,943,1676469336,405831336,world,-1.1630239486694336,-0.83875972032547,0.5137180685997009,0.025779442861676216,-0.02556581422686577,0.009839956648647785,-0.9992923140525818
1676469336.4168284,944,1676469336,415765523,world,-1.1612871885299683,-0.8419008851051331,0.5161970257759094,0.02813263237476349,-0.025705179199576378,0.009911714121699333,-0.9992244839668274
1676469336.4187438,945,1676469336,418076276,world,-1.1542634963989258,-0.8543603420257568,0.5263158679008484,0.03863773122429848,-0.018060758709907532,0.010059505701065063,-0.9990394115447998
1676469336.4253712,946,1676469336,424577713,world,-1.1524584293365479,-0.8574721217155457,0.5287480354309082,0.041294123977422714,-0.015782224014401436,0.010231065563857555,-0.9989699721336365
1676469336.4271274,947,1676469336,425874471,world,-1.1507676839828491,-0.860525369644165,0.5312271118164062,0.041363660246133804,-0.01567310281097889,0.010235192254185677,-0.998968780040741
1676469336.4358978,948,1676469336,435010671,world,-1.149094581604004,-0.8635632395744324,0.5338094830513,0.04670298472046852,-0.013273832388222218,0.009989120997488499,-0.9987707138061523
1676469336.436979,949,1676469336,436450719,world,-1.1473784446716309,-0.8665367960929871,0.5362762808799744,0.04677458480000496,-0.011884702369570732,0.01057220995426178,-0.9987788796424866
1676469336.438099,950,1676469336,437222003,world,-1.1456893682479858,-0.8695389032363892,0.5388020277023315,0.049590300768613815,-0.010493230074644089,0.010816195979714394,-0.9986559748649597
1676469336.4450502,951,1676469336,444246292,world,-1.1440258026123047,-0.8725019097328186,0.5413623452186584,0.051385607570409775,-0.009586455300450325,0.01083485595881939,-0.9985740780830383
1676469336.4466293,952,1676469336,445615291,world,-1.142313838005066,-0.8754333853721619,0.5438315868377686,0.053962402045726776,-0.008447437547147274,0.010938551276922226,-0.9984473586082458
1676469336.456477,953,1676469336,454919576,world,-1.1406666040420532,-0.8783711194992065,0.5463272333145142,0.05342040956020355,-0.00778433820232749,0.01141374371945858,-0.9984765648841858
1676469336.4565194,954,1676469336,455836057,world,-1.1374038457870483,-0.8840844035148621,0.5515523552894592,0.058781299740076065,-0.005001320969313383,0.011212415061891079,-0.9981953501701355
1676469336.4674807,955,1676469336,464356184,world,-1.135791301727295,-0.886913001537323,0.5541056990623474,0.05975019559264183,-0.005065093748271465,0.011874210089445114,-0.9981299042701721
1676469336.4685273,956,1676469336,467930555,world,-1.134159803390503,-0.8897557258605957,0.5566846132278442,0.06116017326712608,-0.004472211003303528,0.012672781944274902,-0.9980375170707703
1676469336.4765477,957,1676469336,475378036,world,-1.1325963735580444,-0.8925648331642151,0.5592368841171265,0.05927690863609314,-0.004334527067840099,0.013026575557887554,-0.998147189617157
1676469336.477775,958,1676469336,477170705,world,-1.1310008764266968,-0.8952696323394775,0.5619892477989197,0.0656094178557396,-0.0020882836543023586,0.012689546681940556,-0.9977625608444214
1676469336.48517,959,1676469336,484196662,world,-1.1294752359390259,-0.8979823589324951,0.5645540356636047,0.06573455035686493,-0.00230170926079154,0.013727687299251556,-0.9977400302886963
1676469336.4863317,960,1676469336,485388755,world,-1.1279088258743286,-0.9007075428962708,0.5671703815460205,0.06702935695648193,-0.0016447807429358363,0.014089230448007584,-0.997650146484375
1676469336.4871244,961,1676469336,486485004,world,-1.1264228820800781,-0.9033917188644409,0.5698727965354919,0.06833449751138687,-0.0013511342694982886,0.014312462881207466,-0.9975589513778687
1676469336.497135,962,1676469336,495475769,world,-1.1248539686203003,-0.9060201644897461,0.5725256204605103,0.06887778639793396,0.00021351253963075578,0.013481221161782742,-0.9975340366363525
1676469336.4981112,963,1676469336,497406721,world,-1.1233912706375122,-0.9085682034492493,0.575156569480896,0.07222480326890945,0.0008874337654560804,0.014006110839545727,-0.9972897171974182
1676469336.5065317,964,1676469336,504624366,world,-1.1219066381454468,-0.9111092686653137,0.5778746604919434,0.07357674837112427,0.001794880605302751,0.012999661266803741,-0.9972032904624939
1676469336.5065749,965,1676469336,505809307,world,-1.1204231977462769,-0.9136362671852112,0.5805829167366028,0.07524242252111435,0.0036784757394343615,0.012597021646797657,-0.9970789551734924
1676469336.507519,966,1676469336,506810426,world,-1.1190701723098755,-0.9161432981491089,0.5832571983337402,0.0755336657166481,0.00222472264431417,0.014023694209754467,-0.9970421195030212
1676469336.5159316,967,1676469336,515007972,world,-1.1175987720489502,-0.9185905456542969,0.5858744382858276,0.07613865286111832,0.00296613946557045,0.014776991680264473,-0.9969832897186279
1676469336.5167165,968,1676469336,516062736,world,-1.116233229637146,-0.921062707901001,0.5886489152908325,0.07785854488611221,0.0024935565888881683,0.01552487164735794,-0.9968404769897461
1676469336.5249405,969,1676469336,524237871,world,-1.114831805229187,-0.9235261678695679,0.59129399061203,0.07749127596616745,0.0029355755541473627,0.015222945250570774,-0.9968724846839905
1676469336.5276158,970,1676469336,525980949,world,-1.1134562492370605,-0.9258524775505066,0.5940219759941101,0.08033956587314606,0.004617919214069843,0.014734447933733463,-0.9966479539871216
1676469336.5364077,971,1676469336,535604238,world,-1.1121371984481812,-0.9281505346298218,0.5967524647712708,0.08117209374904633,0.004945332650095224,0.014789503999054432,-0.9965780973434448
1676469336.5374749,972,1676469336,536824941,world,-1.1107772588729858,-0.9304759502410889,0.5993946194648743,0.08175773173570633,0.005701321177184582,0.014131760224699974,-0.9965357780456543
1676469336.538796,973,1676469336,538010597,world,-1.1095187664031982,-0.9328131675720215,0.6021155118942261,0.08241467922925949,0.004606441594660282,0.015788983553647995,-0.9964624643325806
1676469336.5453131,974,1676469336,544241428,world,-1.1081961393356323,-0.935076117515564,0.6047080755233765,0.08227415382862091,0.005166574846953154,0.01607074961066246,-0.9964668154716492
1676469336.546443,975,1676469336,545429229,world,-1.1069296598434448,-0.9373360276222229,0.6074622273445129,0.08459478616714478,0.005786939058452845,0.015868712216615677,-0.9962723255157471
1676469336.5562725,976,1676469336,555131196,world,-1.1056971549987793,-0.9395052194595337,0.6101067662239075,0.08372695744037628,0.004892341792583466,0.01591985672712326,-0.996349573135376
1676469336.55693,977,1676469336,556122541,world,-1.1031900644302368,-0.9438140392303467,0.6153774857521057,0.08427078276872635,0.004858233034610748,0.015996579080820084,-0.9963027238845825
1676469336.5661767,978,1676469336,565418481,world,-1.1019502878189087,-0.9459282159805298,0.6180310249328613,0.08594541251659393,0.005899685900658369,0.01571482978761196,-0.9961584210395813
1676469336.567251,979,1676469336,566611528,world,-1.1007928848266602,-0.9479151964187622,0.6207895278930664,0.0889507606625557,0.006666385103017092,0.01520712859928608,-0.995897650718689
1676469336.5760252,980,1676469336,574806451,world,-1.0996108055114746,-0.9500526785850525,0.6232227683067322,0.08405382931232452,0.005167647264897823,0.016052071005105972,-0.9963185787200928
1676469336.57769,981,1676469336,576646089,world,-1.0984079837799072,-0.9520370960235596,0.6259278059005737,0.08880443871021271,0.006268753670156002,0.0157984159886837,-0.9959041476249695
1676469336.5863292,982,1676469336,584219694,world,-1.0972411632537842,-0.9540319442749023,0.6284704804420471,0.08746129274368286,0.005478023551404476,0.01509936898946762,-0.9960384964942932
1676469336.5863502,983,1676469336,585807800,world,-1.0961085557937622,-0.9559873938560486,0.6310448050498962,0.08749556541442871,0.0063283308409154415,0.015557368285953999,-0.9960232973098755
1676469336.5873125,984,1676469336,586777448,world,-1.0949918031692505,-0.9582922458648682,0.6332307457923889,0.08476953208446503,0.0006294838967733085,0.020761096850037575,-0.9961841106414795
1676469336.5967202,985,1676469336,595459938,world,-1.0938414335250854,-0.9598637223243713,0.6360094547271729,0.08728531002998352,0.004934129770845175,0.015518199652433395,-0.9960502982139587
1676469336.5968678,986,1676469336,596288442,world,-1.0928328037261963,-0.9616487622261047,0.6385961771011353,0.089351586997509,0.005182966124266386,0.016501108184456825,-0.9958500266075134
1676469336.605513,987,1676469336,604502677,world,-1.09172523021698,-0.9635759592056274,0.6408882737159729,0.0855032205581665,0.0028930152766406536,0.0166917834430933,-0.9961939454078674
1676469336.6063375,988,1676469336,605635643,world,-1.090628981590271,-0.9653213620185852,0.6435061097145081,0.08946653455495834,0.005234751384705305,0.015641214326024055,-0.9958532452583313
1676469336.616227,989,1676469336,615610361,world,-1.0896291732788086,-0.9670845866203308,0.645866870880127,0.08674321323633194,0.003587283892557025,0.01623186469078064,-0.9960920810699463
1676469336.6180065,990,1676469336,617166280,world,-1.0875871181488037,-0.9705179333686829,0.6506595015525818,0.08917427062988281,0.0029749167151749134,0.016574736684560776,-0.995873749256134
1676469336.626128,991,1676469336,624678373,world,-1.086611270904541,-0.972236156463623,0.6528730392456055,0.08592328429222107,0.0025552341248840094,0.01631447859108448,-0.9961649179458618
1676469336.6298182,992,1676469336,627265930,world,-1.0856822729110718,-0.9738370776176453,0.6552618741989136,0.08928125351667404,0.002176103414967656,0.01653447188436985,-0.9958668947219849
1676469336.6365192,993,1676469336,635665178,world,-1.084697961807251,-0.9754223227500916,0.6574621796607971,0.08704131096601486,0.0022066798992455006,0.015622420236468315,-0.9960798025131226
1676469336.6381817,994,1676469336,636659860,world,-1.0837844610214233,-0.9770280718803406,0.6597025394439697,0.08692087978124619,0.0011235682759433985,0.016830159351229668,-0.9960724711418152
1676469336.6382272,995,1676469336,637475252,world,-1.08286714553833,-0.9785168170928955,0.661965548992157,0.08772917091846466,0.0015139192109927535,0.015851682052016258,-0.9960171580314636
1676469336.6455972,996,1676469336,644768476,world,-1.0819302797317505,-0.9800332188606262,0.6640773415565491,0.08635161817073822,0.0011095390655100346,0.01632803864777088,-0.9961302876472473
1676469336.6469421,997,1676469336,646377325,world,-1.0810588598251343,-0.9815502762794495,0.6662914752960205,0.08613555878400803,0.0011715071741491556,0.016137167811393738,-0.9961521029472351
1676469336.6556938,998,1676469336,654322385,world,-1.0801950693130493,-0.9829651117324829,0.6683958172798157,0.08707763999700546,0.0001693671802058816,0.016832295805215836,-0.9960593581199646
1676469336.6570413,999,1676469336,656275749,world,-1.079283595085144,-0.9843466281890869,0.6705260276794434,0.08812231570482254,0.0013621138641610742,0.015287023968994617,-0.9959914684295654
1676469336.6591537,1000,1676469336,657469511,world,-1.0785119533538818,-0.9857783913612366,0.6725653409957886,0.08599674701690674,-0.0008098830585367978,0.016827519983053207,-0.9961530566215515
1676469336.6660867,1001,1676469336,665217876,world,-1.077651858329773,-0.9870660901069641,0.6746083498001099,0.08747445046901703,0.00010866450611501932,0.015679914504289627,-0.99604332447052
1676469336.6673934,1002,1676469336,666887521,world,-1.0768084526062012,-0.9884640574455261,0.6765871047973633,0.08470545709133148,-0.0018572364933788776,0.016418060287833214,-0.9962691068649292
1676469336.6758327,1003,1676469336,675163984,world,-1.0760565996170044,-0.9897062182426453,0.678733229637146,0.08741753548383713,-0.0005182746681384742,0.016341732814908028,-0.9960376620292664
1676469336.6779704,1004,1676469336,676693677,world,-1.0752313137054443,-0.9910268783569336,0.680540919303894,0.08395764976739883,-0.002913780277594924,0.01596682146191597,-0.9963371157646179
1676469336.685408,1005,1676469336,684222221,world,-1.0744624137878418,-0.9922504425048828,0.6825574636459351,0.08492732048034668,-0.0023615278769284487,0.01632831245660782,-0.996250569820404
1676469336.6871724,1006,1676469336,685928821,world,-1.0737229585647583,-0.9934737086296082,0.684504508972168,0.08446728438138962,-0.0033410675823688507,0.015904244035482407,-0.9962937235832214
1676469336.6874063,1007,1676469336,686725854,world,-1.0729949474334717,-0.9946431517601013,0.6863906383514404,0.08321513235569,-0.0038027605041861534,0.015731602907180786,-0.9964001774787903
1676469336.6969457,1008,1676469336,695574998,world,-1.0722153186798096,-0.9958266615867615,0.688303530216217,0.0833323672413826,-0.004169493447989225,0.01620764657855034,-0.9963813424110413
1676469336.69809,1009,1676469336,697324275,world,-1.0715495347976685,-0.9969371557235718,0.6901947259902954,0.0820297971367836,-0.004943580832332373,0.015735529363155365,-0.996493399143219
1676469336.7054195,1010,1676469336,704744338,world,-1.0707790851593018,-0.9980459809303284,0.6920238137245178,0.08200883120298386,-0.00454053794965148,0.015463048592209816,-0.9965013265609741
1676469336.7066517,1011,1676469336,706137895,world,-1.0701314210891724,-0.9990649223327637,0.6938875913619995,0.0807977020740509,-0.006066526286303997,0.01578362286090851,-0.9965871572494507
