Time,header.seq,header.stamp.secs,header.stamp.nsecs,header.frame_id,type_mask,orientation.x,orientation.y,orientation.z,orientation.w,body_rate.x,body_rate.y,body_rate.z,thrust
1676469335.2861845,295,1676469335,284570932,base_footprint,7,0.20237992908074678,0.19049027084248232,-0.040167690060980754,0.9597616254543597,0.0,0.0,0.0,0.4272884726524353
1676469335.3018727,296,1676469335,300482511,base_footprint,7,0.2023534678186141,0.19053097330226296,-0.04017113037540748,0.9597589814941225,0.0,0.0,0.0,0.42728954553604126
1676469335.3163753,297,1676469335,312834262,base_footprint,7,0.20223582692349332,0.1899751422902124,-0.040024770730652255,0.9599000642506194,0.0,0.0,0.0,0.4269462823867798
1676469335.3215418,298,1676469335,320658445,base_footprint,7,0.20228065755397498,0.18993425333636424,-0.04002508368271454,0.9598986965640078,0.0,0.0,0.0,0.4269472062587738
1676469335.3292594,299,1676469335,326512813,base_footprint,7,0.20228065755397498,0.18993425333636424,-0.04002508368271454,0.9598986965640078,0.0,0.0,0.0,0.4269472062587738
1676469335.3355846,300,1676469335,333324193,base_footprint,7,0.2018478646756769,0.1906488327510033,-0.04009193745290354,0.959845351422729,0.0,0.0,0.0,0.42731305956840515
1676469335.3408794,301,1676469335,340407848,base_footprint,7,0.20178989649806844,0.1907251880291426,-0.04009660851039181,0.9598421757291723,0.0,0.0,0.0,0.42730480432510376
1676469335.3509493,302,1676469335,350141286,base_footprint,7,0.20171250747258887,0.19082055006625018,-0.04010139205554044,0.9598392888170094,0.0,0.0,0.0,0.42730817198753357
1676469335.3637965,303,1676469335,362667083,base_footprint,7,0.20176989596827183,0.19074323779097088,-0.04009640241056574,0.9598428021461118,0.0,0.0,0.0,0.42730891704559326
1676469335.3707237,304,1676469335,370056152,base_footprint,7,0.20122834561109412,0.19182226288737242,-0.040219460881319544,0.9597363009440697,0.0,0.0,0.0,0.4273340702056885
1676469335.381917,305,1676469335,380711078,base_footprint,7,0.20108892708945666,0.19201446579405318,-0.04023227541148311,0.9597265508169763,0.0,0.0,0.0,0.4273347556591034
1676469335.3907423,306,1676469335,390125274,base_footprint,7,0.2009609176679745,0.19212557985724885,-0.04022973464679636,0.9597312329943264,0.0,0.0,0.0,0.4273190200328827
1676469335.4015727,307,1676469335,400143861,base_footprint,7,0.20081132886596192,0.18910066799990527,-0.03953965181466819,0.9603917760453028,0.0,0.0,0.0,0.4273102581501007
1676469335.410798,308,1676469335,410241603,base_footprint,7,0.20092083040224767,0.18872367838720838,-0.03948013618031493,0.960445475794257,0.0,0.0,0.0,0.4272848963737488
1676469335.420488,309,1676469335,420007944,base_footprint,7,0.20094285891668684,0.18844478312469065,-0.03942396136801054,0.9604979346326209,0.0,0.0,0.0,0.427251935005188
1676469335.4333112,310,1676469335,432299852,base_footprint,7,0.2006358740542593,0.17067697438754978,-0.03552165657868649,0.9640294748451942,0.0,0.0,0.0,0.42474696040153503
1676469335.4409595,311,1676469335,440165996,base_footprint,7,0.20058943068565968,0.16994018703900904,-0.035354775109410076,0.9641754264672547,0.0,0.0,0.0,0.42472043633461
1676469335.4508796,312,1676469335,450112342,base_footprint,7,0.20061034859581467,0.16924525707605342,-0.035209373186268975,0.9642986212959948,0.0,0.0,0.0,0.4246924817562103
1676469335.4638555,313,1676469335,462218523,base_footprint,7,0.20308797116994243,0.1548858005559667,-0.03255297903153364,0.9662846207553892,0.0,0.0,0.0,0.4243578612804413
1676469335.4716804,314,1676469335,470191955,base_footprint,7,0.2031420513741657,0.15401741206399264,-0.032374616097843076,0.9664180399687929,0.0,0.0,0.0,0.42432740330696106
1676469335.4806824,315,1676469335,480051040,base_footprint,7,0.2034993052715485,0.15251312082052462,-0.03210906881405013,0.96659028984957,0.0,0.0,0.0,0.4243319034576416
1676469335.4915628,316,1676469335,490211248,base_footprint,7,0.2036374817410998,0.15105655203711854,-0.031817118591228835,0.9667995475181773,0.0,0.0,0.0,0.4242960214614868
1676469335.5022275,317,1676469335,500152111,base_footprint,7,0.20673945628248466,0.14633430375431994,-0.031289226014433034,0.9668847155148222,0.0,0.0,0.0,0.4241975247859955
1676469335.5118592,318,1676469335,510810375,base_footprint,7,0.20718923832632138,0.14435359885816645,-0.03092604581552115,0.9670978428828547,0.0,0.0,0.0,0.4241507053375244
1676469335.5214088,319,1676469335,520153045,base_footprint,7,0.20761096588270697,0.14286363347755593,-0.030664726487968755,0.9672369635328553,0.0,0.0,0.0,0.424129456281662
1676469335.5318158,320,1676469335,530083656,base_footprint,7,0.20851735147368913,0.14447362498653282,-0.03116018363264818,0.9667869097032852,0.0,0.0,0.0,0.4247265160083771
1676469335.5412033,321,1676469335,540069580,base_footprint,7,0.208450907627201,0.1436702990408798,-0.03097256067112452,0.9669269697181756,0.0,0.0,0.0,0.42473965883255005
1676469335.5512118,322,1676469335,550118923,base_footprint,7,0.2087957020089111,0.14245429699735568,-0.030757636783017548,0.9670393455641395,0.0,0.0,0.0,0.42472684383392334
1676469335.5621247,323,1676469335,560158491,base_footprint,7,0.20701857265808787,0.15529271539678813,-0.03330208599314919,0.9653592358225019,0.0,0.0,0.0,0.42551541328430176
1676469335.5706651,324,1676469335,570117235,base_footprint,7,0.20706001478773833,0.1545774299974009,-0.03315151606930972,0.9654703234143484,0.0,0.0,0.0,0.42549827694892883
1676469335.5825603,325,1676469335,580580949,base_footprint,7,0.20719806289718182,0.15397317759289378,-0.03304152090270435,0.9655410303089346,0.0,0.0,0.0,0.42548879981040955
1676469335.5956063,326,1676469335,590140581,base_footprint,7,0.20722140703070843,0.15350751967860202,-0.03294283173557744,0.9656135353792314,0.0,0.0,0.0,0.425485223531723
1676469335.6012218,327,1676469335,600211143,base_footprint,7,0.20370477385065,0.16335248216041195,-0.034493582166727516,0.9646919324176993,0.0,0.0,0.0,0.42621827125549316
1676469335.610915,328,1676469335,610231637,base_footprint,7,0.20358812383607697,0.16332314575453122,-0.03446654676534869,0.9647224901741548,0.0,0.0,0.0,0.4262152910232544
1676469335.6225688,329,1676469335,620434522,base_footprint,7,0.20339329939917095,0.16340550837562315,-0.03444993785498015,0.9647502305642696,0.0,0.0,0.0,0.4262073338031769
1676469335.6306458,330,1676469335,630173444,base_footprint,7,0.20368663333350767,0.17188311988782806,-0.036350004872934105,0.9631441354463129,0.0,0.0,0.0,0.4264942407608032
1676469335.640929,331,1676469335,640120744,base_footprint,7,0.20351405605697653,0.1720963454840153,-0.03636434224144021,0.9631419996405679,0.0,0.0,0.0,0.42648670077323914
1676469335.6510203,332,1676469335,650385618,base_footprint,7,0.20337522665076146,0.17232394093876027,-0.0363880578951892,0.9631297346706219,0.0,0.0,0.0,0.42648571729660034
1676469335.6616607,333,1676469335,660495519,base_footprint,7,0.20336951054917135,0.17241165163729436,-0.03640612925298343,0.9631145613640705,0.0,0.0,0.0,0.42647790908813477
1676469335.6720514,334,1676469335,670473575,base_footprint,7,0.20378869195722032,0.17594191708386478,-0.03725754624606603,0.9623546571253977,0.0,0.0,0.0,0.4265938401222229
1676469335.6814375,335,1676469335,680215597,base_footprint,7,0.2038111880135378,0.17596775643270465,-0.037267513822620064,0.9623447826792805,0.0,0.0,0.0,0.42658698558807373
1676469335.6905823,336,1676469335,690101146,base_footprint,7,0.20375729024700998,0.1761683498378427,-0.0373011607697569,0.9623181919676235,0.0,0.0,0.0,0.4265906512737274
1676469335.7009997,337,1676469335,700302124,base_footprint,7,0.20390164388988546,0.17504488748830485,-0.03708249444980605,0.9625010626428363,0.0,0.0,0.0,0.42685171961784363
1676469335.712031,338,1676469335,710318326,base_footprint,7,0.20392269634368915,0.17506601290319132,-0.0370911317008019,0.962492427498135,0.0,0.0,0.0,0.426846444606781
1676469335.7207751,339,1676469335,720224857,base_footprint,7,0.2038492686628112,0.17523924510470662,-0.037115116954111495,0.9624755325379717,0.0,0.0,0.0,0.4268500506877899
1676469335.7306082,340,1676469335,730113267,base_footprint,7,0.20357951227309368,0.17203486602183657,-0.036363149075393314,0.9631391947402093,0.0,0.0,0.0,0.42625272274017334
1676469335.7409222,341,1676469335,740078687,base_footprint,7,0.2035163720730213,0.1720981319542884,-0.036365165264991596,0.9631411599715433,0.0,0.0,0.0,0.42625507712364197
1676469335.7513208,342,1676469335,750146150,base_footprint,7,0.2034917587634052,0.17208810510655778,-0.0363583751602376,0.9631484084770726,0.0,0.0,0.0,0.42625120282173157
1676469335.7625067,343,1676469335,761586427,base_footprint,7,0.20358604966882354,0.16984407252480102,-0.03588613267982097,0.9635444446883183,0.0,0.0,0.0,0.4258159101009369
1676469335.7759588,344,1676469335,770417213,base_footprint,7,0.2035335375506496,0.1698241939392864,-0.03587211443945151,0.963559564142577,0.0,0.0,0.0,0.4258016347885132
1676469335.7814498,345,1676469335,780224323,base_footprint,7,0.20354417168680455,0.16975534694353936,-0.03585905933455612,0.9635699353031164,0.0,0.0,0.0,0.42580825090408325
1676469335.791641,346,1676469335,790174007,base_footprint,7,0.20347179145633892,0.16971215281836025,-0.035836303813111064,0.9635936771255404,0.0,0.0,0.0,0.42580124735832214
1676469335.8015196,347,1676469335,800542831,base_footprint,7,0.20334573184177188,0.1686350951131336,-0.03557849563019563,0.9638189086579546,0.0,0.0,0.0,0.4265231788158417
1676469335.8116145,348,1676469335,810123443,base_footprint,7,0.2033286416577457,0.1685032566246191,-0.03554666591201504,0.9638467463923159,0.0,0.0,0.0,0.42653486132621765
1676469335.821011,349,1676469335,820075273,base_footprint,7,0.20321911958174227,0.16854226187858154,-0.03553512696541225,0.9638634499496416,0.0,0.0,0.0,0.42652109265327454
1676469335.8329098,350,1676469335,830296516,base_footprint,7,0.20292003528562388,0.17007815407460689,-0.03581424479542486,0.9636463151260367,0.0,0.0,0.0,0.42492809891700745
1676469335.8411584,351,1676469335,840020895,base_footprint,7,0.2028137794076009,0.17012206562078208,-0.03580417605004058,0.9636613070206259,0.0,0.0,0.0,0.4249187409877777
1676469335.8516653,352,1676469335,850669384,base_footprint,7,0.20280460326416858,0.1700261556473856,-0.03578164036763711,0.9636810019416359,0.0,0.0,0.0,0.42491236329078674
1676469335.8630946,353,1676469335,861963033,base_footprint,7,0.20321645520626472,0.17050146317763687,-0.03596115700589902,0.9635035643807874,0.0,0.0,0.0,0.4244164228439331
1676469335.8709426,354,1676469335,870430231,base_footprint,7,0.2031892732811154,0.1704346475487869,-0.035941574356317826,0.9635218489329664,0.0,0.0,0.0,0.4244126081466675
1676469335.8807814,355,1676469335,880101442,base_footprint,7,0.20313847126042092,0.1703870609146451,-0.035921814885621406,0.9635417137738103,0.0,0.0,0.0,0.42440614104270935
1676469335.8909116,356,1676469335,890080451,base_footprint,7,0.2031226778877367,0.1703357662042209,-0.03590772709904033,0.9635546375862224,0.0,0.0,0.0,0.4244193136692047
1676469335.9015172,357,1676469335,900103569,base_footprint,7,0.2029993474456168,0.17094993293217392,-0.036018565121395535,0.963467720442016,0.0,0.0,0.0,0.4246140420436859
1676469335.910842,358,1676469335,910253286,base_footprint,7,0.20296472561441073,0.1709249745596617,-0.036006709717831244,0.9634798856661937,0.0,0.0,0.0,0.4246249496936798
1676469335.9218194,359,1676469335,921161413,base_footprint,7,0.2030684327461194,0.17067155807181134,-0.035970784832382856,0.9635042986546128,0.0,0.0,0.0,0.424612820148468
1676469335.9318988,360,1676469335,930330038,base_footprint,7,0.20249726292014378,0.1705890352474523,-0.03584707902656043,0.963643723835971,0.0,0.0,0.0,0.4248165786266327
1676469335.94126,361,1676469335,940152883,base_footprint,7,0.20249051049975314,0.17048599281420082,-0.0358234680785695,0.9636642561320459,0.0,0.0,0.0,0.42482057213783264
1676469335.9505453,362,1676469335,950060844,base_footprint,7,0.20252833216463373,0.170369386571177,-0.035805156545635826,0.9636776107987127,0.0,0.0,0.0,0.42480990290641785
1676469335.9660094,363,1676469335,962911128,base_footprint,7,0.20142060056062394,0.16998511222759016,-0.03551755337049434,0.9639882295408722,0.0,0.0,0.0,0.42587894201278687
1676469335.9720933,364,1676469335,970962762,base_footprint,7,0.20139727588919498,0.16991618521381396,-0.03549838718397277,0.9640059604453353,0.0,0.0,0.0,0.42588120698928833
1676469335.981269,365,1676469335,980577468,base_footprint,7,0.2014075674045994,0.16984724557162945,-0.035485412129725946,0.9640164368359472,0.0,0.0,0.0,0.42587053775787354
1676469335.9909081,366,1676469335,990110158,base_footprint,7,0.2009168604553595,0.1704461926715252,-0.03552396084886941,0.9640117005483652,0.0,0.0,0.0,0.4258476495742798
1676469336.0013862,367,1676469336,163793,base_footprint,7,0.19660395908280912,0.16659673194621005,-0.0339193756271295,0.965630306139401,0.0,0.0,0.0,0.42212799191474915
1676469336.0110126,368,1676469336,10072946,base_footprint,7,0.19483361974046812,0.16771478299493744,-0.03383363667135503,0.9657985800431571,0.0,0.0,0.0,0.4219748377799988
1676469336.0221872,369,1676469336,20292758,base_footprint,7,0.19453765800795075,0.1660419023292631,-0.033432726596918906,0.966161186904109,0.0,0.0,0.0,0.42175450921058655
1676469336.0307114,370,1676469336,30156135,base_footprint,7,0.1476314753681203,0.12959090513547689,-0.01951573656873346,0.9803215191012485,0.0,0.0,0.0,0.3850003778934479
1676469336.041324,371,1676469336,40158033,base_footprint,7,0.1461770740012063,0.12652797667020635,-0.018854626462703875,0.9809523113878378,0.0,0.0,0.0,0.3842572569847107
1676469336.050677,372,1676469336,50154924,base_footprint,7,0.14512812166650244,0.12446903936382929,-0.01840669260731312,0.9813798857774997,0.0,0.0,0.0,0.38359084725379944
1676469336.0642202,373,1676469336,62097072,base_footprint,7,0.14376980885487126,0.12152212960333075,-0.017792178714665357,0.9819603110386338,0.0,0.0,0.0,0.3821408450603485
1676469336.0711713,374,1676469336,70461273,base_footprint,7,0.12964669647421012,0.10516203229025894,-0.013829305725210019,0.9858708999463698,0.0,0.0,0.0,0.3052860498428345
1676469336.080871,375,1676469336,80291986,base_footprint,7,0.12847852068368393,0.1037466657103229,-0.01351603562833098,0.9861780852654436,0.0,0.0,0.0,0.3037578761577606
1676469336.095824,376,1676469336,90289115,base_footprint,7,0.12620617266573836,0.10185563452867277,-0.013028412493324277,0.9866750691913377,0.0,0.0,0.0,0.30094435811042786
1676469336.1010761,377,1676469336,100000143,base_footprint,7,0.08328749208097394,0.0784537580910994,-0.006577557865931711,0.9934107595736847,0.0,0.0,0.0,0.20639313757419586
1676469336.1110487,378,1676469336,110357999,base_footprint,7,0.08005751837031899,0.07658630371852783,-0.0061694081829214605,0.9938245671333507,0.0,0.0,0.0,0.20255917310714722
1676469336.1228855,379,1676469336,120879411,base_footprint,7,0.07773484568413869,0.07516342071632628,-0.005877379936711485,0.9941193139446408,0.0,0.0,0.0,0.1997285783290863
1676469336.1311877,380,1676469336,130131721,base_footprint,7,0.018257399865409328,0.029961209521344814,-0.0005473508647664799,0.9993841572094304,0.0,0.0,0.0,0.10521888732910156
1676469336.1412697,381,1676469336,140115976,base_footprint,7,0.014123081279197987,0.027542967875613743,-0.0003891780793262532,0.9995207711879762,0.0,0.0,0.0,0.10035334527492523
1676469336.151355,382,1676469336,150250196,base_footprint,7,0.011300062422449067,0.02582560125307507,-0.00029194694002661526,0.9996025518555612,0.0,0.0,0.0,0.09696196764707565
1676469336.1610131,383,1676469336,160234212,base_footprint,7,0.008340147716783531,0.024002081601813944,-0.0002002455655977017,0.9996770988256937,0.0,0.0,0.0,0.09349751472473145
1676469336.1736908,384,1676469336,170163869,base_footprint,7,-0.019474384867041707,-2.5033778055951633e-05,-4.876099008925965e-07,0.9998103558711133,0.0,0.0,0.0,0.06453017890453339
1676469336.1819286,385,1676469336,180274248,base_footprint,7,-0.022411804600560623,-0.0019630185671864445,-4.4005926640476234e-05,0.9997468957871936,0.0,0.0,0.0,0.061019957065582275
1676469336.1906123,386,1676469336,190124511,base_footprint,7,-0.026868202023844857,-0.00497322945300941,-0.00013367164601764503,0.9996266047083304,0.0,0.0,0.0,0.055882856249809265
1676469336.2009175,387,1676469336,200227260,base_footprint,7,-0.042565084748722136,-0.013983763672184948,-0.0005958184948669006,0.9989956520997555,0.0,0.0,0.0,0.06547097861766815
1676469336.2111845,388,1676469336,210299253,base_footprint,7,-0.04570242573822019,-0.016097374979322107,-0.0007365544476825435,0.998825119972442,0.0,0.0,0.0,0.0615197978913784
1676469336.2216523,389,1676469336,220577716,base_footprint,7,-0.05029444557846298,-0.019417584758108165,-0.0009780195055869327,0.9985451765563557,0.0,0.0,0.0,0.05610737204551697
1676469336.2316358,390,1676469336,229979276,base_footprint,7,-0.05837124007849151,-0.024965337153052186,-0.0014602048753065392,0.997981662193377,0.0,0.0,0.0,0.09588093310594559
1676469336.2410903,391,1676469336,240218639,base_footprint,7,-0.06300837267157466,-0.028416450674235386,-0.0017947696452251076,0.9976067507321106,0.0,0.0,0.0,0.0910993218421936
1676469336.2514737,392,1676469336,250304937,base_footprint,7,-0.06615177445781224,-0.030660801902676216,-0.0020336835477071493,0.9973363134339366,0.0,0.0,0.0,0.0879049226641655
1676469336.2638052,393,1676469336,260771036,base_footprint,7,-0.07085751593946754,-0.034103009556842576,-0.0024239679789196697,0.996900356882919,0.0,0.0,0.0,0.0835510864853859
1676469336.2714725,394,1676469336,270517349,base_footprint,7,-0.07740024260425356,-0.037950837810206924,-0.002948392189178749,0.9962731770643054,0.0,0.0,0.0,0.11900085210800171
1676469336.2811644,395,1676469336,280137300,base_footprint,7,-0.08062508087184819,-0.040322724971444034,-0.003264330989602521,0.9959231990110862,0.0,0.0,0.0,0.11635913699865341
1676469336.2907975,396,1676469336,290166378,base_footprint,7,-0.08547588604472657,-0.04364799436754206,-0.0037481801388892593,0.9953766506394482,0.0,0.0,0.0,0.11274632811546326
1676469336.3025208,397,1676469336,300827503,base_footprint,7,-0.09099286933363634,-0.04885871682447167,-0.004469742736045283,0.9946422195546354,0.0,0.0,0.0,0.14526677131652832
1676469336.3130872,398,1676469336,310092210,base_footprint,7,-0.09587945042973321,-0.05249020859234034,-0.00506313594004347,0.9939951074535919,0.0,0.0,0.0,0.142207533121109
1676469336.3215947,399,1676469336,320383548,base_footprint,7,-0.09925292707134256,-0.0547985486241802,-0.005474296072112696,0.9935371193966378,0.0,0.0,0.0,0.14018024504184723
1676469336.3311937,400,1676469336,330302238,base_footprint,7,-0.10423654709883341,-0.05892050556322427,-0.006186295483180811,0.9927864050344775,0.0,0.0,0.0,0.17396266758441925
1676469336.3426654,401,1676469336,340820312,base_footprint,7,-0.10907598859329304,-0.06274422920508407,-0.006898892212024417,0.9920272152013283,0.0,0.0,0.0,0.17147280275821686
1676469336.3514032,402,1676469336,350289344,base_footprint,7,-0.1124913171786268,-0.06506466564534352,-0.00738201082935747,0.9914927124089176,0.0,0.0,0.0,0.16984647512435913
1676469336.3624463,403,1676469336,361595392,base_footprint,7,-0.11595120924635224,-0.06720671839477889,-0.00786388897310827,0.9909473918060091,0.0,0.0,0.0,0.16827695071697235
1676469336.3714428,404,1676469336,370436191,base_footprint,7,-0.11747706263379282,-0.06875029424026452,-0.008152733955034621,0.9906594115667965,0.0,0.0,0.0,0.18296226859092712
1676469336.3812861,405,1676469336,380525350,base_footprint,7,-0.12227803006417523,-0.0725006978346976,-0.008956565672380623,0.9898037745474922,0.0,0.0,0.0,0.1808881312608719
1676469336.3907158,406,1676469336,390100717,base_footprint,7,-0.12708435406971713,-0.07612258894847722,-0.009782396525206249,0.988918208509019,0.0,0.0,0.0,0.1788601130247116
1676469336.4008722,407,1676469336,400156021,base_footprint,7,-0.12599289223061252,-0.06897386292611266,-0.008781620222648548,0.9895914715106837,0.0,0.0,0.0,0.18601572513580322
1676469336.4125435,408,1676469336,410910606,base_footprint,7,-0.12937805338085204,-0.07106650946286856,-0.009296694112496557,0.9890017401474701,0.0,0.0,0.0,0.18469998240470886
1676469336.4212995,409,1676469336,420549869,base_footprint,7,-0.13717223875188586,-0.07645441271306361,-0.010619796876034393,0.9875351738580291,0.0,0.0,0.0,0.18140164017677307
1676469336.4324691,410,1676469336,430097103,base_footprint,7,-0.1308346564396402,-0.07128369293751952,-0.00943208105823055,0.9887931854753155,0.0,0.0,0.0,0.17775562405586243
1676469336.4410384,411,1676469336,440119504,base_footprint,7,-0.13540569985476106,-0.07450443656974742,-0.010211555989790523,0.987932239327442,0.0,0.0,0.0,0.17573454976081848
1676469336.4534297,412,1676469336,450505018,base_footprint,7,-0.13851446989572683,-0.07656749675114148,-0.010741720889517057,0.9873377210980554,0.0,0.0,0.0,0.17436839640140533
1676469336.463116,413,1676469336,460499763,base_footprint,7,-0.14295214428448655,-0.07957570180878246,-0.011531679047877006,0.9864580135537669,0.0,0.0,0.0,0.17229217290878296
1676469336.4716363,414,1676469336,470626831,base_footprint,7,-0.13513297744955663,-0.07256570986542113,-0.009923948697206137,0.9881168004844368,0.0,0.0,0.0,0.1659560352563858
1676469336.480942,415,1676469336,480211734,base_footprint,7,-0.13807396024443297,-0.07445234758686531,-0.010409373970318879,0.9875647190816252,0.0,0.0,0.0,0.16446936130523682
1676469336.4910512,416,1676469336,490192651,base_footprint,7,-0.14205485466235526,-0.07775288521117577,-0.01119363771316437,0.9867368492069916,0.0,0.0,0.0,0.16230155527591705
1676469336.5006342,417,1676469336,500123977,base_footprint,7,-0.13064400338293553,-0.06989511799984209,-0.009233693002795014,0.9889193879044933,0.0,0.0,0.0,0.156956747174263
1676469336.5109816,418,1676469336,510198593,base_footprint,7,-0.13456729023285244,-0.07251648403517234,-0.009874889180149404,0.9881981028651308,0.0,0.0,0.0,0.15469525754451752
1676469336.5206735,419,1676469336,520129203,base_footprint,7,-0.13701205866310773,-0.07470950261536861,-0.010363641168518954,0.9876936675617556,0.0,0.0,0.0,0.1531306803226471
1676469336.5309424,420,1676469336,530243873,base_footprint,7,-0.12513464150859008,-0.060719482513029326,-0.007672919590515397,0.9902502674792995,0.0,0.0,0.0,0.1494016945362091
1676469336.5419393,421,1676469336,540263414,base_footprint,7,-0.12863260337770346,-0.06344898344117417,-0.008247162972535246,0.9896261234180616,0.0,0.0,0.0,0.14710573852062225
1676469336.55122,422,1676469336,550149679,base_footprint,7,-0.13106545255984103,-0.06503714234443495,-0.00861718318853891,0.9892005668290171,0.0,0.0,0.0,0.14551663398742676
1676469336.5625992,423,1676469336,561983346,base_footprint,7,-0.12160500103975079,-0.05727489179926567,-0.007028877497122759,0.9908997958283344,0.0,0.0,0.0,0.14649967849254608
1676469336.5708835,424,1676469336,570300102,base_footprint,7,-0.12391593583771654,-0.05848778586428383,-0.007316781809429152,0.9905405011679784,0.0,0.0,0.0,0.1448916792869568
1676469336.5809233,425,1676469336,580237865,base_footprint,7,-0.1260813374245171,-0.06013533074484989,-0.007657244667564633,0.9901659481892687,0.0,0.0,0.0,0.14334791898727417
1676469336.5909219,426,1676469336,590110063,base_footprint,7,-0.12876172908053432,-0.06382542565227002,-0.008304769314792373,0.9895846416406864,0.0,0.0,0.0,0.1412314921617508
1676469336.6009862,427,1676469336,600163221,base_footprint,7,-0.11989668234077443,-0.05191373829428123,-0.006278225889015303,0.9914082575910262,0.0,0.0,0.0,0.14570389688014984
1676469336.6113324,428,1676469336,610390186,base_footprint,7,-0.12197520663207248,-0.053047222693212284,-0.006528595876335864,0.9910930423363304,0.0,0.0,0.0,0.14422596991062164
1676469336.6209123,429,1676469336,620219230,base_footprint,7,-0.12461402536239917,-0.055242932679627633,-0.006949074702859823,0.9906418492233747,0.0,0.0,0.0,0.14215511083602905
1676469336.632352,430,1676469336,631450414,base_footprint,7,-0.10864083016310969,-0.04436278299914924,-0.004853199397882708,0.9930788286745645,0.0,0.0,0.0,0.15260212123394012
1676469336.6410718,431,1676469336,640372037,base_footprint,7,-0.11115910223782155,-0.045967140552104414,-0.005147108026802267,0.9927256334245154,0.0,0.0,0.0,0.15069185197353363
1676469336.6514106,432,1676469336,650285243,base_footprint,7,-0.11280977306828305,-0.04716988635296911,-0.0053615330161669306,0.9924818441087208,0.0,0.0,0.0,0.14939387142658234
1676469336.6649282,433,1676469336,662019252,base_footprint,7,-0.10425785502184906,-0.03905376156630647,-0.004097167171798872,0.993774781625561,0.0,0.0,0.0,0.15692688524723053
1676469336.670935,434,1676469336,670058727,base_footprint,7,-0.10577074597416981,-0.04004345987166736,-0.004262816033651196,0.993574807962157,0.0,0.0,0.0,0.15574052929878235
1676469336.681062,435,1676469336,680135488,base_footprint,7,-0.10723116457495221,-0.04094335728386423,-0.004419658102218569,0.993380886397803,0.0,0.0,0.0,0.15456649661064148
1676469336.6926208,436,1676469336,690098285,base_footprint,7,-0.10919215635743625,-0.04229793264530788,-0.004650648116209708,0.9931094246637907,0.0,0.0,0.0,0.15289166569709778
1676469336.70085,437,1676469336,700175285,base_footprint,7,-0.09939922767462267,-0.033478882500563675,-0.003346250928145299,0.9944786375628829,0.0,0.0,0.0,0.15945757925510406
1676469336.7111454,438,1676469336,710393667,base_footprint,7,-0.10060206832211968,-0.03439012844751468,-0.0034794600847940114,0.9943261216885501,0.0,0.0,0.0,0.1583717167377472
1676469336.7207503,439,1676469336,720221757,base_footprint,7,-0.1022368310443801,-0.03551792393637171,-0.0036527213138652865,0.9941190899908603,0.0,0.0,0.0,0.15684394538402557
1676469336.7314017,440,1676469336,730192184,base_footprint,7,-0.08367200865003749,-0.025594405297208224,-0.002149785563835697,0.9961622858791532,0.0,0.0,0.0,0.16368649899959564
1676469336.740882,441,1676469336,740246295,base_footprint,7,-0.08503093652054385,-0.02658338667528629,-0.0022694402759361257,0.9960210404545405,0.0,0.0,0.0,0.16225014626979828
1676469336.7515144,442,1676469336,750207424,base_footprint,7,-0.08587528163850858,-0.027347365700541484,-0.0023580654656275603,0.9959277067739443,0.0,0.0,0.0,0.16124890744686127
1676469336.7652206,443,1676469336,762867450,base_footprint,7,-0.08700507195449204,-0.028153384998530373,-0.0024598013922757364,0.9958069359792733,0.0,0.0,0.0,0.15985742211341858
1676469336.7717273,444,1676469336,770976305,base_footprint,7,-0.07720942572665977,-0.01908407351337532,-0.0014781544238099188,0.9968311380452533,0.0,0.0,0.0,0.16315574944019318
1676469336.7815526,445,1676469336,780211448,base_footprint,7,-0.07785049686987186,-0.019558685948170985,-0.0015275844584142744,0.9967720022286026,0.0,0.0,0.0,0.16220349073410034
1676469336.790906,446,1676469336,790175914,base_footprint,7,-0.07873249346652526,-0.020344204512198684,-0.0016070743885182013,0.996686874162201,0.0,0.0,0.0,0.1608523279428482
1676469336.80135,447,1676469336,800117254,base_footprint,7,-0.06604706602993439,-0.012465545660782486,-0.0008251790251579814,0.9977382995153553,0.0,0.0,0.0,0.16330794990062714
1676469336.8135283,448,1676469336,810233354,base_footprint,7,-0.06668507066181222,-0.013107528584080525,-0.0008761023780605449,0.9976875896240615,0.0,0.0,0.0,0.16200177371501923
1676469336.8208463,449,1676469336,820164918,base_footprint,7,-0.0670323755789972,-0.013527953249061427,-0.0009089389658367164,0.9976586735627991,0.0,0.0,0.0,0.16109710931777954
1676469336.831042,450,1676469336,830186128,base_footprint,7,-0.05427288648554306,-0.0021766004798862318,-0.00011830503722428144,0.9985237614632897,0.0,0.0,0.0,0.1623992919921875
1676469336.8412306,451,1676469336,840161323,base_footprint,7,-0.05456105646703846,-0.0026388385349576287,-0.00014419310744545022,0.9985069388125125,0.0,0.0,0.0,0.16112415492534637
1676469336.8512592,452,1676469336,850166797,base_footprint,7,-0.05472540213829081,-0.003038002176547077,-0.00016650618176961335,0.9984968067947283,0.0,0.0,0.0,0.16025665402412415
1676469336.8630219,453,1676469336,862300157,base_footprint,7,-0.04330127788268361,0.002174989401389327,9.426846224273957e-05,0.9990596878406652,0.0,0.0,0.0,0.16101211309432983
1676469336.871617,454,1676469336,870362520,base_footprint,7,-0.04333759125488185,0.0019443238515312051,8.434171250071159e-05,0.9990585897110642,0.0,0.0,0.0,0.16010527312755585
1676469336.8810496,455,1676469336,880136251,base_footprint,7,-0.04332540644559383,0.0017103140465258842,7.416980442934399e-05,0.9990595470146043,0.0,0.0,0.0,0.15924938023090363
1676469336.891358,456,1676469336,890191316,base_footprint,7,-0.04323214434312969,0.0013213923128228288,5.718013361210144e-05,0.9990641782930076,0.0,0.0,0.0,0.1579887419939041
1676469336.902096,457,1676469336,900626659,base_footprint,7,-0.03418734410826871,0.004728022695542535,0.00016173489319754904,0.999404245111075,0.0,0.0,0.0,0.15830840170383453
1676469336.9113832,458,1676469336,910687923,base_footprint,7,-0.03404335337689494,0.004514395182778822,0.00015377585527415676,0.9994101493781099,0.0,0.0,0.0,0.15743206441402435
1676469336.9212582,459,1676469336,920102834,base_footprint,7,-0.033830159463906766,0.004324228938060688,0.00014637451072427654,0.9994182307368825,0.0,0.0,0.0,0.1565440148115158
1676469336.931282,460,1676469336,930289745,base_footprint,7,-0.023084231577943592,0.012301213362609751,0.0002840612636298351,0.9996578003054155,0.0,0.0,0.0,0.1583583503961563
1676469336.9415545,461,1676469336,940220594,base_footprint,7,-0.022574143794488064,0.012064863464708269,0.0002724432334368567,0.9996723327551924,0.0,0.0,0.0,0.15714316070079803
1676469336.9513113,462,1676469336,950154304,base_footprint,7,-0.022216328234781833,0.011982509954484518,0.00026629223067328885,0.9996813408798841,0.0,0.0,0.0,0.15628181397914886
1676469336.963217,463,1676469336,960975170,base_footprint,7,-0.014158126854108671,0.013864963776870604,0.00019634047399948694,0.9998036165537048,0.0,0.0,0.0,0.15833525359630585
1676469336.971481,464,1676469336,970140933,base_footprint,7,-0.013754107037429788,0.013711844818483063,0.00018862976266986333,0.9998113693442826,0.0,0.0,0.0,0.15754498541355133
1676469336.9825974,465,1676469336,980556249,base_footprint,7,-0.01329435681952038,0.01360852927779652,0.00018094939562193784,0.99981900125221,0.0,0.0,0.0,0.15671704709529877
1676469336.9996743,466,1676469336,990146875,base_footprint,7,-0.012558666536358074,0.013408927008965506,0.00016842667134102376,0.999831211857158,0.0,0.0,0.0,0.1555728018283844
1676469337.0076184,467,1676469337,6157636,base_footprint,7,-0.007518839739413124,0.013980758518474913,0.00010513233053921058,0.9998739892543531,0.0,0.0,0.0,0.1578960120677948
1676469337.011776,468,1676469337,10894536,base_footprint,7,-0.007017123496523428,0.013873717949646782,9.736536096240141e-05,0.9998791279190073,0.0,0.0,0.0,0.1570969521999359
1676469337.0206366,469,1676469337,20085811,base_footprint,7,-0.006221165795077923,0.01370069249977084,8.524393052372506e-05,0.9998867840183954,0.0,0.0,0.0,0.15599463880062103
1676469337.031021,470,1676469337,30143499,base_footprint,7,0.0020753411130772117,0.017340200487841698,-3.599232006483084e-05,0.9998474929262255,0.0,0.0,0.0,0.16095809638500214
1676469337.0421853,471,1676469337,40222406,base_footprint,7,0.0029540395982885653,0.017146049363036497,-5.0657776810854296e-05,0.9998486305811903,0.0,0.0,0.0,0.1599355936050415
1676469337.0510406,472,1676469337,50105571,base_footprint,7,0.003578170278166593,0.017059388642214256,-6.10506726137653e-05,0.9998480735738954,0.0,0.0,0.0,0.15921451151371002
1676469337.0654795,473,1676469337,60870885,base_footprint,7,0.004563592277244201,0.01682437832396791,-7.679127200103806e-05,0.9998480424657737,0.0,0.0,0.0,0.15820695459842682
1676469337.0721667,474,1676469337,70255279,base_footprint,7,0.008246966404301682,0.01683754287098691,-0.00013888306363437838,0.9998242172535574,0.0,0.0,0.0,0.16113168001174927
1676469337.08153,475,1676469337,80534696,base_footprint,7,0.008894323284228258,0.01669900463713304,-0.00014855293821819474,0.9998209900724574,0.0,0.0,0.0,0.1604798287153244
1676469337.0916278,476,1676469337,90735673,base_footprint,7,0.00989113253836582,0.01639532035773867,-0.00016219802575308508,0.999816649520939,0.0,0.0,0.0,0.15951310098171234
1676469337.1014664,477,1676469337,100491285,base_footprint,7,0.011365880360438393,0.016507419422213114,-0.00018765905057138311,0.9997991231501115,0.0,0.0,0.0,0.16143913567066193
1676469337.1110587,478,1676469337,110298633,base_footprint,7,0.012055529287103605,0.01629811664767312,-0.00019652281245527832,0.9997944773732904,0.0,0.0,0.0,0.16078263521194458
1676469337.1213908,479,1676469337,120319604,base_footprint,7,0.013014561122522729,0.01611369925127066,-0.00020975772944862998,0.9997854399304495,0.0,0.0,0.0,0.15984603762626648
1676469337.1350155,480,1676469337,133055925,base_footprint,7,0.01508750627817474,0.01682606317078331,-0.0002539281970148408,0.9997445605118087,0.0,0.0,0.0,0.1626063734292984
1676469337.1455784,481,1676469337,142654895,base_footprint,7,0.01610082765445055,0.016541959896227743,-0.00026641024569641343,0.9997334924554715,0.0,0.0,0.0,0.16171416640281677
1676469337.1514292,482,1676469337,150151014,base_footprint,7,0.016777457394566417,0.016346780127674487,-0.0002743326909977676,0.9997255745675439,0.0,0.0,0.0,0.16109216213226318
1676469337.1625652,483,1676469337,161995410,base_footprint,7,0.0180553923735809,0.014416863063535153,-0.00026037163631946426,0.9997330088940017,0.0,0.0,0.0,0.16276389360427856
1676469337.1725125,484,1676469337,170165300,base_footprint,7,0.018710706719764908,0.014137656731457893,-0.000264598327840709,0.9997249452243928,0.0,0.0,0.0,0.1621549427509308
1676469337.1821427,485,1676469337,181304216,base_footprint,7,0.019335865352079883,0.013928959105434478,-0.0002694049948156884,0.9997159775807697,0.0,0.0,0.0,0.16155795753002167
1676469337.1915975,486,1676469337,190422773,base_footprint,7,0.0202550597474783,0.013521134791745874,-0.00027395265448148175,0.9997033742158283,0.0,0.0,0.0,0.1607152223587036
1676469337.2012665,487,1676469337,200381755,base_footprint,7,0.019257412173305795,0.012156556971687368,-0.00023416456486969188,0.999740624045026,0.0,0.0,0.0,0.16174188256263733
1676469337.2115338,488,1676469337,210532188,base_footprint,7,0.019876852144660746,0.01186585284763889,-0.00023591903071613617,0.9997319923995772,0.0,0.0,0.0,0.16116124391555786
1676469337.221369,489,1676469337,220246315,base_footprint,7,0.02070471759944372,0.011474586107962618,-0.00023764466324489346,0.999719756765761,0.0,0.0,0.0,0.16028979420661926
1676469337.2327323,490,1676469337,230223894,base_footprint,7,0.01916295770570304,0.010147992413371979,-0.0001945112881442677,0.9997648530866177,0.0,0.0,0.0,0.1607769876718521
1676469337.2407217,491,1676469337,240212917,base_footprint,7,0.01993366144282825,0.00984473155993445,-0.00019629006579540816,0.999752815385986,0.0,0.0,0.0,0.15992248058319092
1676469337.2510197,492,1676469337,250179529,base_footprint,7,0.0204723559174193,0.009500728952070825,-0.00019455186510821125,0.9997452580243337,0.0,0.0,0.0,0.15933355689048767
1676469337.2628248,493,1676469337,260384082,base_footprint,7,0.019487809682951076,0.007982924179924933,-0.00015560421821846754,0.9997782123964425,0.0,0.0,0.0,0.16035521030426025
1676469337.2707126,494,1676469337,270081520,base_footprint,7,0.020169349636543883,0.007601242262975455,-0.00015334774008096696,0.9997676704793814,0.0,0.0,0.0,0.15950630605220795
1676469337.2821288,495,1676469337,280071258,base_footprint,7,0.020630777511937207,0.007272274531109894,-0.00015006858887579955,0.9997607026292921,0.0,0.0,0.0,0.15894857048988342
1676469337.2922757,496,1676469337,290091276,base_footprint,7,0.021277918614444467,0.006707632206791173,-0.00014275998690042933,0.9997510877559482,0.0,0.0,0.0,0.15810945630073547
1676469337.3015475,497,1676469337,300385236,base_footprint,7,0.019653489566594646,0.005637952223158709,-0.00011082860403322062,0.9997909489286276,0.0,0.0,0.0,0.1599971354007721
1676469337.3111231,498,1676469337,310456275,base_footprint,7,0.020031103969702976,0.0053018708411602935,-0.00010622513324490408,0.9997852938284097,0.0,0.0,0.0,0.15943442285060883
1676469337.3209407,499,1676469337,320224046,base_footprint,7,0.020520137447958577,0.0048044962614476605,-9.86108260189584e-05,0.9997778908591125,0.0,0.0,0.0,0.1586383730173111
1676469337.3343055,500,1676469337,330124139,base_footprint,7,0.0162512656255011,0.0035019918752045814,-5.691966619326694e-05,0.9998618050403901,0.0,0.0,0.0,0.1616983860731125
1676469337.3419576,501,1676469337,340847253,base_footprint,7,0.016646212004771985,0.0029655297082248444,-4.937189427794141e-05,0.9998570431926045,0.0,0.0,0.0,0.16094650328159332
1676469337.3516204,502,1676469337,350376129,base_footprint,7,0.016889089530110188,0.0026014967823921784,-4.394332850757261e-05,0.9998539838087954,0.0,0.0,0.0,0.16040651500225067
1676469337.362599,503,1676469337,361226797,base_footprint,7,0.014191254831593393,0.001839947431339601,-2.6113836778823013e-05,0.9998976058566309,0.0,0.0,0.0,0.1627708375453949
1676469337.3716557,504,1676469337,370517969,base_footprint,7,0.014399716683236308,0.0014345570087531039,-2.0659377747685315e-05,0.9998952894072566,0.0,0.0,0.0,0.1622854322195053
1676469337.381658,505,1676469337,380740642,base_footprint,7,0.014568956634412475,0.0010663549882199098,-1.5537337439317408e-05,0.9998932983814897,0.0,0.0,0.0,0.16180019080638885
1676469337.3909936,506,1676469337,390255451,base_footprint,7,0.014779369475539128,0.0004738343114485202,-7.003738099776985e-06,0.9998906668580813,0.0,0.0,0.0,0.1610967218875885
1676469337.4018338,507,1676469337,400359153,base_footprint,7,0.012115917821908757,-0.0006839652738886985,8.287477294743175e-06,0.9999263656180661,0.0,0.0,0.0,0.16298556327819824
1676469337.4117362,508,1676469337,410228013,base_footprint,7,0.012214735855603728,-0.0010739981376308302,1.3119589885225475e-05,0.9999248204659462,0.0,0.0,0.0,0.16253237426280975
1676469337.421555,509,1676469337,420715808,base_footprint,7,0.012306296959299579,-0.0016732291501412155,2.0592843036044184e-05,0.9999228744934759,0.0,0.0,0.0,0.16185849905014038
1676469337.4310255,510,1676469337,430163860,base_footprint,7,0.006732579927543632,-0.0016309286248239754,1.0980620793172293e-05,0.9999760058715239,0.0,0.0,0.0,0.16371746361255646
1676469337.4411416,511,1676469337,440048694,base_footprint,7,0.006732323051477054,-0.0023350509837650117,1.5720716693945315e-05,0.9999746112357517,0.0,0.0,0.0,0.1630759984254837
1676469337.4520385,512,1676469337,450483083,base_footprint,7,0.0066712785973310216,-0.0027147822762656044,1.8111538682226406e-05,0.9999740614991179,0.0,0.0,0.0,0.16260908544063568
1676469337.4610188,513,1676469337,460230588,base_footprint,7,0.002974591877218898,-0.0029669092339804945,8.825421996177984e-06,0.9999911745484923,0.0,0.0,0.0,0.16383947432041168
1676469337.4718497,514,1676469337,470109224,base_footprint,7,0.002821203898977285,-0.003615203412091454,1.0199333203196161e-05,0.9999894854491338,0.0,0.0,0.0,0.16321800649166107
1676469337.480807,515,1676469337,480151414,base_footprint,7,0.0027080259210361442,-0.004055545047271566,1.0982651701776373e-05,0.9999881094439883,0.0,0.0,0.0,0.1627431958913803
1676469337.4942784,516,1676469337,490505695,base_footprint,7,0.0025117004338858695,-0.00472627578755076,1.1871158980830406e-05,0.999985676666014,0.0,0.0,0.0,0.16212983429431915
1676469337.5016415,517,1676469337,500415802,base_footprint,7,-0.0006064352135996518,-0.004691086235575462,-2.8448717091313717e-06,0.9999888129065089,0.0,0.0,0.0,0.1625804752111435
1676469337.5110972,518,1676469337,510123252,base_footprint,7,-0.0007946958545307612,-0.005156541589260535,-4.097938001047946e-06,0.9999863891676446,0.0,0.0,0.0,0.16213050484657288
1676469337.522254,519,1676469337,521004438,base_footprint,7,-0.0011324612282960335,-0.005804642939665277,-6.573648035521479e-06,0.9999825116514272,0.0,0.0,0.0,0.16150331497192383
1676469337.5313768,520,1676469337,530325412,base_footprint,7,-0.004649652134500037,-0.005440945583943743,-2.529915221565956e-05,0.9999743877750737,0.0,0.0,0.0,0.16183197498321533
1676469337.5416162,521,1676469337,540236949,base_footprint,7,-0.005096807285745297,-0.006105401902126854,-3.1119041120013723e-05,0.9999683723272006,0.0,0.0,0.0,0.16118544340133667
1676469337.5534205,522,1676469337,550430297,base_footprint,7,-0.005371865993494557,-0.006571114859704357,-3.530041995834487e-05,0.9999639804808617,0.0,0.0,0.0,0.16071437299251556
1676469337.562297,523,1676469337,560436487,base_footprint,7,-0.00568578901472283,-0.007000360519896621,-3.980419170959698e-05,0.999959331758796,0.0,0.0,0.0,0.16027449071407318
1676469337.5714357,524,1676469337,570448160,base_footprint,7,-0.009033780107390511,-0.007349931420211716,-6.640216763910051e-05,0.9999321801581553,0.0,0.0,0.0,0.15972505509853363
1676469337.5818634,525,1676469337,580722332,base_footprint,7,-0.00942288384388015,-0.007801221821851286,-7.351550826275663e-05,0.9999251695970159,0.0,0.0,0.0,0.1592632681131363
1676469337.5911899,526,1676469337,590309143,base_footprint,7,-0.010003974850730289,-0.008478543105869705,-8.482642621768277e-05,0.9999140101021013,0.0,0.0,0.0,0.15859673917293549
1676469337.6014216,527,1676469337,600090026,base_footprint,7,-0.013291496186747897,-0.00796324217681093,-0.00010585611119706514,0.9998799486426532,0.0,0.0,0.0,0.15892599523067474
1676469337.6113248,528,1676469337,610170602,base_footprint,7,-0.013738725439932275,-0.008396044382464489,-0.00011536590437188866,0.9998703618733391,0.0,0.0,0.0,0.1584605574607849
1676469337.6210098,529,1676469337,620382070,base_footprint,7,-0.014392386484200227,-0.009037411636948054,-0.00013008870937746336,0.9998555733100263,0.0,0.0,0.0,0.15780353546142578
1676469337.6318612,530,1676469337,630771875,base_footprint,7,-0.01791369703312084,-0.007843159033671533,-0.0001405268485044601,0.9998087639979872,0.0,0.0,0.0,0.15970191359519958
1676469337.6407685,531,1676469337,640153408,base_footprint,7,-0.018633747903063852,-0.008452908029477502,-0.0001575423416625724,0.9997906315650997,0.0,0.0,0.0,0.15907466411590576
1676469337.6509805,532,1676469337,650377988,base_footprint,7,-0.01910705856993448,-0.008898766330852141,-0.00017006703378796002,0.9997778269934765,0.0,0.0,0.0,0.1586368829011917
1676469337.6628664,533,1676469337,661957025,base_footprint,7,-0.021755781006975186,-0.00904819696832525,-0.00019690526247106665,0.9997223501316336,0.0,0.0,0.0,0.1602497398853302
1676469337.6724703,534,1676469337,670659780,base_footprint,7,-0.0224928511311597,-0.00964538173325939,-0.00021701714275903152,0.9997004507164989,0.0,0.0,0.0,0.1596408486366272
1676469337.681461,535,1676469337,680232763,base_footprint,7,-0.023040505511282096,-0.01008391397858911,-0.00023241199963583602,0.9996836478453169,0.0,0.0,0.0,0.1592143326997757
1676469337.6908894,536,1676469337,690165042,base_footprint,7,-0.02383442224217343,-0.01069622462241883,-0.0002550253831947315,0.9996586647737629,0.0,0.0,0.0,0.1586472988128662
1676469337.7008128,537,1676469337,700120687,base_footprint,7,-0.026112497310624056,-0.009262792305591622,-0.00024196753870830526,0.9996160661046902,0.0,0.0,0.0,0.1603328436613083
1676469337.7111073,538,1676469337,710345029,base_footprint,7,-0.026670946464720836,-0.009642482918080942,-0.0002572776413993055,0.9995977275614756,0.0,0.0,0.0,0.15994761884212494
1676469337.7210226,539,1676469337,720319747,base_footprint,7,-0.02750307100446808,-0.010266656387234013,-0.0002824863437454705,0.9995689556270819,0.0,0.0,0.0,0.15940816700458527
1676469337.731165,540,1676469337,730188608,base_footprint,7,-0.026016200445816724,-0.0095857968396293,-0.0002494819303610243,0.9996155298774019,0.0,0.0,0.0,0.16238613426685333
1676469337.740979,541,1676469337,740245342,base_footprint,7,-0.026873554906340483,-0.010143968530553585,-0.0002727170364206095,0.9995873336405204,0.0,0.0,0.0,0.16185997426509857
1676469337.750861,542,1676469337,750278472,base_footprint,7,-0.027450976681894484,-0.010505760216010268,-0.000288518046940722,0.9995679014648431,0.0,0.0,0.0,0.1614866703748703
1676469337.7618823,543,1676469337,760702133,base_footprint,7,-0.029202025720063886,-0.009065675269420342,-0.00026485993534151425,0.9995323832047508,0.0,0.0,0.0,0.16230635344982147
1676469337.771462,544,1676469337,770123243,base_footprint,7,-0.029806856935013074,-0.009362253647871077,-0.0002791956607398022,0.9995117915943121,0.0,0.0,0.0,0.16192199289798737
1676469337.7809892,545,1676469337,780137062,base_footprint,7,-0.030390778248282062,-0.009763315424701708,-0.0002968660473069605,0.9994903652061543,0.0,0.0,0.0,0.1615668535232544
1676469337.7910051,546,1676469337,790163278,base_footprint,7,-0.031298502905129776,-0.010283566587906844,-0.00032203506293887815,0.9994571267781065,0.0,0.0,0.0,0.1610517054796219
1676469337.8018875,547,1676469337,801170110,base_footprint,7,-0.031007261863008603,-0.00942587563990523,-0.00029242421330624355,0.9994746705486134,0.0,0.0,0.0,0.16176018118858337
1676469337.8111901,548,1676469337,810522556,base_footprint,7,-0.03163089799746675,-0.00978132917187447,-0.00030956195574596043,0.9994517077192379,0.0,0.0,0.0,0.16140809655189514
1676469337.8220217,549,1676469337,820145845,base_footprint,7,-0.03253911736581919,-0.010267290215546033,-0.00033428322488102157,0.9994176688689314,0.0,0.0,0.0,0.16088929772377014
1676469337.8311665,550,1676469337,830085515,base_footprint,7,-0.0326377080745156,-0.008533247527423985,-0.0002786642627158319,0.9994307810171283,0.0,0.0,0.0,0.16255953907966614
1676469337.840692,551,1676469337,840199470,base_footprint,7,-0.03353412629777512,-0.008969551012336869,-0.0003009674562384587,0.9993972778363328,0.0,0.0,0.0,0.1620752513408661
1676469337.8520453,552,1676469337,850265502,base_footprint,7,-0.03413364937039965,-0.00929737578176599,-0.0003175521589952584,0.9993739800219223,0.0,0.0,0.0,0.16172349452972412
1676469337.8672955,553,1676469337,863924264,base_footprint,7,-0.03500346039903491,-0.009708617115883654,-0.00034005964274019465,0.9993399746198637,0.0,0.0,0.0,0.16123855113983154
1676469337.8771043,554,1676469337,872770547,base_footprint,7,-0.03507969461848973,-0.007585101097336778,-0.00026625457860232485,0.9993556976248827,0.0,0.0,0.0,0.16234375536441803
1676469337.88234,555,1676469337,880887746,base_footprint,7,-0.03565222059082266,-0.007862145028764657,-0.00028048993395232745,0.9993332913337206,0.0,0.0,0.0,0.16199293732643127
1676469337.8908339,556,1676469337,890166044,base_footprint,7,-0.03654690359109147,-0.00830864853714669,-0.00030386888990478593,0.9992973520734894,0.0,0.0,0.0,0.16154560446739197
1676469337.9007056,557,1676469337,900062322,base_footprint,7,-0.034513361668625404,-0.007638840100911308,-0.00026380692838048273,0.9993750078895048,0.0,0.0,0.0,0.1625872552394867
1676469337.9110546,558,1676469337,910363912,base_footprint,7,-0.035346998421412076,-0.008050862386430865,-0.0002847610133982653,0.9993426300466706,0.0,0.0,0.0,0.1621125042438507
1676469337.920889,559,1676469337,920248508,base_footprint,7,-0.03592167487197582,-0.008330430657619922,-0.00029944669255280236,0.9993198424584239,0.0,0.0,0.0,0.1617894172668457
1676469337.9314048,560,1676469337,930443048,base_footprint,7,-0.037551772781222285,-0.006567009508811691,-0.0002467822411786105,0.9992730747126253,0.0,0.0,0.0,0.16205838322639465
1676469337.9409707,561,1676469337,940215587,base_footprint,7,-0.038405541228870424,-0.006946303269470673,-0.00026697996045811715,0.9992380557182092,0.0,0.0,0.0,0.16160964965820312
1676469337.9510417,562,1676469337,950141429,base_footprint,7,-0.03892433566729302,-0.007180740658474264,-0.00027972477434954864,0.9992163203283392,0.0,0.0,0.0,0.1612321436405182
1676469337.96247,563,1676469337,961451053,base_footprint,7,-0.03974230440859815,-0.007567603967328601,-0.0003010004616803844,0.9991812598368777,0.0,0.0,0.0,0.16080015897750854
1676469337.9706702,564,1676469337,970097064,base_footprint,7,-0.03799432396754467,-0.00542872760067899,-0.00020641292283783916,0.999263187381879,0.0,0.0,0.0,0.1617993712425232
1676469337.982474,565,1676469337,980180978,base_footprint,7,-0.03851229981737357,-0.005662988638854047,-0.00021826014537628527,0.9992420556026262,0.0,0.0,0.0,0.16146114468574524
1676469337.992406,566,1676469337,990522623,base_footprint,7,-0.0392459699586354,-0.00603012137841908,-0.00023684474848549252,0.9992113567122486,0.0,0.0,0.0,0.16102495789527893
1676469338.0027044,567,1676469338,1837968,base_footprint,7,-0.03611836107998351,-0.006189395028132653,-0.000223701058431911,0.9993283270977151,0.0,0.0,0.0,0.1619805246591568
1676469338.0111642,568,1676469338,10244607,base_footprint,7,-0.03677599931214321,-0.006546343921842369,-0.00024091648408294052,0.9993020630495555,0.0,0.0,0.0,0.16152988374233246
1676469338.021142,569,1676469338,20463466,base_footprint,7,-0.0374889084422434,-0.006871361558648113,-0.0002577871561395274,0.9992733858559036,0.0,0.0,0.0,0.16109295189380646
1676469338.0312505,570,1676469338,30287027,base_footprint,7,-0.03846091192820743,-0.005326922172197163,-0.00020503290275446288,0.9992458857134868,0.0,0.0,0.0,0.16129566729068756
1676469338.0406337,571,1676469338,40029764,base_footprint,7,-0.03910401669705551,-0.005665741802221682,-0.00022172641748335284,0.9992190581075716,0.0,0.0,0.0,0.16085581481456757
1676469338.0508451,572,1676469338,50214767,base_footprint,7,-0.0395461102896162,-0.005806600681126461,-0.00022981212563784223,0.9992008485464162,0.0,0.0,0.0,0.16053369641304016
1676469338.0657887,573,1676469338,63128232,base_footprint,7,-0.03676133089058637,-0.005305129946387818,-0.00019515830188177548,0.9993099729616641,0.0,0.0,0.0,0.16133642196655273
1676469338.0708015,574,1676469338,70209026,base_footprint,7,-0.037341839887337844,-0.005585247809050409,-0.00020871225795807613,0.999286919978408,0.0,0.0,0.0,0.16090081632137299
1676469338.0808735,575,1676469338,80232143,base_footprint,7,-0.03773147602102992,-0.005671431739243114,-0.00021414743343041816,0.999271797220445,0.0,0.0,0.0,0.16057181358337402
1676469338.0914242,576,1676469338,90272426,base_footprint,7,-0.038312489337677655,-0.005941107810646515,-0.00022778990041238102,0.999248119593174,0.0,0.0,0.0,0.16014257073402405
1676469338.1028843,577,1676469338,101696491,base_footprint,7,-0.037894217748671695,-0.006174763663096587,-0.00023416049679940808,0.9992626510201323,0.0,0.0,0.0,0.1606241911649704
1676469338.1112561,578,1676469338,110338449,base_footprint,7,-0.03839739121933196,-0.006381063013850754,-0.0002452020007562424,0.9992421439562794,0.0,0.0,0.0,0.16017942130565643
1676469338.1214402,579,1676469338,120297908,base_footprint,7,-0.038757906526343325,-0.0065975551518566,-0.0002559052875410325,0.9992268168239868,0.0,0.0,0.0,0.1598730832338333
1676469338.132691,580,1676469338,130169153,base_footprint,7,-0.033653367292121414,-0.007075030157883539,-0.00023823950858331035,0.9994084940904311,0.0,0.0,0.0,0.16059529781341553
1676469338.1409702,581,1676469338,140146255,base_footprint,7,-0.03409804773871412,-0.00727156818154702,-0.0002480971200253379,0.9993920081151382,0.0,0.0,0.0,0.1601642519235611
1676469338.1512246,582,1676469338,150182723,base_footprint,7,-0.034392457177000665,-0.007441224464250919,-0.0002560805923908607,0.9993806689597968,0.0,0.0,0.0,0.1598653495311737
1676469338.1618574,583,1676469338,160362958,base_footprint,7,-0.03354801891626135,-0.007561819046662158,-0.0002538341996003633,0.9994084674884934,0.0,0.0,0.0,0.16006118059158325
1676469338.1715345,584,1676469338,170554161,base_footprint,7,-0.03396177668097086,-0.007792817711488893,-0.0002648187551858128,0.9993927153966123,0.0,0.0,0.0,0.15964123606681824
1676469338.1814482,585,1676469338,180649995,base_footprint,7,-0.03437268563116995,-0.008021465308385432,-0.0002758912255633587,0.999376855075621,0.0,0.0,0.0,0.15921857953071594
1676469338.1911259,586,1676469338,190427064,base_footprint,7,-0.03462541972127056,-0.00814384885010318,-0.0002821627543975664,0.999367138953054,0.0,0.0,0.0,0.15890531241893768
1676469338.2008767,587,1676469338,200215578,base_footprint,7,-0.034531247097778876,-0.006756318811939237,-0.00023344867662304758,0.9993807535827868,0.0,0.0,0.0,0.15887945890426636
1676469338.2128587,588,1676469338,210647106,base_footprint,7,-0.03478584764762054,-0.00686235568584856,-0.0002388630564298619,0.999371200216575,0.0,0.0,0.0,0.1585593819618225
1676469338.2208061,589,1676469338,220145463,base_footprint,7,-0.03516325340178937,-0.007044196533495606,-0.00024785630752646834,0.9993567248348559,0.0,0.0,0.0,0.15812592208385468
1676469338.2306347,590,1676469338,230121612,base_footprint,7,-0.03175430770370941,-0.005746503228271954,-0.0001825713206215582,0.9994791685225952,0.0,0.0,0.0,0.1601826697587967
1676469338.2408032,591,1676469338,240177154,base_footprint,7,-0.03201513318822723,-0.005961060583309451,-0.00019094542795777068,0.9994695896041589,0.0,0.0,0.0,0.1597670018672943
1676469338.2519808,592,1676469338,250151395,base_footprint,7,-0.03221356511648999,-0.006060378273502197,-0.00019533135817838152,0.9994626155506409,0.0,0.0,0.0,0.15947940945625305
1676469338.2635758,593,1676469338,261154651,base_footprint,7,-0.031000995689792085,-0.006186177838565418,-0.0001918735725669311,0.9995001914229548,0.0,0.0,0.0,0.16004426777362823
1676469338.2709029,594,1676469338,270078420,base_footprint,7,-0.031171324766066415,-0.006291985377252275,-0.00019622876573759302,0.999494232562956,0.0,0.0,0.0,0.1597798466682434
1676469338.2808526,595,1676469338,280132532,base_footprint,7,-0.03135510682949183,-0.006418997147604615,-0.00020137150888670864,0.9994876753621554,0.0,0.0,0.0,0.15951202809810638
1676469338.294653,596,1676469338,290168046,base_footprint,7,-0.03155535227859139,-0.006547110575157529,-0.00020670375467775215,0.9994805412609333,0.0,0.0,0.0,0.1591426283121109
1676469338.301265,597,1676469338,300506830,base_footprint,7,-0.030889802645881318,-0.0030735214969948733,-9.498624956015791e-05,0.9995180661377354,0.0,0.0,0.0,0.1606520116329193
1676469338.3112953,598,1676469338,310830116,base_footprint,7,-0.031067392808461835,-0.003179984563967792,-9.884204189916107e-05,0.9995122285557634,0.0,0.0,0.0,0.16030411422252655
1676469338.3208728,599,1676469338,320136308,base_footprint,7,-0.031187759709347174,-0.003284961938882633,-0.00010250101974365929,0.999508140118385,0.0,0.0,0.0,0.16005636751651764
1676469338.330915,600,1676469338,330216407,base_footprint,7,-0.02971753000777143,-0.0027513890703093668,-8.180092576259261e-05,0.9995545465741374,0.0,0.0,0.0,0.1609540432691574
1676469338.3409681,601,1676469338,340455055,base_footprint,7,-0.029868936301052966,-0.0028435655673335987,-8.497253552196596e-05,0.9995497754283057,0.0,0.0,0.0,0.16063477098941803
1676469338.3510485,602,1676469338,350161552,base_footprint,7,-0.029985654779019686,-0.0029284853725450766,-8.785243330660858e-05,0.9995460353394666,0.0,0.0,0.0,0.16039171814918518
1676469338.36228,603,1676469338,360475063,base_footprint,7,-0.030119798717001097,-0.0030210158316726432,-9.10341072949788e-05,0.9995417264433654,0.0,0.0,0.0,0.1600319743156433
1676469338.3709383,604,1676469338,370167970,base_footprint,7,-0.029004532691232356,-0.0028499594212941922,-8.269686969543207e-05,0.9995752137662719,0.0,0.0,0.0,0.16073867678642273
1676469338.3818905,605,1676469338,380382061,base_footprint,7,-0.029092495019535265,-0.002932511625438299,-8.535057418439498e-05,0.9995724184992223,0.0,0.0,0.0,0.16052649915218353
1676469338.3910177,606,1676469338,390111923,base_footprint,7,-0.02914853602254293,-0.0030105247259905044,-8.779008954890353e-05,0.9995705537287084,0.0,0.0,0.0,0.16020549833774567
1676469338.4012825,607,1676469338,400372505,base_footprint,7,-0.027423890267927825,-0.0028657890494762877,-7.86209774265678e-05,0.9996197833748782,0.0,0.0,0.0,0.16100910305976868
1676469338.4118972,608,1676469338,410399675,base_footprint,7,-0.027480613749882872,-0.002943517286415788,-8.092057330945616e-05,0.9996179995507158,0.0,0.0,0.0,0.16070105135440826
1676469338.4208312,609,1676469338,420132160,base_footprint,7,-0.027531349253066276,-0.0029560421944273877,-8.141504731921886e-05,0.9996165664865906,0.0,0.0,0.0,0.1604822427034378
1676469338.4318533,610,1676469338,430275678,base_footprint,7,-0.028117680200037274,-0.0019838837911570818,-5.5804383886270404e-05,0.9996026496319137,0.0,0.0,0.0,0.1606541872024536
1676469338.440699,611,1676469338,440079212,base_footprint,7,-0.02816045290427103,-0.0020554631295775757,-5.790585967543167e-05,0.9996013008247142,0.0,0.0,0.0,0.1603405773639679
1676469338.4511902,612,1676469338,450375080,base_footprint,7,-0.02820521503255622,-0.0020888666529462366,-5.894051112332989e-05,0.9995999694913408,0.0,0.0,0.0,0.16012173891067505
1676469338.4629138,613,1676469338,462031602,base_footprint,7,-0.025914205092621056,-0.0015270246070354383,-3.9584968843422493e-05,0.9996630035183344,0.0,0.0,0.0,0.16111725568771362
1676469338.4722826,614,1676469338,470175266,base_footprint,7,-0.025914404226459808,-0.0015293437608507937,-3.9645393123203476e-05,0.9996629948084963,0.0,0.0,0.0,0.16089828312397003
1676469338.4813726,615,1676469338,480125665,base_footprint,7,-0.025919603813229917,-0.0015330862298055812,-3.97503893621692e-05,0.9996628542687198,0.0,0.0,0.0,0.16066977381706238
1676469338.4910762,616,1676469338,490266561,base_footprint,7,-0.025917359041384123,-0.0015810195219126617,-4.098967077008086e-05,0.9996628377595308,0.0,0.0,0.0,0.16042259335517883
1676469338.5013974,617,1676469338,500109195,base_footprint,7,-0.025976102298396846,-0.001712218189484638,-4.4491833272269095e-05,0.9996610967916735,0.0,0.0,0.0,0.16159687936306
1676469338.511499,618,1676469338,510862827,base_footprint,7,-0.025952550942055713,-0.0017056070023833867,-4.427983160654868e-05,0.9996617198050799,0.0,0.0,0.0,0.16141486167907715
1676469338.5211174,619,1676469338,520514488,base_footprint,7,-0.025917028083029606,-0.00173035374386885,-4.486076264679711e-05,0.9996625988396168,0.0,0.0,0.0,0.16114576160907745
1676469338.5312052,620,1676469338,530168294,base_footprint,7,-0.027037842308699805,-0.0005125578902823614,-1.3863529592502714e-05,0.9996342792119034,0.0,0.0,0.0,0.16208873689174652
1676469338.5408661,621,1676469338,540070056,base_footprint,7,-0.02700842814377678,-0.0004984036432872348,-1.3466012983200343e-05,0.9996350815280931,0.0,0.0,0.0,0.16185113787651062
1676469338.5510874,622,1676469338,550296545,base_footprint,7,-0.02698322742768045,-0.0005000450282185814,-1.3497745122040513e-05,0.9996357612702572,0.0,0.0,0.0,0.1616991013288498
1676469338.56352,623,1676469338,562678575,base_footprint,7,-0.02694647673746709,-0.0005162107651071197,-1.3915116117654915e-05,0.9996367443848053,0.0,0.0,0.0,0.16147582232952118
1676469338.5710533,624,1676469338,570129632,base_footprint,7,-0.023453655815705837,-0.0011669651799739542,-2.7377149100950803e-05,0.999724243715055,0.0,0.0,0.0,0.1626185029745102
1676469338.5812852,625,1676469338,580207347,base_footprint,7,-0.02340180285154445,-0.00115577229907689,-2.705458272860219e-05,0.9997254718580194,0.0,0.0,0.0,0.16245490312576294
1676469338.590839,626,1676469338,590240001,base_footprint,7,-0.023328935578268012,-0.0011300609389196144,-2.6370312551257472e-05,0.999727204307088,0.0,0.0,0.0,0.1622469127178192
1676469338.601254,627,1676469338,600164175,base_footprint,7,-0.025396430736887996,-0.0009291106907791537,-2.3603718678664947e-05,0.9996770265950974,0.0,0.0,0.0,0.16306841373443604
1676469338.6111887,628,1676469338,610599517,base_footprint,7,-0.025373110263390418,-0.0009061857976245422,-2.300016649985442e-05,0.9996776398288871,0.0,0.0,0.0,0.16291843354701996
1676469338.6218467,629,1676469338,621192932,base_footprint,7,-0.025332655879397863,-0.0008856139493844552,-2.244216444280123e-05,0.9996786842432812,0.0,0.0,0.0,0.1627344936132431
1676469338.6340494,630,1676469338,632816076,base_footprint,7,-0.025946475121000328,0.0005823531893677002,1.5115103853660013e-05,0.9996631638032342,0.0,0.0,0.0,0.16322286427021027
1676469338.642476,631,1676469338,641461849,base_footprint,7,-0.025893783742354088,0.0005901028111412914,1.5285122346488955e-05,0.9996645254826948,0.0,0.0,0.0,0.16304555535316467
1676469338.6508532,632,1676469338,650217294,base_footprint,7,-0.0258586475461688,0.000588054452684313,1.521138200787898e-05,0.9996654361873564,0.0,0.0,0.0,0.16290657222270966
