Time,header.seq,header.stamp.secs,header.stamp.nsecs,header.frame_id,magnetic_field.x,magnetic_field.y,magnetic_field.z,magnetic_field_covariance_0,magnetic_field_covariance_1,magnetic_field_covariance_2,magnetic_field_covariance_3,magnetic_field_covariance_4,magnetic_field_covariance_5,magnetic_field_covariance_6,magnetic_field_covariance_7,magnetic_field_covariance_8
1676469335.1215498,10415,1676469334,654878056,base_link,1.3472439348697664e-05,1.421363055706024e-05,-2.7945894002914433e-05,-1.0,0.0,0.0,0.0,0.0,0.0,0.0,0.0,0.0
1676469335.1216223,10416,1676469334,674866920,base_link,1.3369864225387573e-05,1.4227983355522152e-05,-2.8139346837997443e-05,-1.0,0.0,0.0,0.0,0.0,0.0,0.0,0.0,0.0
1676469335.1217163,10417,1676469334,694850920,base_link,1.3549864292144776e-05,1.4079505205154416e-05,-2.7998182177543645e-05,-1.0,0.0,0.0,0.0,0.0,0.0,0.0,0.0,0.0
1676469335.1218643,10418,1676469334,714833920,base_link,1.338699758052826e-05,1.4172029495239255e-05,-2.7738758921623236e-05,-1.0,0.0,0.0,0.0,0.0,0.0,0.0,0.0,0.0
1676469335.121929,10419,1676469334,729820920,base_link,1.3373725116252899e-05,1.4052560925483701e-05,-2.778391540050507e-05,-1.0,0.0,0.0,0.0,0.0,0.0,0.0,0.0,0.0
1676469335.122003,10420,1676469334,754798920,base_link,1.3339762389659882e-05,1.4292162656784055e-05,-2.773075699806214e-05,-1.0,0.0,0.0,0.0,0.0,0.0,0.0,0.0,0.0
1676469335.1220927,10421,1676469334,774785456,base_link,1.3326872885227204e-05,1.4218382537364957e-05,-2.770641148090363e-05,-1.0,0.0,0.0,0.0,0.0,0.0,0.0,0.0,0.0
1676469335.1221378,10422,1676469334,789769456,base_link,1.3331589102745057e-05,1.4082527160644528e-05,-2.773935198783875e-05,-1.0,0.0,0.0,0.0,0.0,0.0,0.0,0.0,0.0
1676469335.1222239,10423,1676469334,814754456,base_link,1.3340175151824952e-05,1.4338594675064084e-05,-2.768006026744843e-05,-1.0,0.0,0.0,0.0,0.0,0.0,0.0,0.0,0.0
1676469335.1223228,10424,1676469334,834731456,base_link,1.3423804938793183e-05,1.4232370257377621e-05,-2.7619200944900518e-05,-1.0,0.0,0.0,0.0,0.0,0.0,0.0,0.0,0.0
1676469335.1223767,10425,1676469334,849717456,base_link,1.3368615508079529e-05,1.4154404401779173e-05,-2.7707460522651677e-05,-1.0,0.0,0.0,0.0,0.0,0.0,0.0,0.0,0.0
1676469335.1224713,10426,1676469334,874698248,base_link,1.3362142443656922e-05,1.410180181264877e-05,-2.7808350324630743e-05,-1.0,0.0,0.0,0.0,0.0,0.0,0.0,0.0,0.0
1676469335.122563,10427,1676469334,894682248,base_link,1.3386993110179901e-05,1.4147928357124326e-05,-2.7945980429649356e-05,-1.0,0.0,0.0,0.0,0.0,0.0,0.0,0.0,0.0
1676469335.1226368,10428,1676469334,914664248,base_link,1.3381943106651307e-05,1.4269274473190305e-05,-2.775015234947205e-05,-1.0,0.0,0.0,0.0,0.0,0.0,0.0,0.0,0.0
1676469335.1227202,10429,1676469334,929651248,base_link,1.3356995582580568e-05,1.4226758480072019e-05,-2.749959826469422e-05,-1.0,0.0,0.0,0.0,0.0,0.0,0.0,0.0,0.0
1676469335.1228,10430,1676469334,954630248,base_link,1.3442517817020417e-05,1.430637091398239e-05,-2.7442908287048346e-05,-1.0,0.0,0.0,0.0,0.0,0.0,0.0,0.0,0.0
1676469335.122989,10431,1676469334,974615808,base_link,1.3399952650070192e-05,1.4259469509124753e-05,-2.77002364397049e-05,-1.0,0.0,0.0,0.0,0.0,0.0,0.0,0.0,0.0
1676469335.1230626,10432,1676469334,994597808,base_link,1.341567635536194e-05,1.3999873399734495e-05,-2.786636352539063e-05,-1.0,0.0,0.0,0.0,0.0,0.0,0.0,0.0,0.0
1676469335.1241622,10433,1676469335,14581808,base_link,1.3391831517219543e-05,1.4009204506874081e-05,-2.8110650181770328e-05,-1.0,0.0,0.0,0.0,0.0,0.0,0.0,0.0,0.0
1676469335.1243176,10434,1676469335,34564808,base_link,1.3465572893619538e-05,1.4145031571388242e-05,-2.7846279740333563e-05,-1.0,0.0,0.0,0.0,0.0,0.0,0.0,0.0,0.0
1676469335.1244986,10435,1676469335,74531856,base_link,1.3363659381866456e-05,1.425412595272064e-05,-2.7781543135643012e-05,-1.0,0.0,0.0,0.0,0.0,0.0,0.0,0.0,0.0
1676469335.1270537,10436,1676469335,114497856,base_link,1.3393940031528474e-05,1.427255272865295e-05,-2.7624785900115973e-05,-1.0,0.0,0.0,0.0,0.0,0.0,0.0,0.0,0.0
1676469335.148829,10437,1676469335,134481856,base_link,1.333255171775818e-05,1.4160847663879391e-05,-2.7882704138755802e-05,-1.0,0.0,0.0,0.0,0.0,0.0,0.0,0.0,0.0
1676469335.157807,10438,1676469335,154463856,base_link,1.3361431658267976e-05,1.3987804949283598e-05,-2.8192186355590824e-05,-1.0,0.0,0.0,0.0,0.0,0.0,0.0,0.0,0.0
1676469335.1794426,10439,1676469335,174449136,base_link,1.3441674411296845e-05,1.4158964157104489e-05,-2.8002718091011052e-05,-1.0,0.0,0.0,0.0,0.0,0.0,0.0,0.0,0.0
1676469335.1974378,10440,1676469335,194433136,base_link,1.3429765403270722e-05,1.4164003729820249e-05,-2.81342625617981e-05,-1.0,0.0,0.0,0.0,0.0,0.0,0.0,0.0,0.0
1676469335.218652,10441,1676469335,214414136,base_link,1.3386540114879608e-05,1.4148458838462827e-05,-2.7550888061523443e-05,-1.0,0.0,0.0,0.0,0.0,0.0,0.0,0.0,0.0
1676469335.237545,10442,1676469335,234397136,base_link,1.3460266590118409e-05,1.425993740558624e-05,-2.7487474679946906e-05,-1.0,0.0,0.0,0.0,0.0,0.0,0.0,0.0,0.0
1676469335.2580185,10443,1676469335,254379136,base_link,1.3333410024642945e-05,1.4296576380729672e-05,-2.7435907721519475e-05,-1.0,0.0,0.0,0.0,0.0,0.0,0.0,0.0,0.0
1676469335.295369,10444,1676469335,289352136,base_link,2.2287565469741824e-05,5.665271729230878e-06,-2.272409796714783e-05,-1.0,0.0,0.0,0.0,0.0,0.0,0.0,0.0,0.0
1676469335.3126266,10445,1676469335,309332136,base_link,1.6707526147365572e-05,1.5293014049530027e-05,-3.0071902275085454e-05,-1.0,0.0,0.0,0.0,0.0,0.0,0.0,0.0,0.0
1676469335.3344498,10446,1676469335,329316136,base_link,2.0490145683288575e-05,1.3444116711616514e-05,-3.389732837677002e-05,-1.0,0.0,0.0,0.0,0.0,0.0,0.0,0.0,0.0
1676469335.352195,10447,1676469335,349298136,base_link,1.4322307705879212e-05,1.360509395599365e-05,-2.9828178882598878e-05,-1.0,0.0,0.0,0.0,0.0,0.0,0.0,0.0,0.0
1676469335.3728995,10448,1676469335,369283440,base_link,1.962507963180542e-05,1.0860136151313777e-05,-3.64097535610199e-05,-1.0,0.0,0.0,0.0,0.0,0.0,0.0,0.0,0.0
1676469335.3954098,10449,1676469335,389266440,base_link,2.1439175307750703e-05,5.021039396524423e-06,-5.3905320167541506e-05,-1.0,0.0,0.0,0.0,0.0,0.0,0.0,0.0,0.0
1676469335.4128323,10450,1676469335,409249440,base_link,1.62218913435936e-05,1.2129162251949306e-05,-4.107251167297363e-05,-1.0,0.0,0.0,0.0,0.0,0.0,0.0,0.0,0.0
1676469335.4320805,10451,1676469335,429232440,base_link,1.2951257824897767e-05,1.4984709024429318e-05,-3.129446506500244e-05,-1.0,0.0,0.0,0.0,0.0,0.0,0.0,0.0,0.0
1676469335.4533052,10452,1676469335,449215440,base_link,1.335449069738388e-05,1.5261504054069515e-05,-2.672271132469178e-05,-1.0,0.0,0.0,0.0,0.0,0.0,0.0,0.0,0.0
1676469335.4734738,10453,1676469335,469200744,base_link,1.5218216180801392e-05,1.4334350824356077e-05,-2.8371852636337283e-05,-1.0,0.0,0.0,0.0,0.0,0.0,0.0,0.0,0.0
1676469335.4955196,10454,1676469335,489184744,base_link,1.505185514688492e-05,1.73809677362442e-05,-3.056216835975647e-05,-1.0,0.0,0.0,0.0,0.0,0.0,0.0,0.0,0.0
1676469335.5139916,10455,1676469335,509167744,base_link,1.9158297777175905e-05,1.2883415818214413e-05,-2.87322610616684e-05,-1.0,0.0,0.0,0.0,0.0,0.0,0.0,0.0,0.0
1676469335.5354147,10456,1676469335,529149744,base_link,1.7973846197128297e-05,1.4392390847206114e-05,-2.8097659349441533e-05,-1.0,0.0,0.0,0.0,0.0,0.0,0.0,0.0,0.0
1676469335.5535154,10457,1676469335,549133744,base_link,1.8473580479621887e-05,1.480726599693298e-05,-2.7193731069564825e-05,-1.0,0.0,0.0,0.0,0.0,0.0,0.0,0.0,0.0
1676469335.575352,10458,1676469335,569118792,base_link,1.78819477558136e-05,1.4514607191085812e-05,-2.6113861799240117e-05,-1.0,0.0,0.0,0.0,0.0,0.0,0.0,0.0,0.0
1676469335.6132002,10459,1676469335,609083792,base_link,1.7191675305366516e-05,1.3924831151962277e-05,-2.612780332565308e-05,-1.0,0.0,0.0,0.0,0.0,0.0,0.0,0.0,0.0
1676469335.6340485,10460,1676469335,629065792,base_link,1.7267772555351258e-05,1.4366227388381956e-05,-2.5220313668251043e-05,-1.0,0.0,0.0,0.0,0.0,0.0,0.0,0.0,0.0
1676469335.6559966,10461,1676469335,649050792,base_link,1.844955235719681e-05,1.4268895983695982e-05,-2.6854759454727178e-05,-1.0,0.0,0.0,0.0,0.0,0.0,0.0,0.0,0.0
1676469335.6729083,10462,1676469335,669035584,base_link,1.8466736376285553e-05,1.2984077632427213e-05,-2.6813074946403503e-05,-1.0,0.0,0.0,0.0,0.0,0.0,0.0,0.0,0.0
1676469335.694866,10463,1676469335,689018584,base_link,1.6937860846519472e-05,1.3224534690380094e-05,-2.748839855194092e-05,-1.0,0.0,0.0,0.0,0.0,0.0,0.0,0.0,0.0
1676469335.7154825,10464,1676469335,708999584,base_link,1.919112503528595e-05,1.4550307393074033e-05,-2.6782009005546575e-05,-1.0,0.0,0.0,0.0,0.0,0.0,0.0,0.0,0.0
1676469335.733117,10465,1676469335,728985584,base_link,1.761925369501114e-05,1.4841046929359434e-05,-2.6496934890747074e-05,-1.0,0.0,0.0,0.0,0.0,0.0,0.0,0.0,0.0
1676469335.7540395,10466,1676469335,748965584,base_link,1.716986894607544e-05,1.4618755877017973e-05,-2.7355161309242254e-05,-1.0,0.0,0.0,0.0,0.0,0.0,0.0,0.0,0.0
1676469335.7725596,10467,1676469335,768950632,base_link,1.8949082493782043e-05,1.4510598778724667e-05,-2.728856205940247e-05,-1.0,0.0,0.0,0.0,0.0,0.0,0.0,0.0,0.0
1676469335.796024,10468,1676469335,788934632,base_link,1.7698732018470764e-05,1.5505936741828916e-05,-2.6546421647071844e-05,-1.0,0.0,0.0,0.0,0.0,0.0,0.0,0.0,0.0
1676469335.816001,10469,1676469335,808916632,base_link,1.7839139699935915e-05,1.114622354507446e-05,-2.913070023059845e-05,-1.0,0.0,0.0,0.0,0.0,0.0,0.0,0.0,0.0
1676469335.8333862,10470,1676469335,828899632,base_link,2.420587241649628e-05,1.3972723484039304e-05,-3.233957290649414e-05,-1.0,0.0,0.0,0.0,0.0,0.0,0.0,0.0,0.0
1676469335.8550916,10471,1676469335,848885632,base_link,2.2077301144599917e-05,1.3023696839809416e-05,-2.762432098388672e-05,-1.0,0.0,0.0,0.0,0.0,0.0,0.0,0.0,0.0
1676469335.8759148,10472,1676469335,868867424,base_link,1.7715597152709963e-05,1.5350186824798582e-05,-3.199799954891205e-05,-1.0,0.0,0.0,0.0,0.0,0.0,0.0,0.0,0.0
1676469335.8933377,10473,1676469335,888850424,base_link,2.2340404987335205e-05,1.2365633249282834e-05,-3.0493503808975222e-05,-1.0,0.0,0.0,0.0,0.0,0.0,0.0,0.0,0.0
1676469335.9144852,10474,1676469335,908834424,base_link,2.2527801990509033e-05,1.265308856964111e-05,-2.7694717049598696e-05,-1.0,0.0,0.0,0.0,0.0,0.0,0.0,0.0,0.0
1676469335.9352849,10475,1676469335,928816424,base_link,1.5604430437088013e-05,1.150170415639877e-05,-3.111623227596283e-05,-1.0,0.0,0.0,0.0,0.0,0.0,0.0,0.0,0.0
1676469335.9528003,10476,1676469335,948801424,base_link,2.171207815408707e-05,1.0791344940662382e-05,-2.9879468679428102e-05,-1.0,0.0,0.0,0.0,0.0,0.0,0.0,0.0,0.0
1676469335.9736807,10477,1676469335,968783472,base_link,2.0799142122268678e-05,1.2796901166439054e-05,-2.9260116815567017e-05,-1.0,0.0,0.0,0.0,0.0,0.0,0.0,0.0,0.0
1676469335.9956737,10478,1676469335,988766472,base_link,6.564474701881409e-05,-6.604612618684785e-06,-0.00012829031944274903,-1.0,0.0,0.0,0.0,0.0,0.0,0.0,0.0,0.0
1676469336.013053,10479,1676469336,8748472,base_link,6.689605712890625e-05,-1.934894025325777e-05,-0.0001283008098602295,-1.0,0.0,0.0,0.0,0.0,0.0,0.0,0.0,0.0
1676469336.0352173,10480,1676469336,28731472,base_link,3.1460851430892946e-05,-1.1720407009124772e-05,-0.00012674338817596437,-1.0,0.0,0.0,0.0,0.0,0.0,0.0,0.0,0.0
1676469336.0557957,10481,1676469336,48714472,base_link,2.9225248098373414e-05,-5.512839928269398e-06,-8.724728822708131e-05,-1.0,0.0,0.0,0.0,0.0,0.0,0.0,0.0,0.0
1676469336.0737827,10482,1676469336,68699520,base_link,3.831032514572144e-05,-1.5427921898663116e-06,-5.902653336524964e-05,-1.0,0.0,0.0,0.0,0.0,0.0,0.0,0.0,0.0
1676469336.0927067,10483,1676469336,88682520,base_link,3.22235256433487e-05,9.30622778832906e-07,-5.237303376197815e-05,-1.0,0.0,0.0,0.0,0.0,0.0,0.0,0.0,0.0
1676469336.1136734,10484,1676469336,108667520,base_link,2.699941396713257e-05,3.3836305141448926e-06,-4.307368099689484e-05,-1.0,0.0,0.0,0.0,0.0,0.0,0.0,0.0,0.0
1676469336.1339536,10485,1676469336,128648520,base_link,1.9773644208908083e-05,8.512829989194868e-06,-2.8429296612739563e-05,-1.0,0.0,0.0,0.0,0.0,0.0,0.0,0.0,0.0
1676469336.1518705,10486,1676469336,148632520,base_link,2.237139940261841e-05,8.780589699745175e-06,-2.5956577062606813e-05,-1.0,0.0,0.0,0.0,0.0,0.0,0.0,0.0,0.0
1676469336.1737773,10487,1676469336,168616568,base_link,2.0536239445209504e-05,1.0375767201185224e-05,-2.22054660320282e-05,-1.0,0.0,0.0,0.0,0.0,0.0,0.0,0.0,0.0
1676469336.195415,10488,1676469336,188599568,base_link,2.142138183116913e-05,1.0277876257896421e-05,-2.3925434052944183e-05,-1.0,0.0,0.0,0.0,0.0,0.0,0.0,0.0,0.0
1676469336.21331,10489,1676469336,208581568,base_link,1.9942325353622438e-05,1.0733567178249356e-05,-2.3902589082717897e-05,-1.0,0.0,0.0,0.0,0.0,0.0,0.0,0.0,0.0
1676469336.2338853,10490,1676469336,228565568,base_link,2.0534837245941163e-05,1.1006404459476467e-05,-2.5910827517509463e-05,-1.0,0.0,0.0,0.0,0.0,0.0,0.0,0.0,0.0
1676469336.2540812,10491,1676469336,248548568,base_link,2.0956580340862274e-05,1.2948250770568845e-05,-2.7930110692977908e-05,-1.0,0.0,0.0,0.0,0.0,0.0,0.0,0.0,0.0
1676469336.2962093,10492,1676469336,288515616,base_link,2.100237011909485e-05,1.100339740514755e-05,-3.2217019796371465e-05,-1.0,0.0,0.0,0.0,0.0,0.0,0.0,0.0,0.0
1676469336.3335555,10493,1676469336,328484616,base_link,2.0087507367134094e-05,1.2678256630897518e-05,-3.283057510852814e-05,-1.0,0.0,0.0,0.0,0.0,0.0,0.0,0.0,0.0
1676469336.3545723,10494,1676469336,348464616,base_link,2.1625903248786926e-05,1.1301311105489727e-05,-3.4645384550094606e-05,-1.0,0.0,0.0,0.0,0.0,0.0,0.0,0.0,0.0
1676469336.3724399,10495,1676469336,368449664,base_link,2.11464062333107e-05,1.2544080615043636e-05,-3.847806453704834e-05,-1.0,0.0,0.0,0.0,0.0,0.0,0.0,0.0,0.0
1676469336.39427,10496,1676469336,388432664,base_link,2.0873257517814637e-05,1.3446319103240962e-05,-3.52548360824585e-05,-1.0,0.0,0.0,0.0,0.0,0.0,0.0,0.0,0.0
1676469336.4141362,10497,1676469336,408416664,base_link,2.0452260971069336e-05,1.3635638356208797e-05,-3.610232174396515e-05,-1.0,0.0,0.0,0.0,0.0,0.0,0.0,0.0,0.0
1676469336.432894,10498,1676469336,428398664,base_link,1.998564898967743e-05,1.5546166896820067e-05,-3.476629853248596e-05,-1.0,0.0,0.0,0.0,0.0,0.0,0.0,0.0,0.0
1676469336.4523149,10499,1676469336,448381664,base_link,1.9081377983093263e-05,1.54155358672142e-05,-3.4215229749679564e-05,-1.0,0.0,0.0,0.0,0.0,0.0,0.0,0.0,0.0
1676469336.4735055,10500,1676469336,468366200,base_link,1.8772225081920623e-05,1.682683080434799e-05,-3.20394903421402e-05,-1.0,0.0,0.0,0.0,0.0,0.0,0.0,0.0,0.0
1676469336.4945128,10501,1676469336,488349200,base_link,1.7947980761528017e-05,1.6108828783035275e-05,-3.253047466278076e-05,-1.0,0.0,0.0,0.0,0.0,0.0,0.0,0.0,0.0
1676469336.5141184,10502,1676469336,508332200,base_link,1.7577779293060303e-05,1.6904038190841673e-05,-3.0104160308837895e-05,-1.0,0.0,0.0,0.0,0.0,0.0,0.0,0.0,0.0
1676469336.532846,10503,1676469336,528316200,base_link,1.7427849769592286e-05,1.7650598287582395e-05,-3.0050608515739444e-05,-1.0,0.0,0.0,0.0,0.0,0.0,0.0,0.0,0.0
1676469336.5538893,10504,1676469336,548297200,base_link,1.6749361157417298e-05,1.758972108364105e-05,-3.0372178554534917e-05,-1.0,0.0,0.0,0.0,0.0,0.0,0.0,0.0,0.0
1676469336.5725703,10505,1676469336,568283248,base_link,1.701791286468506e-05,1.860852539539337e-05,-2.8487560153007512e-05,-1.0,0.0,0.0,0.0,0.0,0.0,0.0,0.0,0.0
1676469336.5938935,10506,1676469336,588265248,base_link,1.682890057563782e-05,1.839412450790405e-05,-2.925363183021546e-05,-1.0,0.0,0.0,0.0,0.0,0.0,0.0,0.0,0.0
1676469336.6138375,10507,1676469336,608250248,base_link,1.6632914543151857e-05,1.8771654367446897e-05,-2.9272910952568058e-05,-1.0,0.0,0.0,0.0,0.0,0.0,0.0,0.0,0.0
1676469336.6321945,10508,1676469336,628231248,base_link,1.6487106680870057e-05,1.8125218152999876e-05,-2.930423021316529e-05,-1.0,0.0,0.0,0.0,0.0,0.0,0.0,0.0,0.0
1676469336.6532693,10509,1676469336,648214248,base_link,1.6622541844844818e-05,1.8242400884628295e-05,-3.0181908607482914e-05,-1.0,0.0,0.0,0.0,0.0,0.0,0.0,0.0,0.0
1676469336.674365,10510,1676469336,668199296,base_link,1.810864806175232e-05,1.790797114372253e-05,-3.0002748966217047e-05,-1.0,0.0,0.0,0.0,0.0,0.0,0.0,0.0,0.0
1676469336.6926913,10511,1676469336,688182296,base_link,1.7305709421634675e-05,1.8106551468372343e-05,-3.039566278457642e-05,-1.0,0.0,0.0,0.0,0.0,0.0,0.0,0.0,0.0
1676469336.7126331,10512,1676469336,708166296,base_link,1.724422872066498e-05,1.7425523698329924e-05,-3.0340233445167545e-05,-1.0,0.0,0.0,0.0,0.0,0.0,0.0,0.0,0.0
1676469336.7345328,10513,1676469336,728147296,base_link,1.803899109363556e-05,1.7524273693561552e-05,-3.073403835296631e-05,-1.0,0.0,0.0,0.0,0.0,0.0,0.0,0.0,0.0
1676469336.7516582,10514,1676469336,748131296,base_link,1.8323855102062225e-05,1.7545267939567562e-05,-3.076108098030091e-05,-1.0,0.0,0.0,0.0,0.0,0.0,0.0,0.0,0.0
1676469336.772901,10515,1676469336,768115344,base_link,1.8717515468597413e-05,1.7478056252002714e-05,-3.1379452347755437e-05,-1.0,0.0,0.0,0.0,0.0,0.0,0.0,0.0,0.0
1676469336.7940853,10516,1676469336,788098344,base_link,1.808079332113266e-05,1.678075939416885e-05,-3.151418268680573e-05,-1.0,0.0,0.0,0.0,0.0,0.0,0.0,0.0,0.0
1676469336.8129568,10517,1676469336,808081344,base_link,1.8279807269573212e-05,1.6653832793235775e-05,-3.1912243366241454e-05,-1.0,0.0,0.0,0.0,0.0,0.0,0.0,0.0,0.0
1676469336.8346903,10518,1676469336,828065344,base_link,2.0262992382049563e-05,1.6976198554039e-05,-3.164163827896118e-05,-1.0,0.0,0.0,0.0,0.0,0.0,0.0,0.0,0.0
1676469336.8543231,10519,1676469336,848047344,base_link,1.8777459859848023e-05,1.6191053390502927e-05,-3.1676769256591796e-05,-1.0,0.0,0.0,0.0,0.0,0.0,0.0,0.0,0.0
1676469336.8720846,10520,1676469336,868032392,base_link,1.9070380926132202e-05,1.6418707370758052e-05,-3.161998987197876e-05,-1.0,0.0,0.0,0.0,0.0,0.0,0.0,0.0,0.0
1676469336.8940723,10521,1676469336,888017392,base_link,1.9191433489322664e-05,1.5881216526031492e-05,-3.105009198188782e-05,-1.0,0.0,0.0,0.0,0.0,0.0,0.0,0.0,0.0
1676469336.9144652,10522,1676469336,907998392,base_link,1.8683576583862307e-05,1.5825042128562925e-05,-3.2250893115997314e-05,-1.0,0.0,0.0,0.0,0.0,0.0,0.0,0.0,0.0
1676469336.953258,10523,1676469336,947964392,base_link,1.913304626941681e-05,1.4879341423511502e-05,-3.124918341636658e-05,-1.0,0.0,0.0,0.0,0.0,0.0,0.0,0.0,0.0
1676469336.9746287,10524,1676469336,967948440,base_link,1.9461578130722046e-05,1.4348003268241879e-05,-3.199149072170258e-05,-1.0,0.0,0.0,0.0,0.0,0.0,0.0,0.0,0.0
1676469337.0152388,10525,1676469337,7915440,base_link,2.012370228767395e-05,1.4532363414764401e-05,-3.214499950408936e-05,-1.0,0.0,0.0,0.0,0.0,0.0,0.0,0.0,0.0
1676469337.034696,10526,1676469337,27898440,base_link,1.972222626209259e-05,1.4338973164558407e-05,-3.228834867477417e-05,-1.0,0.0,0.0,0.0,0.0,0.0,0.0,0.0,0.0
1676469337.0518668,10527,1676469337,47882440,base_link,2.0585268735885623e-05,1.3520362973213194e-05,-3.1708544492721556e-05,-1.0,0.0,0.0,0.0,0.0,0.0,0.0,0.0,0.0
1676469337.0738435,10528,1676469337,67867488,base_link,2.074655443429947e-05,1.374496519565582e-05,-3.304926753044128e-05,-1.0,0.0,0.0,0.0,0.0,0.0,0.0,0.0,0.0
1676469337.0959826,10529,1676469337,87848488,base_link,2.067049890756607e-05,1.3424572348594663e-05,-3.293317556381226e-05,-1.0,0.0,0.0,0.0,0.0,0.0,0.0,0.0,0.0
1676469337.1123023,10530,1676469337,107832488,base_link,2.0391058921813966e-05,1.339364647865295e-05,-3.244849443435669e-05,-1.0,0.0,0.0,0.0,0.0,0.0,0.0,0.0,0.0
1676469337.132633,10531,1676469337,127814488,base_link,2.066999077796936e-05,1.2748682498931882e-05,-3.319171369075775e-05,-1.0,0.0,0.0,0.0,0.0,0.0,0.0,0.0,0.0
1676469337.15363,10532,1676469337,147797488,base_link,2.0621398091316223e-05,1.2069375813007353e-05,-3.3788567781448365e-05,-1.0,0.0,0.0,0.0,0.0,0.0,0.0,0.0,0.0
1676469337.171692,10533,1676469337,167780488,base_link,2.088426947593689e-05,1.2350519001483914e-05,-3.346128463745117e-05,-1.0,0.0,0.0,0.0,0.0,0.0,0.0,0.0,0.0
1676469337.1938815,10534,1676469337,187766304,base_link,2.0802615582942962e-05,1.1408622562885282e-05,-3.396053314208984e-05,-1.0,0.0,0.0,0.0,0.0,0.0,0.0,0.0,0.0
1676469337.2135916,10535,1676469337,207749304,base_link,2.1000833809375764e-05,1.124361604452133e-05,-3.4007838368415836e-05,-1.0,0.0,0.0,0.0,0.0,0.0,0.0,0.0,0.0
1676469337.2317693,10536,1676469337,227732304,base_link,2.0791129767894745e-05,1.1508296430110929e-05,-3.362693786621094e-05,-1.0,0.0,0.0,0.0,0.0,0.0,0.0,0.0,0.0
1676469337.2531002,10537,1676469337,247715304,base_link,2.1237996220588685e-05,1.1928020417690274e-05,-3.408966958522797e-05,-1.0,0.0,0.0,0.0,0.0,0.0,0.0,0.0,0.0
1676469337.2745762,10538,1676469337,267698840,base_link,2.123602330684662e-05,1.0599920153617856e-05,-3.3571720123291016e-05,-1.0,0.0,0.0,0.0,0.0,0.0,0.0,0.0,0.0
1676469337.2923076,10539,1676469337,287681840,base_link,2.1017736196517945e-05,1.1169791221618649e-05,-3.356355428695679e-05,-1.0,0.0,0.0,0.0,0.0,0.0,0.0,0.0,0.0
1676469337.3139253,10540,1676469337,307664840,base_link,2.1436487138271334e-05,1.125081032514572e-05,-3.363483548164368e-05,-1.0,0.0,0.0,0.0,0.0,0.0,0.0,0.0,0.0
1676469337.3318624,10541,1676469337,327647840,base_link,2.0030897855758667e-05,1.0635231435298916e-05,-3.323594033718109e-05,-1.0,0.0,0.0,0.0,0.0,0.0,0.0,0.0,0.0
1676469337.3529778,10542,1676469337,347631840,base_link,2.06768274307251e-05,1.0875225067138668e-05,-3.4599030017852785e-05,-1.0,0.0,0.0,0.0,0.0,0.0,0.0,0.0,0.0
1676469337.3717055,10543,1676469337,367613840,base_link,2.066430449485779e-05,1.1467780917882916e-05,-3.4278625249862674e-05,-1.0,0.0,0.0,0.0,0.0,0.0,0.0,0.0,0.0
1676469337.3944843,10544,1676469337,387599912,base_link,2.1107041835784914e-05,1.0318920016288754e-05,-3.4470707178115844e-05,-1.0,0.0,0.0,0.0,0.0,0.0,0.0,0.0,0.0
1676469337.412614,10545,1676469337,407582912,base_link,2.0708447694778445e-05,1.1125499755144117e-05,-3.356794714927673e-05,-1.0,0.0,0.0,0.0,0.0,0.0,0.0,0.0,0.0
1676469337.4329665,10546,1676469337,427565912,base_link,2.058605253696442e-05,1.0869885981082912e-05,-3.469873070716858e-05,-1.0,0.0,0.0,0.0,0.0,0.0,0.0,0.0,0.0
1676469337.451585,10547,1676469337,447548912,base_link,2.051990330219269e-05,1.0970944911241528e-05,-3.421418964862824e-05,-1.0,0.0,0.0,0.0,0.0,0.0,0.0,0.0,0.0
1676469337.4733515,10548,1676469337,467534216,base_link,2.0858779549598693e-05,1.1481168866157527e-05,-3.475658297538757e-05,-1.0,0.0,0.0,0.0,0.0,0.0,0.0,0.0,0.0
1676469337.4939134,10549,1676469337,487517216,base_link,2.0317304134368896e-05,1.1232271790504452e-05,-3.476779162883759e-05,-1.0,0.0,0.0,0.0,0.0,0.0,0.0,0.0,0.0
1676469337.5131836,10550,1676469337,507504216,base_link,2.1082662045955657e-05,1.1502862721681592e-05,-3.441314399242401e-05,-1.0,0.0,0.0,0.0,0.0,0.0,0.0,0.0,0.0
1676469337.5347807,10551,1676469337,527486216,base_link,2.0654776692390442e-05,1.050082296133041e-05,-3.452786803245545e-05,-1.0,0.0,0.0,0.0,0.0,0.0,0.0,0.0,0.0
1676469337.5515177,10552,1676469337,547465216,base_link,2.0315819978713992e-05,1.1737859249114988e-05,-3.428541421890259e-05,-1.0,0.0,0.0,0.0,0.0,0.0,0.0,0.0,0.0
1676469337.5726807,10553,1676469337,567450520,base_link,2.0778508484363556e-05,1.1429280787706373e-05,-3.387858867645264e-05,-1.0,0.0,0.0,0.0,0.0,0.0,0.0,0.0,0.0
1676469337.595408,10554,1676469337,587433520,base_link,2.036885917186737e-05,1.1629383265972134e-05,-3.3973497152328495e-05,-1.0,0.0,0.0,0.0,0.0,0.0,0.0,0.0,0.0
1676469337.6127295,10555,1676469337,607416520,base_link,2.0352068543434144e-05,1.1777991056442257e-05,-3.3858793973922734e-05,-1.0,0.0,0.0,0.0,0.0,0.0,0.0,0.0,0.0
1676469337.633417,10556,1676469337,627399520,base_link,2.035338580608368e-05,1.1955302208662031e-05,-3.344288468360901e-05,-1.0,0.0,0.0,0.0,0.0,0.0,0.0,0.0,0.0
1676469337.6551855,10557,1676469337,647382520,base_link,2.02610582113266e-05,1.1748693138360974e-05,-3.3965036273002625e-05,-1.0,0.0,0.0,0.0,0.0,0.0,0.0,0.0,0.0
1676469337.6932435,10558,1676469337,687351592,base_link,1.9665351510047912e-05,1.154810935258865e-05,-3.378714323043823e-05,-1.0,0.0,0.0,0.0,0.0,0.0,0.0,0.0,0.0
1676469337.713682,10559,1676469337,707334592,base_link,2.0154665410518648e-05,1.2638741731643674e-05,-3.36467981338501e-05,-1.0,0.0,0.0,0.0,0.0,0.0,0.0,0.0,0.0
1676469337.7322502,10560,1676469337,727319592,base_link,1.9558219611644745e-05,1.2479460984468458e-05,-3.247130513191223e-05,-1.0,0.0,0.0,0.0,0.0,0.0,0.0,0.0,0.0
1676469337.752859,10561,1676469337,747300592,base_link,1.9651006162166598e-05,1.2589627504348753e-05,-3.318567872047425e-05,-1.0,0.0,0.0,0.0,0.0,0.0,0.0,0.0,0.0
1676469337.7741957,10562,1676469337,767285896,base_link,2.0465272665023804e-05,1.28123864531517e-05,-3.364721238613129e-05,-1.0,0.0,0.0,0.0,0.0,0.0,0.0,0.0,0.0
1676469337.7927718,10563,1676469337,787267896,base_link,2.0364983379840852e-05,1.2431535869836804e-05,-3.405213356018067e-05,-1.0,0.0,0.0,0.0,0.0,0.0,0.0,0.0,0.0
1676469337.8130925,10564,1676469337,807251896,base_link,2.0155197381973267e-05,1.2640190124511716e-05,-3.409203886985779e-05,-1.0,0.0,0.0,0.0,0.0,0.0,0.0,0.0,0.0
1676469337.834518,10565,1676469337,827233896,base_link,1.991652101278305e-05,1.3141654431819913e-05,-3.276754319667816e-05,-1.0,0.0,0.0,0.0,0.0,0.0,0.0,0.0,0.0
1676469337.8515108,10566,1676469337,847220896,base_link,2.04533651471138e-05,1.343247592449188e-05,-3.361497521400452e-05,-1.0,0.0,0.0,0.0,0.0,0.0,0.0,0.0,0.0
1676469337.872444,10567,1676469337,867206456,base_link,2.007775902748108e-05,1.2218901515007017e-05,-3.366979956626892e-05,-1.0,0.0,0.0,0.0,0.0,0.0,0.0,0.0,0.0
1676469337.8942945,10568,1676469337,887188456,base_link,2.003755867481232e-05,1.3026894629001614e-05,-3.370418846607208e-05,-1.0,0.0,0.0,0.0,0.0,0.0,0.0,0.0,0.0
1676469337.9126418,10569,1676469337,907169456,base_link,1.999534070491791e-05,1.3120850920677182e-05,-3.3031776547431944e-05,-1.0,0.0,0.0,0.0,0.0,0.0,0.0,0.0,0.0
1676469337.9328115,10570,1676469337,927160456,base_link,2.0289167761802675e-05,1.2726300954818722e-05,-3.3979207277297974e-05,-1.0,0.0,0.0,0.0,0.0,0.0,0.0,0.0,0.0
1676469337.953443,10571,1676469337,947134456,base_link,2.0067486166954042e-05,1.3096284866333004e-05,-3.279430270195007e-05,-1.0,0.0,0.0,0.0,0.0,0.0,0.0,0.0,0.0
1676469337.9746354,10572,1676469337,967120736,base_link,1.982741355895996e-05,1.3262413442134855e-05,-3.3198195695877075e-05,-1.0,0.0,0.0,0.0,0.0,0.0,0.0,0.0,0.0
1676469337.9949658,10573,1676469337,987101736,base_link,2.024867832660675e-05,1.295392960309982e-05,-3.362511992454529e-05,-1.0,0.0,0.0,0.0,0.0,0.0,0.0,0.0,0.0
1676469338.012678,10574,1676469338,7084736,base_link,2.009362578392029e-05,1.3802088797092435e-05,-3.348884582519531e-05,-1.0,0.0,0.0,0.0,0.0,0.0,0.0,0.0,0.0
1676469338.0328424,10575,1676469338,27066736,base_link,2.0145487785339357e-05,1.3645870983600614e-05,-3.2581698894500736e-05,-1.0,0.0,0.0,0.0,0.0,0.0,0.0,0.0,0.0
1676469338.0537987,10576,1676469338,47049736,base_link,1.9768044352531435e-05,1.3417914509773251e-05,-3.2863593101501465e-05,-1.0,0.0,0.0,0.0,0.0,0.0,0.0,0.0,0.0
1676469338.072744,10577,1676469338,67036552,base_link,1.9973915815353393e-05,1.2792244553565977e-05,-3.30980658531189e-05,-1.0,0.0,0.0,0.0,0.0,0.0,0.0,0.0,0.0
1676469338.0942698,10578,1676469338,87018552,base_link,2.048182636499405e-05,1.3284811377525328e-05,-3.334094285964966e-05,-1.0,0.0,0.0,0.0,0.0,0.0,0.0,0.0,0.0
1676469338.1137996,10579,1676469338,107002552,base_link,2.0722126960754395e-05,1.3709491491317746e-05,-3.3181178569793703e-05,-1.0,0.0,0.0,0.0,0.0,0.0,0.0,0.0,0.0
1676469338.1318302,10580,1676469338,126986552,base_link,2.0100274682044983e-05,1.3394054770469663e-05,-3.235218226909637e-05,-1.0,0.0,0.0,0.0,0.0,0.0,0.0,0.0,0.0
1676469338.152508,10581,1676469338,146967552,base_link,2.0713502168655396e-05,1.4688622951507565e-05,-3.283759355545044e-05,-1.0,0.0,0.0,0.0,0.0,0.0,0.0,0.0,0.0
1676469338.1741383,10582,1676469338,166952600,base_link,2.0293435454368592e-05,1.3869285583496091e-05,-3.287504017353058e-05,-1.0,0.0,0.0,0.0,0.0,0.0,0.0,0.0,0.0
1676469338.1952713,10583,1676469338,186936600,base_link,1.981513202190399e-05,1.3825133442878721e-05,-3.334847390651703e-05,-1.0,0.0,0.0,0.0,0.0,0.0,0.0,0.0,0.0
1676469338.2136314,10584,1676469338,206918600,base_link,2.0178386569023132e-05,1.3880394399166105e-05,-3.2786232233047484e-05,-1.0,0.0,0.0,0.0,0.0,0.0,0.0,0.0,0.0
1676469338.2323787,10585,1676469338,226902600,base_link,2.0049771666526794e-05,1.3734659552574154e-05,-3.2818257808685305e-05,-1.0,0.0,0.0,0.0,0.0,0.0,0.0,0.0,0.0
1676469338.2529142,10586,1676469338,246886600,base_link,2.0742787420749666e-05,1.3367693126201627e-05,-3.310370445251465e-05,-1.0,0.0,0.0,0.0,0.0,0.0,0.0,0.0,0.0
1676469338.2738323,10587,1676469338,266869904,base_link,2.035646289587021e-05,1.3539248704910275e-05,-3.267233371734619e-05,-1.0,0.0,0.0,0.0,0.0,0.0,0.0,0.0,0.0
1676469338.2933564,10588,1676469338,286853904,base_link,1.9995322823524474e-05,1.3138370215892788e-05,-3.286225199699402e-05,-1.0,0.0,0.0,0.0,0.0,0.0,0.0,0.0,0.0
1676469338.3128557,10589,1676469338,306834904,base_link,2.0173203945159912e-05,1.3311409950256345e-05,-3.33006352186203e-05,-1.0,0.0,0.0,0.0,0.0,0.0,0.0,0.0,0.0
1676469338.335296,10590,1676469338,326821904,base_link,1.9940176606178285e-05,1.3568609952926633e-05,-3.3759984374046326e-05,-1.0,0.0,0.0,0.0,0.0,0.0,0.0,0.0,0.0
1676469338.3730826,10591,1676469338,366786208,base_link,2.0347715914249422e-05,1.3171130418777464e-05,-3.3573240041732787e-05,-1.0,0.0,0.0,0.0,0.0,0.0,0.0,0.0,0.0
1676469338.396224,10592,1676469338,391765208,base_link,2.0215713977813722e-05,1.2735685706138608e-05,-3.321972489356995e-05,-1.0,0.0,0.0,0.0,0.0,0.0,0.0,0.0,0.0
1676469338.4333384,10593,1676469338,426737208,base_link,2.037136256694794e-05,1.3771896064281461e-05,-3.3039802312850955e-05,-1.0,0.0,0.0,0.0,0.0,0.0,0.0,0.0,0.0
1676469338.454037,10594,1676469338,446721208,base_link,2.039240896701813e-05,1.2824708223342893e-05,-3.3370578289031984e-05,-1.0,0.0,0.0,0.0,0.0,0.0,0.0,0.0,0.0
1676469338.471954,10595,1676469338,466705768,base_link,1.9758990406990052e-05,1.3735067844390867e-05,-3.272194862365723e-05,-1.0,0.0,0.0,0.0,0.0,0.0,0.0,0.0,0.0
1676469338.4960878,10596,1676469338,486686768,base_link,2.0599448680877686e-05,1.3518750667572019e-05,-3.350223898887634e-05,-1.0,0.0,0.0,0.0,0.0,0.0,0.0,0.0,0.0
1676469338.5156176,10597,1676469338,511664768,base_link,2.0211809873580935e-05,1.2940059602260586e-05,-3.328635096549988e-05,-1.0,0.0,0.0,0.0,0.0,0.0,0.0,0.0,0.0
1676469338.5320992,10598,1676469338,526651768,base_link,2.024613171815872e-05,1.3318589329719541e-05,-3.345789909362793e-05,-1.0,0.0,0.0,0.0,0.0,0.0,0.0,0.0,0.0
1676469338.5529635,10599,1676469338,546635768,base_link,2.049367129802704e-05,1.3308230042457578e-05,-3.290805518627167e-05,-1.0,0.0,0.0,0.0,0.0,0.0,0.0,0.0,0.0
1676469338.5724072,10600,1676469338,566619816,base_link,2.104136347770691e-05,1.2832193076610562e-05,-3.4159386157989506e-05,-1.0,0.0,0.0,0.0,0.0,0.0,0.0,0.0,0.0
1676469338.5939562,10601,1676469338,586602816,base_link,1.9843617081642152e-05,1.3069000840187069e-05,-3.3200520277023314e-05,-1.0,0.0,0.0,0.0,0.0,0.0,0.0,0.0,0.0
1676469338.6145597,10602,1676469338,611581816,base_link,2.056894451379776e-05,1.2288626283407208e-05,-3.3635157346725465e-05,-1.0,0.0,0.0,0.0,0.0,0.0,0.0,0.0,0.0
1676469338.6328337,10603,1676469338,626568816,base_link,2.013518959283829e-05,1.3094498217105863e-05,-3.3748072385787966e-05,-1.0,0.0,0.0,0.0,0.0,0.0,0.0,0.0,0.0
1676469338.6543503,10604,1676469338,646551816,base_link,2.0010381937026978e-05,1.2795957922935483e-05,-3.317983150482178e-05,-1.0,0.0,0.0,0.0,0.0,0.0,0.0,0.0,0.0
1676469338.6744711,10605,1676469338,671533120,base_link,2.061210870742798e-05,1.2983708083629605e-05,-3.343944251537323e-05,-1.0,0.0,0.0,0.0,0.0,0.0,0.0,0.0,0.0
1676469338.6947706,10606,1676469338,686520120,base_link,2.049728035926819e-05,1.2427328526973722e-05,-3.328811228275299e-05,-1.0,0.0,0.0,0.0,0.0,0.0,0.0,0.0,0.0
1676469338.714949,10607,1676469338,711499120,base_link,2.019268423318863e-05,1.2873667478561399e-05,-3.304237723350525e-05,-1.0,0.0,0.0,0.0,0.0,0.0,0.0,0.0,0.0
1676469338.7330136,10608,1676469338,726486120,base_link,2.064906656742096e-05,1.313783526420593e-05,-3.262898623943329e-05,-1.0,0.0,0.0,0.0,0.0,0.0,0.0,0.0,0.0
1676469338.7544348,10609,1676469338,751465120,base_link,2.015383541584015e-05,1.2653714418411252e-05,-3.280000686645508e-05,-1.0,0.0,0.0,0.0,0.0,0.0,0.0,0.0,0.0
1676469338.772928,10610,1676469338,766454424,base_link,2.0279014110565188e-05,1.299769580364227e-05,-3.329248130321503e-05,-1.0,0.0,0.0,0.0,0.0,0.0,0.0,0.0,0.0
1676469338.79471,10611,1676469338,786437424,base_link,2.0740906894207e-05,1.3218131661415097e-05,-3.27918291091919e-05,-1.0,0.0,0.0,0.0,0.0,0.0,0.0,0.0,0.0
1676469338.8141572,10612,1676469338,811415424,base_link,2.0289871096611024e-05,1.2345013022422788e-05,-3.2704228162765507e-05,-1.0,0.0,0.0,0.0,0.0,0.0,0.0,0.0,0.0
1676469338.833329,10613,1676469338,826403424,base_link,2.084854394197464e-05,1.3028639554977414e-05,-3.327142596244812e-05,-1.0,0.0,0.0,0.0,0.0,0.0,0.0,0.0,0.0
1676469338.852751,10614,1676469338,846385424,base_link,2.084507793188095e-05,1.3340070843696592e-05,-3.277870118618011e-05,-1.0,0.0,0.0,0.0,0.0,0.0,0.0,0.0,0.0
1676469338.8718333,10615,1676469338,866372240,base_link,2.0699742436409e-05,1.2627629935741422e-05,-3.3795356750488286e-05,-1.0,0.0,0.0,0.0,0.0,0.0,0.0,0.0,0.0
1676469338.8954284,10616,1676469338,891351240,base_link,1.9868505001068117e-05,1.3110026717185972e-05,-3.341346383094788e-05,-1.0,0.0,0.0,0.0,0.0,0.0,0.0,0.0,0.0
1676469338.9146245,10617,1676469338,906339240,base_link,2.0625784993171692e-05,1.3185390830039976e-05,-3.3023351430892944e-05,-1.0,0.0,0.0,0.0,0.0,0.0,0.0,0.0,0.0
1676469338.9326437,10618,1676469338,926320240,base_link,2.0395001769065858e-05,1.2455199658870695e-05,-3.361937999725342e-05,-1.0,0.0,0.0,0.0,0.0,0.0,0.0,0.0,0.0
1676469338.952485,10619,1676469338,946303240,base_link,2.0108553767204287e-05,1.286525875329971e-05,-3.3675217628479005e-05,-1.0,0.0,0.0,0.0,0.0,0.0,0.0,0.0,0.0
1676469338.9738922,10620,1676469338,971284544,base_link,2.042820453643799e-05,1.3300526142120358e-05,-3.396120071411133e-05,-1.0,0.0,0.0,0.0,0.0,0.0,0.0,0.0,0.0
1676469338.9931188,10621,1676469338,986272544,base_link,2.045499384403229e-05,1.243556663393974e-05,-3.3306503295898436e-05,-1.0,0.0,0.0,0.0,0.0,0.0,0.0,0.0,0.0
1676469339.0142934,10622,1676469339,6258544,base_link,2.0173770189285278e-05,1.3301676511764524e-05,-3.3871430158615116e-05,-1.0,0.0,0.0,0.0,0.0,0.0,0.0,0.0,0.0
1676469339.034104,10623,1676469339,31233544,base_link,2.0455095171928406e-05,1.3041169941425321e-05,-3.331215381622315e-05,-1.0,0.0,0.0,0.0,0.0,0.0,0.0,0.0,0.0
1676469339.0730007,10624,1676469339,66211848,base_link,2.051743119955063e-05,1.1916607618331906e-05,-3.424730300903321e-05,-1.0,0.0,0.0,0.0,0.0,0.0,0.0,0.0,0.0
1676469339.0950778,10625,1676469339,91185848,base_link,2.025216817855835e-05,1.3354204595088956e-05,-3.313143849372864e-05,-1.0,0.0,0.0,0.0,0.0,0.0,0.0,0.0,0.0
1676469339.1125088,10626,1676469339,106174848,base_link,2.0791307091712954e-05,1.2784975767135618e-05,-3.304799795150757e-05,-1.0,0.0,0.0,0.0,0.0,0.0,0.0,0.0,0.0
1676469339.1328523,10627,1676469339,126154848,base_link,2.0016472041606903e-05,1.2838900089263913e-05,-3.283447027206421e-05,-1.0,0.0,0.0,0.0,0.0,0.0,0.0,0.0,0.0
1676469339.153718,10628,1676469339,151132848,base_link,2.022596150636673e-05,1.3744829595088955e-05,-3.3220854401588444e-05,-1.0,0.0,0.0,0.0,0.0,0.0,0.0,0.0,0.0
1676469339.1722538,10629,1676469339,166123408,base_link,2.0339956879615785e-05,1.3068062067031857e-05,-3.300994634628296e-05,-1.0,0.0,0.0,0.0,0.0,0.0,0.0,0.0,0.0
1676469339.1935003,10630,1676469339,186106408,base_link,2.0486643910408022e-05,1.3175535202026364e-05,-3.322934210300446e-05,-1.0,0.0,0.0,0.0,0.0,0.0,0.0,0.0,0.0
1676469339.2146883,10631,1676469339,211084408,base_link,2.011716365814209e-05,1.3145923614501951e-05,-3.342124223709107e-05,-1.0,0.0,0.0,0.0,0.0,0.0,0.0,0.0,0.0
1676469339.2322812,10632,1676469339,226072408,base_link,2.085901349782944e-05,1.3422343134880062e-05,-3.363075852394104e-05,-1.0,0.0,0.0,0.0,0.0,0.0,0.0,0.0,0.0
1676469339.252759,10633,1676469339,246054408,base_link,2.025029957294464e-05,1.3192963600158689e-05,-3.2932579517364505e-05,-1.0,0.0,0.0,0.0,0.0,0.0,0.0,0.0,0.0
1676469339.2719948,10634,1676469339,266039712,base_link,1.9900628924369814e-05,1.3288952410221097e-05,-3.343676328659058e-05,-1.0,0.0,0.0,0.0,0.0,0.0,0.0,0.0,0.0
1676469339.2929046,10635,1676469339,286022712,base_link,2.0608998835086825e-05,1.3310143351554868e-05,-3.312214016914368e-05,-1.0,0.0,0.0,0.0,0.0,0.0,0.0,0.0,0.0
1676469339.3137739,10636,1676469339,306006712,base_link,2.0155686140060427e-05,1.2748488783836362e-05,-3.356403112411499e-05,-1.0,0.0,0.0,0.0,0.0,0.0,0.0,0.0,0.0
1676469339.3343894,10637,1676469339,330985712,base_link,1.9846293330192566e-05,1.3340625166893003e-05,-3.3128464221954346e-05,-1.0,0.0,0.0,0.0,0.0,0.0,0.0,0.0,0.0
1676469339.3527899,10638,1676469339,345971712,base_link,2.062026560306549e-05,1.3192845880985257e-05,-3.3418309688568115e-05,-1.0,0.0,0.0,0.0,0.0,0.0,0.0,0.0,0.0
1676469339.3736136,10639,1676469339,370954016,base_link,2.0297273993492126e-05,1.3036200404167172e-05,-3.303506374359131e-05,-1.0,0.0,0.0,0.0,0.0,0.0,0.0,0.0,0.0
1676469339.392761,10640,1676469339,385941016,base_link,2.021017074584961e-05,1.2742647528648374e-05,-3.3602142333984376e-05,-1.0,0.0,0.0,0.0,0.0,0.0,0.0,0.0,0.0
1676469339.4130116,10641,1676469339,405923016,base_link,2.067682594060898e-05,1.3425503671169279e-05,-3.315897583961487e-05,-1.0,0.0,0.0,0.0,0.0,0.0,0.0,0.0,0.0
1676469339.4351275,10642,1676469339,430902016,base_link,2.0876899361610414e-05,1.286632269620895e-05,-3.303518891334534e-05,-1.0,0.0,0.0,0.0,0.0,0.0,0.0,0.0,0.0
1676469339.4522092,10643,1676469339,445889016,base_link,1.9724157452583313e-05,1.3253584504127499e-05,-3.300936222076416e-05,-1.0,0.0,0.0,0.0,0.0,0.0,0.0,0.0,0.0
1676469339.4731107,10644,1676469339,465873576,base_link,2.0235055685043336e-05,1.350072622299194e-05,-3.275963366031647e-05,-1.0,0.0,0.0,0.0,0.0,0.0,0.0,0.0,0.0
1676469339.494545,10645,1676469339,490852576,base_link,2.0271167159080505e-05,1.2868294119834896e-05,-3.2879996299743655e-05,-1.0,0.0,0.0,0.0,0.0,0.0,0.0,0.0,0.0
1676469339.5129342,10646,1676469339,505839576,base_link,2.0474937558174133e-05,1.3233730196952816e-05,-3.3071810007095336e-05,-1.0,0.0,0.0,0.0,0.0,0.0,0.0,0.0,0.0
1676469339.5328412,10647,1676469339,525823576,base_link,2.124287188053131e-05,1.377347260713577e-05,-3.2582426071166996e-05,-1.0,0.0,0.0,0.0,0.0,0.0,0.0,0.0,0.0
1676469339.552062,10648,1676469339,545805576,base_link,1.994990110397339e-05,1.3406330347061155e-05,-3.312224447727204e-05,-1.0,0.0,0.0,0.0,0.0,0.0,0.0,0.0,0.0
1676469339.5729759,10649,1676469339,565790624,base_link,2.0546379685401917e-05,1.3608469069004056e-05,-3.3952331542968755e-05,-1.0,0.0,0.0,0.0,0.0,0.0,0.0,0.0,0.0
1676469339.595417,10650,1676469339,590769624,base_link,2.0171198248863222e-05,1.3092657923698423e-05,-3.348497748374939e-05,-1.0,0.0,0.0,0.0,0.0,0.0,0.0,0.0,0.0
1676469339.6122885,10651,1676469339,605756624,base_link,2.097969651222229e-05,1.274958252906799e-05,-3.3927819132804875e-05,-1.0,0.0,0.0,0.0,0.0,0.0,0.0,0.0,0.0
1676469339.6347113,10652,1676469339,630734624,base_link,2.0319366455078125e-05,1.2748585641384123e-05,-3.371579647064209e-05,-1.0,0.0,0.0,0.0,0.0,0.0,0.0,0.0,0.0
1676469339.6538954,10653,1676469339,650718624,base_link,2.1120971441268923e-05,1.2975323200225828e-05,-3.3669215440750125e-05,-1.0,0.0,0.0,0.0,0.0,0.0,0.0,0.0,0.0
1676469339.6726015,10654,1676469339,665706672,base_link,2.0680904388427735e-05,1.2454496324062342e-05,-3.473159074783326e-05,-1.0,0.0,0.0,0.0,0.0,0.0,0.0,0.0,0.0
1676469339.6958385,10655,1676469339,690685672,base_link,2.0494824647903444e-05,1.281832158565521e-05,-3.297008275985718e-05,-1.0,0.0,0.0,0.0,0.0,0.0,0.0,0.0,0.0
1676469339.7137463,10656,1676469339,705675672,base_link,2.0494383573532106e-05,1.3368180394172666e-05,-3.299517333507538e-05,-1.0,0.0,0.0,0.0,0.0,0.0,0.0,0.0,0.0
1676469339.734072,10657,1676469339,730651672,base_link,2.072429209947586e-05,1.2702104449272153e-05,-3.342469930648804e-05,-1.0,0.0,0.0,0.0,0.0,0.0,0.0,0.0,0.0
1676469339.7555742,10658,1676469339,750634672,base_link,2.083002030849457e-05,1.2386408448219296e-05,-3.336639106273651e-05,-1.0,0.0,0.0,0.0,0.0,0.0,0.0,0.0,0.0
1676469339.7929618,10659,1676469339,785606976,base_link,2.046630084514618e-05,1.2337271869182585e-05,-3.34707647562027e-05,-1.0,0.0,0.0,0.0,0.0,0.0,0.0,0.0,0.0
1676469339.8133955,10660,1676469339,810586976,base_link,2.0578527450561524e-05,1.3287012279033659e-05,-3.315979838371277e-05,-1.0,0.0,0.0,0.0,0.0,0.0,0.0,0.0,0.0
1676469339.834789,10661,1676469339,830568976,base_link,2.094833850860596e-05,1.2739937007427213e-05,-3.3081075549125675e-05,-1.0,0.0,0.0,0.0,0.0,0.0,0.0,0.0,0.0
1676469339.8530777,10662,1676469339,845557976,base_link,2.0628249645233156e-05,1.2227550148963925e-05,-3.3090716600418094e-05,-1.0,0.0,0.0,0.0,0.0,0.0,0.0,0.0,0.0
1676469339.873983,10663,1676469339,870537280,base_link,2.07965224981308e-05,1.3879930973052975e-05,-3.3179813623428344e-05,-1.0,0.0,0.0,0.0,0.0,0.0,0.0,0.0,0.0
1676469339.8937871,10664,1676469339,885526280,base_link,2.0783898234367373e-05,1.2594664096832273e-05,-3.354553282260895e-05,-1.0,0.0,0.0,0.0,0.0,0.0,0.0,0.0,0.0
1676469339.913416,10665,1676469339,910503280,base_link,2.0156799256801606e-05,1.2257590144872663e-05,-3.3600983023643494e-05,-1.0,0.0,0.0,0.0,0.0,0.0,0.0,0.0,0.0
1676469339.9320738,10666,1676469339,925490280,base_link,2.0978212356567384e-05,1.260992884635925e-05,-3.3866685628890994e-05,-1.0,0.0,0.0,0.0,0.0,0.0,0.0,0.0,0.0
1676469339.9517574,10667,1676469339,945473280,base_link,2.0761632919311524e-05,1.2166857719421384e-05,-3.375717997550964e-05,-1.0,0.0,0.0,0.0,0.0,0.0,0.0,0.0,0.0
1676469339.974352,10668,1676469339,970453584,base_link,2.042890787124634e-05,1.2751267850399015e-05,-3.415559530258179e-05,-1.0,0.0,0.0,0.0,0.0,0.0,0.0,0.0,0.0
1676469339.9930894,10669,1676469339,985441584,base_link,2.065628468990326e-05,1.2576200067996976e-05,-3.3325266838073735e-05,-1.0,0.0,0.0,0.0,0.0,0.0,0.0,0.0,0.0
1676469340.0134816,10670,1676469340,10419584,base_link,2.021351456642151e-05,1.1837044358253477e-05,-3.39699387550354e-05,-1.0,0.0,0.0,0.0,0.0,0.0,0.0,0.0,0.0
1676469340.0344968,10671,1676469340,30402584,base_link,2.070475369691849e-05,1.248727887868881e-05,-3.412309885025024e-05,-1.0,0.0,0.0,0.0,0.0,0.0,0.0,0.0,0.0
1676469340.051922,10672,1676469340,45390584,base_link,2.0298148691654205e-05,1.2449283897876737e-05,-3.370649814605713e-05,-1.0,0.0,0.0,0.0,0.0,0.0,0.0,0.0,0.0
1676469340.0730343,10673,1676469340,70370632,base_link,2.0414829254150392e-05,1.2503398954868313e-05,-3.4628647565841676e-05,-1.0,0.0,0.0,0.0,0.0,0.0,0.0,0.0,0.0
1676469340.0952146,10674,1676469340,90353632,base_link,2.02280730009079e-05,1.2079036235809323e-05,-3.3961021900177e-05,-1.0,0.0,0.0,0.0,0.0,0.0,0.0,0.0,0.0
1676469340.113502,10675,1676469340,110336632,base_link,2.0656323432922365e-05,1.247519105672836e-05,-3.424201607704163e-05,-1.0,0.0,0.0,0.0,0.0,0.0,0.0,0.0,0.0
1676469340.1345727,10676,1676469340,130319632,base_link,2.0857086777687074e-05,1.2059452384710309e-05,-3.34581196308136e-05,-1.0,0.0,0.0,0.0,0.0,0.0,0.0,0.0,0.0
1676469340.1517537,10677,1676469340,145306632,base_link,2.0466896891593936e-05,1.2334369122982022e-05,-3.401012420654297e-05,-1.0,0.0,0.0,0.0,0.0,0.0,0.0,0.0,0.0
1676469340.1740983,10678,1676469340,170289680,base_link,2.0345813035964968e-05,1.2363905459642407e-05,-3.377681970596314e-05,-1.0,0.0,0.0,0.0,0.0,0.0,0.0,0.0,0.0
1676469340.195625,10679,1676469340,190269680,base_link,2.059316337108612e-05,1.2294795364141462e-05,-3.35788369178772e-05,-1.0,0.0,0.0,0.0,0.0,0.0,0.0,0.0,0.0
1676469340.212223,10680,1676469340,205259680,base_link,1.9729439914226534e-05,1.2499031424522396e-05,-3.3726638555526735e-05,-1.0,0.0,0.0,0.0,0.0,0.0,0.0,0.0,0.0
1676469340.2333562,10681,1676469340,230235680,base_link,2.072166204452515e-05,1.3142681121826169e-05,-3.252288103103638e-05,-1.0,0.0,0.0,0.0,0.0,0.0,0.0,0.0,0.0
1676469340.2541363,10682,1676469340,250218680,base_link,2.0104661583900452e-05,1.3123922049999235e-05,-3.327715992927551e-05,-1.0,0.0,0.0,0.0,0.0,0.0,0.0,0.0,0.0
1676469340.2743657,10683,1676469340,270206728,base_link,2.0603936910629275e-05,1.212908029556274e-05,-3.387554883956909e-05,-1.0,0.0,0.0,0.0,0.0,0.0,0.0,0.0,0.0
1676469340.2943785,10684,1676469340,290190728,base_link,1.9979827105998992e-05,1.2125603854656216e-05,-3.3588582277297977e-05,-1.0,0.0,0.0,0.0,0.0,0.0,0.0,0.0,0.0
1676469340.313133,10685,1676469340,310171728,base_link,2.0730289816856386e-05,1.2700700759887692e-05,-3.338713049888611e-05,-1.0,0.0,0.0,0.0,0.0,0.0,0.0,0.0,0.0
1676469340.3340795,10686,1676469340,330152728,base_link,2.0315128564834595e-05,1.2377439439296719e-05,-3.331236243247986e-05,-1.0,0.0,0.0,0.0,0.0,0.0,0.0,0.0,0.0
1676469340.351463,10687,1676469340,345139728,base_link,2.0618611574172975e-05,1.242200136184692e-05,-3.352113962173462e-05,-1.0,0.0,0.0,0.0,0.0,0.0,0.0,0.0,0.0
1676469340.3730986,10688,1676469340,370123776,base_link,2.0460385084152222e-05,1.228077411651611e-05,-3.408593833446503e-05,-1.0,0.0,0.0,0.0,0.0,0.0,0.0,0.0,0.0
1676469340.3954897,10689,1676469340,390103776,base_link,2.0264464616775515e-05,1.2701907753944394e-05,-3.3778619766235356e-05,-1.0,0.0,0.0,0.0,0.0,0.0,0.0,0.0,0.0
1676469340.4136953,10690,1676469340,410086776,base_link,2.1152311563491823e-05,1.3014416396617886e-05,-3.423969149589539e-05,-1.0,0.0,0.0,0.0,0.0,0.0,0.0,0.0,0.0
1676469340.4347706,10691,1676469340,430074776,base_link,2.005506902933121e-05,1.2371390312910077e-05,-3.365534543991089e-05,-1.0,0.0,0.0,0.0,0.0,0.0,0.0,0.0,0.0
1676469340.4734268,10692,1676469340,470039080,base_link,2.0516814291477205e-05,1.2498038262128827e-05,-3.384559154510498e-05,-1.0,0.0,0.0,0.0,0.0,0.0,0.0,0.0,0.0
1676469340.4945567,10693,1676469340,490021080,base_link,2.0767882466316224e-05,1.2798872590065e-05,-3.361206650733948e-05,-1.0,0.0,0.0,0.0,0.0,0.0,0.0,0.0,0.0
1676469340.5129356,10694,1676469340,510005080,base_link,2.0197886228561402e-05,1.3329219818115232e-05,-3.353893160820008e-05,-1.0,0.0,0.0,0.0,0.0,0.0,0.0,0.0,0.0
1676469340.533832,10695,1676469340,529987080,base_link,2.0265191793441775e-05,1.2846341729164121e-05,-3.314358592033386e-05,-1.0,0.0,0.0,0.0,0.0,0.0,0.0,0.0,0.0
1676469340.5519896,10696,1676469340,549973080,base_link,2.0564647018909456e-05,1.3062113523483274e-05,-3.3601236343383794e-05,-1.0,0.0,0.0,0.0,0.0,0.0,0.0,0.0,0.0
1676469340.5727813,10697,1676469340,569955360,base_link,2.0771044492721558e-05,1.2617790699005125e-05,-3.27048271894455e-05,-1.0,0.0,0.0,0.0,0.0,0.0,0.0,0.0,0.0
1676469340.5952468,10698,1676469340,589938360,base_link,2.0145264267921447e-05,1.2941136956214902e-05,-3.3335992693901065e-05,-1.0,0.0,0.0,0.0,0.0,0.0,0.0,0.0,0.0
1676469340.613087,10699,1676469340,609920360,base_link,2.085113823413849e-05,1.3262256979942318e-05,-3.3463194966316225e-05,-1.0,0.0,0.0,0.0,0.0,0.0,0.0,0.0,0.0
1676469340.635027,10700,1676469340,629903360,base_link,2.1343928575515747e-05,1.3492622971534726e-05,-3.340792655944825e-05,-1.0,0.0,0.0,0.0,0.0,0.0,0.0,0.0,0.0
1676469340.6545064,10701,1676469340,649885360,base_link,2.0262554287910462e-05,1.2569616734981535e-05,-3.3290955424308775e-05,-1.0,0.0,0.0,0.0,0.0,0.0,0.0,0.0,0.0
1676469340.6733363,10702,1676469340,669868384,base_link,2.0662328600883486e-05,1.3101013004779813e-05,-3.3940190076828006e-05,-1.0,0.0,0.0,0.0,0.0,0.0,0.0,0.0,0.0
1676469340.6954088,10703,1676469340,689852384,base_link,2.0093637704849243e-05,1.328928470611572e-05,-3.276722431182861e-05,-1.0,0.0,0.0,0.0,0.0,0.0,0.0,0.0,0.0
1676469340.7138963,10704,1676469340,709834384,base_link,1.9666481018066407e-05,1.298684477806091e-05,-3.261060118675232e-05,-1.0,0.0,0.0,0.0,0.0,0.0,0.0,0.0,0.0
1676469340.733274,10705,1676469340,729817384,base_link,1.9996847212314605e-05,1.2687815725803373e-05,-3.289875090122223e-05,-1.0,0.0,0.0,0.0,0.0,0.0,0.0,0.0,0.0
1676469340.7555804,10706,1676469340,749801384,base_link,2.036711871623993e-05,1.342460215091705e-05,-3.242287337779999e-05,-1.0,0.0,0.0,0.0,0.0,0.0,0.0,0.0,0.0
1676469340.7725804,10707,1676469340,769786408,base_link,2.066301256418228e-05,1.3166309893131253e-05,-3.395826518535614e-05,-1.0,0.0,0.0,0.0,0.0,0.0,0.0,0.0,0.0
1676469340.7943072,10708,1676469340,789769408,base_link,2.0177549123764038e-05,1.2533074617385862e-05,-3.3416140079498294e-05,-1.0,0.0,0.0,0.0,0.0,0.0,0.0,0.0,0.0
1676469340.812805,10709,1676469340,809750408,base_link,2.089865952730179e-05,1.3185337185859678e-05,-3.333901166915894e-05,-1.0,0.0,0.0,0.0,0.0,0.0,0.0,0.0,0.0
1676469340.8359,10710,1676469340,829733408,base_link,2.052026242017746e-05,1.2891235947608945e-05,-3.3377075195312504e-05,-1.0,0.0,0.0,0.0,0.0,0.0,0.0,0.0,0.0
1676469340.852633,10711,1676469340,849716408,base_link,2.0570561289787294e-05,1.306456625461578e-05,-3.3457016944885255e-05,-1.0,0.0,0.0,0.0,0.0,0.0,0.0,0.0,0.0
1676469340.8745487,10712,1676469340,869703200,base_link,1.9468718767166138e-05,1.3223376870155331e-05,-3.233045339584351e-05,-1.0,0.0,0.0,0.0,0.0,0.0,0.0,0.0,0.0
1676469340.8923764,10713,1676469340,889685200,base_link,2.0783936977386474e-05,1.3192692399024961e-05,-3.356381058692932e-05,-1.0,0.0,0.0,0.0,0.0,0.0,0.0,0.0,0.0
1676469340.913775,10714,1676469340,909668200,base_link,2.0229387283325197e-05,1.295538395643234e-05,-3.2646644115448e-05,-1.0,0.0,0.0,0.0,0.0,0.0,0.0,0.0,0.0
1676469340.9340725,10715,1676469340,929650200,base_link,2.1210253238677978e-05,1.3467988371849057e-05,-3.323785662651062e-05,-1.0,0.0,0.0,0.0,0.0,0.0,0.0,0.0,0.0
1676469340.9525528,10716,1676469340,949636200,base_link,2.0372968912124636e-05,1.2732374668121334e-05,-3.3083003759384156e-05,-1.0,0.0,0.0,0.0,0.0,0.0,0.0,0.0,0.0
1676469340.9730554,10717,1676469340,969619248,base_link,2.0517489314079286e-05,1.3130183517932889e-05,-3.4114336967468264e-05,-1.0,0.0,0.0,0.0,0.0,0.0,0.0,0.0,0.0
1676469340.995861,10718,1676469340,989603248,base_link,2.0522187650203706e-05,1.3035948574542997e-05,-3.3770528435707095e-05,-1.0,0.0,0.0,0.0,0.0,0.0,0.0,0.0,0.0
1676469341.0137885,10719,1676469341,9585248,base_link,2.0633581280708314e-05,1.322347819805145e-05,-3.418942093849182e-05,-1.0,0.0,0.0,0.0,0.0,0.0,0.0,0.0,0.0
1676469341.033038,10720,1676469341,29569248,base_link,1.9921939074993136e-05,1.3053578138351437e-05,-3.298807740211487e-05,-1.0,0.0,0.0,0.0,0.0,0.0,0.0,0.0,0.0
1676469341.05377,10721,1676469341,49552248,base_link,2.0435775816440584e-05,1.2957894802093503e-05,-3.304956257343292e-05,-1.0,0.0,0.0,0.0,0.0,0.0,0.0,0.0,0.0
1676469341.0717432,10722,1676469341,69534296,base_link,2.024100124835968e-05,1.2804885208606718e-05,-3.353269100189209e-05,-1.0,0.0,0.0,0.0,0.0,0.0,0.0,0.0,0.0
1676469341.0938334,10723,1676469341,89518296,base_link,1.9942986965179444e-05,1.2709513306617734e-05,-3.326181769371033e-05,-1.0,0.0,0.0,0.0,0.0,0.0,0.0,0.0,0.0
1676469341.1138828,10724,1676469341,109502296,base_link,2.1294873952865602e-05,1.2204635143280027e-05,-3.371695876121521e-05,-1.0,0.0,0.0,0.0,0.0,0.0,0.0,0.0,0.0
1676469341.1535463,10725,1676469341,149469296,base_link,1.9773134589195253e-05,1.2628465890884397e-05,-3.371922969818116e-05,-1.0,0.0,0.0,0.0,0.0,0.0,0.0,0.0,0.0
1676469341.1751707,10726,1676469341,169453832,base_link,2.03999862074852e-05,1.2338209152221676e-05,-3.3721089363098143e-05,-1.0,0.0,0.0,0.0,0.0,0.0,0.0,0.0,0.0
1676469341.2139955,10727,1676469341,209418832,base_link,2.064349353313446e-05,1.242091357707977e-05,-3.409829735755921e-05,-1.0,0.0,0.0,0.0,0.0,0.0,0.0,0.0,0.0
1676469341.2328,10728,1676469341,229403832,base_link,2.0342084765434265e-05,1.2590751051902768e-05,-3.379929661750794e-05,-1.0,0.0,0.0,0.0,0.0,0.0,0.0,0.0,0.0
1676469341.2531543,10729,1676469341,249386832,base_link,2.0920827984809875e-05,1.238056346774101e-05,-3.339224457740784e-05,-1.0,0.0,0.0,0.0,0.0,0.0,0.0,0.0,0.0
1676469341.2736742,10730,1676469341,269371136,base_link,2.0683529973030093e-05,1.2892854213714597e-05,-3.3158820867538456e-05,-1.0,0.0,0.0,0.0,0.0,0.0,0.0,0.0,0.0
1676469341.2930725,10731,1676469341,289355136,base_link,2.0742815732955934e-05,1.268132776021957e-05,-3.391423225402832e-05,-1.0,0.0,0.0,0.0,0.0,0.0,0.0,0.0,0.0
1676469341.3133206,10732,1676469341,309338136,base_link,2.0394587516784668e-05,1.3041833043098447e-05,-3.3349308371543885e-05,-1.0,0.0,0.0,0.0,0.0,0.0,0.0,0.0,0.0
1676469341.3336706,10733,1676469341,329320136,base_link,2.0740191638469695e-05,1.304400563240051e-05,-3.369686007499695e-05,-1.0,0.0,0.0,0.0,0.0,0.0,0.0,0.0,0.0
1676469341.3556926,10734,1676469341,349303136,base_link,2.0527511835098266e-05,1.2420415133237835e-05,-3.330723643302918e-05,-1.0,0.0,0.0,0.0,0.0,0.0,0.0,0.0,0.0
1676469341.372828,10735,1676469341,369288440,base_link,2.0834629237651825e-05,1.2778894603252409e-05,-3.390128314495087e-05,-1.0,0.0,0.0,0.0,0.0,0.0,0.0,0.0,0.0
1676469341.3945081,10736,1676469341,389271440,base_link,2.0697298645973208e-05,1.3054898381233213e-05,-3.3169624209403994e-05,-1.0,0.0,0.0,0.0,0.0,0.0,0.0,0.0,0.0
1676469341.4124253,10737,1676469341,409251440,base_link,1.9869112968444826e-05,1.201529651880264e-05,-3.3081015944480894e-05,-1.0,0.0,0.0,0.0,0.0,0.0,0.0,0.0,0.0
1676469341.4335446,10738,1676469341,429236440,base_link,1.996782124042511e-05,1.212816387414932e-05,-3.3657443523406986e-05,-1.0,0.0,0.0,0.0,0.0,0.0,0.0,0.0,0.0
1676469341.4552588,10739,1676469341,449219440,base_link,2.059185802936554e-05,1.3371936976909634e-05,-3.3466219902038576e-05,-1.0,0.0,0.0,0.0,0.0,0.0,0.0,0.0,0.0
1676469341.4749677,10740,1676469341,469205488,base_link,2.053998112678528e-05,1.2453599274158476e-05,-3.3325767517089845e-05,-1.0,0.0,0.0,0.0,0.0,0.0,0.0,0.0,0.0
1676469341.4945476,10741,1676469341,489188488,base_link,2.0278829336166383e-05,1.2359921634197233e-05,-3.349414765834809e-05,-1.0,0.0,0.0,0.0,0.0,0.0,0.0,0.0,0.0
1676469341.5138695,10742,1676469341,509171488,base_link,2.1167585253715515e-05,1.2212357670068738e-05,-3.35465669631958e-05,-1.0,0.0,0.0,0.0,0.0,0.0,0.0,0.0,0.0
1676469341.5356007,10743,1676469341,529153488,base_link,2.0337408781051637e-05,1.2859538197517392e-05,-3.26360285282135e-05,-1.0,0.0,0.0,0.0,0.0,0.0,0.0,0.0,0.0
1676469341.5527837,10744,1676469341,549136488,base_link,2.0501632988452912e-05,1.2831389904022214e-05,-3.3503037691116335e-05,-1.0,0.0,0.0,0.0,0.0,0.0,0.0,0.0,0.0
1676469341.5740383,10745,1676469341,569122792,base_link,2.035651654005051e-05,1.2967550754547116e-05,-3.250324726104737e-05,-1.0,0.0,0.0,0.0,0.0,0.0,0.0,0.0,0.0
1676469341.5948167,10746,1676469341,589104792,base_link,2.0384305715560916e-05,1.3189990818500515e-05,-3.36297482252121e-05,-1.0,0.0,0.0,0.0,0.0,0.0,0.0,0.0,0.0
1676469341.6147983,10747,1676469341,609087792,base_link,2.018842250108719e-05,1.2495939433574673e-05,-3.267664611339569e-05,-1.0,0.0,0.0,0.0,0.0,0.0,0.0,0.0,0.0
1676469341.634185,10748,1676469341,629070792,base_link,2.0507165789604188e-05,1.2710255384445188e-05,-3.4112763404846196e-05,-1.0,0.0,0.0,0.0,0.0,0.0,0.0,0.0,0.0
1676469341.6523018,10749,1676469341,649050792,base_link,2.0085927844047547e-05,1.3067440688610074e-05,-3.3283931016922e-05,-1.0,0.0,0.0,0.0,0.0,0.0,0.0,0.0,0.0
1676469341.6731994,10750,1676469341,669037096,base_link,2.0613379776477814e-05,1.306386739015579e-05,-3.383362293243408e-05,-1.0,0.0,0.0,0.0,0.0,0.0,0.0,0.0,0.0
1676469341.6953132,10751,1676469341,689020096,base_link,1.9611629843711853e-05,1.2278398871421811e-05,-3.328926265239716e-05,-1.0,0.0,0.0,0.0,0.0,0.0,0.0,0.0,0.0
1676469341.7126484,10752,1676469341,709005096,base_link,2.0393459498882296e-05,1.2959301471710203e-05,-3.309939205646515e-05,-1.0,0.0,0.0,0.0,0.0,0.0,0.0,0.0,0.0
1676469341.7342994,10753,1676469341,728988096,base_link,1.986887902021408e-05,1.3137456774711606e-05,-3.349468111991882e-05,-1.0,0.0,0.0,0.0,0.0,0.0,0.0,0.0,0.0
1676469341.752539,10754,1676469341,748971096,base_link,2.067191004753113e-05,1.2857119739055631e-05,-3.389286994934082e-05,-1.0,0.0,0.0,0.0,0.0,0.0,0.0,0.0,0.0
1676469341.7729833,10755,1676469341,768953656,base_link,2.0396348834037783e-05,1.2603312730789183e-05,-3.3486008644104005e-05,-1.0,0.0,0.0,0.0,0.0,0.0,0.0,0.0,0.0
1676469341.7962067,10756,1676469341,788938656,base_link,2.0614518225193026e-05,1.2597565352916715e-05,-3.367589116096497e-05,-1.0,0.0,0.0,0.0,0.0,0.0,0.0,0.0,0.0
1676469341.8143892,10757,1676469341,808919656,base_link,2.01451450586319e-05,1.2884119153022763e-05,-3.3731728792190557e-05,-1.0,0.0,0.0,0.0,0.0,0.0,0.0,0.0,0.0
1676469341.8340483,10758,1676469341,828902656,base_link,2.07418292760849e-05,1.2644380331039426e-05,-3.3387863636016845e-05,-1.0,0.0,0.0,0.0,0.0,0.0,0.0,0.0,0.0
1676469341.8744698,10759,1676469341,868871960,base_link,2.0167222619056702e-05,1.2722110748291014e-05,-3.330102860927582e-05,-1.0,0.0,0.0,0.0,0.0,0.0,0.0,0.0,0.0
1676469341.8957517,10760,1676469341,888853960,base_link,2.026801258325577e-05,1.2518559396266934e-05,-3.322259783744812e-05,-1.0,0.0,0.0,0.0,0.0,0.0,0.0,0.0,0.0
1676469341.9128504,10761,1676469341,908837960,base_link,1.9986966252326965e-05,1.291210353374481e-05,-3.285849094390869e-05,-1.0,0.0,0.0,0.0,0.0,0.0,0.0,0.0,0.0
1676469341.9340062,10762,1676469341,928819960,base_link,2.0320452749729158e-05,1.2890009582042691e-05,-3.3413177728652955e-05,-1.0,0.0,0.0,0.0,0.0,0.0,0.0,0.0,0.0
1676469341.954235,10763,1676469341,948801960,base_link,2.034483551979065e-05,1.298437416553497e-05,-3.2728731632232665e-05,-1.0,0.0,0.0,0.0,0.0,0.0,0.0,0.0,0.0
1676469341.9729545,10764,1676469341,968788264,base_link,2.0797333121299745e-05,1.2814256548881527e-05,-3.2765507698059085e-05,-1.0,0.0,0.0,0.0,0.0,0.0,0.0,0.0,0.0
1676469341.9936209,10765,1676469341,988770264,base_link,2.0345550775527954e-05,1.2912385165691373e-05,-3.397125601768494e-05,-1.0,0.0,0.0,0.0,0.0,0.0,0.0,0.0,0.0
1676469342.0155246,10766,1676469342,8755264,base_link,2.0539602637290955e-05,1.3566201925277707e-05,-3.37019145488739e-05,-1.0,0.0,0.0,0.0,0.0,0.0,0.0,0.0,0.0
1676469342.0330706,10767,1676469342,28738264,base_link,2.0508426427841186e-05,1.294012367725372e-05,-3.318829536437989e-05,-1.0,0.0,0.0,0.0,0.0,0.0,0.0,0.0,0.0
1676469342.0540037,10768,1676469342,48719264,base_link,1.9845399260520936e-05,1.2594945728778837e-05,-3.366372883319855e-05,-1.0,0.0,0.0,0.0,0.0,0.0,0.0,0.0,0.0
1676469342.0759962,10769,1676469342,68703568,base_link,2.0305418968200685e-05,1.3227075338363644e-05,-3.316465020179749e-05,-1.0,0.0,0.0,0.0,0.0,0.0,0.0,0.0,0.0
1676469342.0943286,10770,1676469342,88689568,base_link,2.0795804262161257e-05,1.2589627504348753e-05,-3.341398537158966e-05,-1.0,0.0,0.0,0.0,0.0,0.0,0.0,0.0,0.0
1676469342.1136558,10771,1676469342,108670568,base_link,1.958172023296356e-05,1.2956495583057401e-05,-3.2892495393753054e-05,-1.0,0.0,0.0,0.0,0.0,0.0,0.0,0.0,0.0
1676469342.136448,10772,1676469342,128653568,base_link,2.0868483185768127e-05,1.3133607804775236e-05,-3.3878692984581e-05,-1.0,0.0,0.0,0.0,0.0,0.0,0.0,0.0,0.0
1676469342.153086,10773,1676469342,148638568,base_link,2.007393389940262e-05,1.3088262081146238e-05,-3.3202072978019717e-05,-1.0,0.0,0.0,0.0,0.0,0.0,0.0,0.0,0.0
1676469342.1746783,10774,1676469342,168622872,base_link,2.034878730773926e-05,1.3240247964859006e-05,-3.38922917842865e-05,-1.0,0.0,0.0,0.0,0.0,0.0,0.0,0.0,0.0
1676469342.1929266,10775,1676469342,188603872,base_link,2.0389854907989504e-05,1.2598170340061186e-05,-3.315364420413971e-05,-1.0,0.0,0.0,0.0,0.0,0.0,0.0,0.0,0.0
1676469342.212993,10776,1676469342,208587872,base_link,2.0798037946224213e-05,1.279606372117996e-05,-3.353080451488495e-05,-1.0,0.0,0.0,0.0,0.0,0.0,0.0,0.0,0.0
1676469342.236251,10777,1676469342,228569872,base_link,2.0199401676654816e-05,1.2950477004051206e-05,-3.29412192106247e-05,-1.0,0.0,0.0,0.0,0.0,0.0,0.0,0.0,0.0
1676469342.2538564,10778,1676469342,248552872,base_link,2.0128199458122254e-05,1.3118839263916012e-05,-3.273180425167084e-05,-1.0,0.0,0.0,0.0,0.0,0.0,0.0,0.0,0.0
1676469342.2752755,10779,1676469342,268538176,base_link,2.0588998496532442e-05,1.2462537735700605e-05,-3.3739942312240604e-05,-1.0,0.0,0.0,0.0,0.0,0.0,0.0,0.0,0.0
1676469342.2957242,10780,1676469342,288525176,base_link,2.0187664031982424e-05,1.294779926538467e-05,-3.3286076784133914e-05,-1.0,0.0,0.0,0.0,0.0,0.0,0.0,0.0,0.0
1676469342.314721,10781,1676469342,308504176,base_link,2.0615053176879883e-05,1.2671072781085965e-05,-3.349319398403168e-05,-1.0,0.0,0.0,0.0,0.0,0.0,0.0,0.0,0.0
