Time,header.seq,header.stamp.secs,header.stamp.nsecs,header.frame_id,orientation.x,orientation.y,orientation.z,orientation.w,orientation_covariance_0,orientation_covariance_1,orientation_covariance_2,orientation_covariance_3,orientation_covariance_4,orientation_covariance_5,orientation_covariance_6,orientation_covariance_7,orientation_covariance_8,angular_velocity.x,angular_velocity.y,angular_velocity.z,angular_velocity_covariance_0,angular_velocity_covariance_1,angular_velocity_covariance_2,angular_velocity_covariance_3,angular_velocity_covariance_4,angular_velocity_covariance_5,angular_velocity_covariance_6,angular_velocity_covariance_7,angular_velocity_covariance_8,linear_acceleration.x,linear_acceleration.y,linear_acceleration.z,linear_acceleration_covariance_0,linear_acceleration_covariance_1,linear_acceleration_covariance_2,linear_acceleration_covariance_3,linear_acceleration_covariance_4,linear_acceleration_covariance_5,linear_acceleration_covariance_6,linear_acceleration_covariance_7,linear_acceleration_covariance_8
1676469335.1215434,10871,1676469334,655261056,base_link,0.010550336096504721,0.10359779657674781,-0.0037515752796516105,-0.9945562959320619,1.0,0.0,0.0,0.0,1.0,0.0,0.0,0.0,1.0,-0.0011762429494410753,-0.0004473275039345024,0.0016513022128492594,1.2184696791468346e-07,0.0,0.0,0.0,1.2184696791468346e-07,0.0,0.0,0.0,1.2184696791468346e-07,2.0190343856811523,-0.24226978421211126,9.594484329223633,8.999999999999999e-08,0.0,0.0,0.0,8.999999999999999e-08,0.0,0.0,0.0,8.999999999999999e-08
1676469335.1216288,10872,1676469334,675265920,base_link,0.010559223813184459,0.10360352327978922,-0.003754314824804827,-0.9945555794356372,1.0,0.0,0.0,0.0,1.0,0.0,0.0,0.0,1.0,-0.0035020760260522366,-0.0024103200994431973,0.00032417636248283115,1.2184696791468346e-07,0.0,0.0,0.0,1.2184696791468346e-07,0.0,0.0,0.0,1.2184696791468346e-07,2.0117952823638916,-0.21791875362396124,9.594846725463867,8.999999999999999e-08,0.0,0.0,0.0,8.999999999999999e-08,0.0,0.0,0.0,8.999999999999999e-08
1676469335.1216934,10873,1676469334,695265920,base_link,0.010555267277780493,0.10360595199193466,-0.0037540197968652486,-0.9945553687013946,1.0,0.0,0.0,0.0,1.0,0.0,0.0,0.0,1.0,0.0018931501545011997,0.001785287749953568,0.0007267715409398077,1.2184696791468346e-07,0.0,0.0,0.0,1.2184696791468346e-07,0.0,0.0,0.0,1.2184696791468346e-07,2.036303997039795,-0.19871538877487066,9.603025436401367,8.999999999999999e-08,0.0,0.0,0.0,8.999999999999999e-08,0.0,0.0,0.0,8.999999999999999e-08
1676469335.1218517,10874,1676469334,715265920,base_link,0.010556468462963054,0.1036050142245553,-0.0037613954953546287,-0.9945554108482432,1.0,0.0,0.0,0.0,1.0,0.0,0.0,0.0,1.0,0.0027437792159616947,0.0009675630135461689,0.0009185529779642819,1.2184696791468346e-07,0.0,0.0,0.0,1.2184696791468346e-07,0.0,0.0,0.0,1.2184696791468346e-07,2.0188019275665283,-0.22701054811477545,9.594664573669434,8.999999999999999e-08,0.0,0.0,0.0,8.999999999999999e-08,0.0,0.0,0.0,8.999999999999999e-08
1676469335.1219118,10875,1676469334,730265920,base_link,0.010557643306365296,0.10360072051436325,-0.003762659900809962,-0.9945558323167283,1.0,0.0,0.0,0.0,1.0,0.0,0.0,0.0,1.0,0.00043675582855939865,6.0354359447956365e-06,0.0002304518420714885,1.2184696791468346e-07,0.0,0.0,0.0,1.2184696791468346e-07,0.0,0.0,0.0,1.2184696791468346e-07,2.025179624557495,-0.22431957721710089,9.587265014648438,8.999999999999999e-08,0.0,0.0,0.0,8.999999999999999e-08,0.0,0.0,0.0,8.999999999999999e-08
1676469335.1220026,10876,1676469334,755265920,base_link,0.010564360460346724,0.10361069351239215,-0.0037671274667521303,-0.994554736498667,1.0,0.0,0.0,0.0,1.0,0.0,0.0,0.0,1.0,-0.0008423156104981899,-0.0005644663469865917,0.001130115007981658,1.2184696791468346e-07,0.0,0.0,0.0,1.2184696791468346e-07,0.0,0.0,0.0,1.2184696791468346e-07,2.019740104675293,-0.209457755088805,9.609262466430664,8.999999999999999e-08,0.0,0.0,0.0,8.999999999999999e-08,0.0,0.0,0.0,8.999999999999999e-08
1676469335.1220903,10877,1676469334,775267456,base_link,0.010568127334932379,0.10361243733824928,-0.0037670853199036182,-0.9945545257644245,1.0,0.0,0.0,0.0,1.0,0.0,0.0,0.0,1.0,0.00074821338057518,0.000982405268587172,0.00018494427786208678,1.2184696791468346e-07,0.0,0.0,0.0,1.2184696791468346e-07,0.0,0.0,0.0,1.2184696791468346e-07,2.0273516178131104,-0.22318536043166998,9.574640274047852,8.999999999999999e-08,0.0,0.0,0.0,8.999999999999999e-08,0.0,0.0,0.0,8.999999999999999e-08
1676469335.122125,10878,1676469334,790267456,base_link,0.010571709817055807,0.10361976035317805,-0.0037674646415402145,-0.9945537249743027,1.0,0.0,0.0,0.0,1.0,0.0,0.0,0.0,1.0,-0.002115210983902216,0.0007447093958035113,0.0004986110143363475,1.2184696791468346e-07,0.0,0.0,0.0,1.2184696791468346e-07,0.0,0.0,0.0,1.2184696791468346e-07,2.0330095291137695,-0.2081520259380329,9.602163314819336,8.999999999999999e-08,0.0,0.0,0.0,8.999999999999999e-08,0.0,0.0,0.0,8.999999999999999e-08
1676469335.1222222,10879,1676469334,815267456,base_link,0.010571082882684213,0.1036199552823524,-0.0037654837396601947,-0.9945536828274543,1.0,0.0,0.0,0.0,1.0,0.0,0.0,0.0,1.0,0.000873972661793232,-0.00035315030254423624,-0.0004678681143559515,1.2184696791468346e-07,0.0,0.0,0.0,1.2184696791468346e-07,0.0,0.0,0.0,1.2184696791468346e-07,2.0190916061401367,-0.21844002604484442,9.57395076751709,8.999999999999999e-08,0.0,0.0,0.0,8.999999999999999e-08,0.0,0.0,0.0,8.999999999999999e-08
1676469335.1223004,10880,1676469334,834267456,base_link,0.010586524434307387,0.10361905439346548,-0.0037613112016576552,-0.9945536406806057,1.0,0.0,0.0,0.0,1.0,0.0,0.0,0.0,1.0,-0.0025039557367563248,-0.00015795731451362366,0.0005332919536158442,1.2184696791468346e-07,0.0,0.0,0.0,1.2184696791468346e-07,0.0,0.0,0.0,1.2184696791468346e-07,2.026665449142456,-0.19680216908454778,9.58565616607666,8.999999999999999e-08,0.0,0.0,0.0,8.999999999999999e-08,0.0,0.0,0.0,8.999999999999999e-08
1676469335.1223564,10881,1676469334,849267456,base_link,0.010581329835228423,0.10361672578008527,-0.0037613112016576565,-0.9945539778553938,1.0,0.0,0.0,0.0,1.0,0.0,0.0,0.0,1.0,-0.0011914628557860851,-0.0012585613876581192,-0.0004160174285061656,1.2184696791468346e-07,0.0,0.0,0.0,1.2184696791468346e-07,0.0,0.0,0.0,1.2184696791468346e-07,2.0259861946105957,-0.21828380227088812,9.597685813903809,8.999999999999999e-08,0.0,0.0,0.0,8.999999999999999e-08,0.0,0.0,0.0,8.999999999999999e-08
1676469335.1224625,10882,1676469334,874269248,base_link,0.010583574154911624,0.10361502936943269,-0.0037565064609273962,-0.9945541464427878,1.0,0.0,0.0,0.0,1.0,0.0,0.0,0.0,1.0,0.0002762754447758198,-0.0003401171416044236,-0.0002799287904053926,1.2184696791468346e-07,0.0,0.0,0.0,1.2184696791468346e-07,0.0,0.0,0.0,1.2184696791468346e-07,2.0107743740081787,-0.21340993046760443,9.573800086975098,8.999999999999999e-08,0.0,0.0,0.0,8.999999999999999e-08,0.0,0.0,0.0,8.999999999999999e-08
1676469335.122544,10883,1676469334,895269248,base_link,0.010597113829995753,0.10361487131875079,-0.003753387594137577,-0.9945539778553938,1.0,0.0,0.0,0.0,1.0,0.0,0.0,0.0,1.0,-0.0010128647554665804,-0.0011544916778802872,0.00010963794193230583,1.2184696791468346e-07,0.0,0.0,0.0,1.2184696791468346e-07,0.0,0.0,0.0,1.2184696791468346e-07,2.0371463298797607,-0.2133627831935871,9.587136268615723,8.999999999999999e-08,0.0,0.0,0.0,8.999999999999999e-08,0.0,0.0,0.0,8.999999999999999e-08
1676469335.1226213,10884,1676469334,914269248,base_link,0.010602266282226205,0.10361743173979782,-0.0037538090626226864,-0.9945536406806057,1.0,0.0,0.0,0.0,1.0,0.0,0.0,0.0,1.0,-0.0022954170126467943,-0.0003352960338816045,0.001262374222278595,1.2184696791468346e-07,0.0,0.0,0.0,1.2184696791468346e-07,0.0,0.0,0.0,1.2184696791468346e-07,2.0337986946105957,-0.21204456686973455,9.589361190795898,8.999999999999999e-08,0.0,0.0,0.0,8.999999999999999e-08,0.0,0.0,0.0,8.999999999999999e-08
1676469335.1227143,10885,1676469334,929269248,base_link,0.01059052838491592,0.10361687329405504,-0.003750310874196269,-0.9945538514148483,1.0,0.0,0.0,0.0,1.0,0.0,0.0,0.0,1.0,-0.0012106227222830057,0.0004081284860149027,0.0009490442462265491,1.2184696791468346e-07,0.0,0.0,0.0,1.2184696791468346e-07,0.0,0.0,0.0,1.2184696791468346e-07,2.0274457931518555,-0.20866960287094,9.605947494506836,8.999999999999999e-08,0.0,0.0,0.0,8.999999999999999e-08,0.0,0.0,0.0,8.999999999999999e-08
1676469335.1227815,10886,1676469334,954269248,base_link,0.010589543202331981,0.10361655192433515,-0.0037500579931052033,-0.9945539357085453,1.0,0.0,0.0,0.0,1.0,0.0,0.0,0.0,1.0,0.0022350470535457134,0.001444640220142901,-4.5688968384638605e-05,1.2184696791468346e-07,0.0,0.0,0.0,1.2184696791468346e-07,0.0,0.0,0.0,1.2184696791468346e-07,2.031088352203369,-0.23504880070686224,9.602948188781738,8.999999999999999e-08,0.0,0.0,0.0,8.999999999999999e-08,0.0,0.0,0.0,8.999999999999999e-08
1676469335.1385956,10887,1676469334,974271808,base_link,0.010594416431691055,0.10362257365531614,-0.003747276301103526,-0.994553261358969,1.0,0.0,0.0,0.0,1.0,0.0,0.0,0.0,1.0,0.0014847484417259693,-0.0005861512618139386,-0.0001881023490568622,1.2184696791468346e-07,0.0,0.0,0.0,1.2184696791468346e-07,0.0,0.0,0.0,1.2184696791468346e-07,2.014718532562256,-0.21160063147544744,9.61123275756836,8.999999999999999e-08,0.0,0.0,0.0,8.999999999999999e-08,0.0,0.0,0.0,8.999999999999999e-08
1676469335.1485457,10888,1676469334,995271808,base_link,0.010599848106792892,0.10362701487947798,-0.003750353021044776,-0.9945527134499385,1.0,0.0,0.0,0.0,1.0,0.0,0.0,0.0,1.0,-0.002559180837124586,-0.0004421973135322331,0.0014132206561043859,1.2184696791468346e-07,0.0,0.0,0.0,1.2184696791468346e-07,0.0,0.0,0.0,1.2184696791468346e-07,2.0362164974212646,-0.20653253793716314,9.596810340881348,8.999999999999999e-08,0.0,0.0,0.0,8.999999999999999e-08,0.0,0.0,0.0,8.999999999999999e-08
1676469335.1486273,10889,1676469335,14271808,base_link,0.010590528384915922,0.1036257873525151,-0.0037470655668609696,-0.9945529663310295,1.0,0.0,0.0,0.0,1.0,0.0,0.0,0.0,1.0,-0.0009087552316486835,5.4399948567151956e-05,-0.0005457919905893505,1.2184696791468346e-07,0.0,0.0,0.0,1.2184696791468346e-07,0.0,0.0,0.0,1.2184696791468346e-07,2.0260560512542725,-0.23415771126747015,9.600797653198242,8.999999999999999e-08,0.0,0.0,0.0,8.999999999999999e-08,0.0,0.0,0.0,8.999999999999999e-08
1676469335.1486442,10890,1676469335,34271808,base_link,0.01059416355059999,0.10362283707311934,-0.0037435252315860413,-0.9945532192121206,1.0,0.0,0.0,0.0,1.0,0.0,0.0,0.0,1.0,-0.0011214737314730883,0.0006916361162438991,0.0013943227240815759,1.2184696791468346e-07,0.0,0.0,0.0,1.2184696791468346e-07,0.0,0.0,0.0,1.2184696791468346e-07,2.0420658588409424,-0.20655140280723455,9.59248161315918,8.999999999999999e-08,0.0,0.0,0.0,8.999999999999999e-08,0.0,0.0,0.0,8.999999999999999e-08
1676469335.1486552,10891,1676469335,54271808,base_link,0.01059868380010278,0.10362476529143871,-0.0037448739307383945,-0.9945529663310295,1.0,0.0,0.0,0.0,1.0,0.0,0.0,0.0,1.0,0.0002164267934858799,-0.0003359375987201928,0.0009052419336512685,1.2184696791468346e-07,0.0,0.0,0.0,1.2184696791468346e-07,0.0,0.0,0.0,1.2184696791468346e-07,2.0256829261779785,-0.2091096937656391,9.592557907104492,8.999999999999999e-08,0.0,0.0,0.0,8.999999999999999e-08,0.0,0.0,0.0,8.999999999999999e-08
1676469335.1486673,10892,1676469335,74273856,base_link,0.010597235002185219,0.10362810016082714,-0.0037394791341289774,-0.9945526291562414,1.0,0.0,0.0,0.0,1.0,0.0,0.0,0.0,1.0,0.00332541111856699,-6.267800927161994e-06,0.0014363600639626384,1.2184696791468346e-07,0.0,0.0,0.0,1.2184696791468346e-07,0.0,0.0,0.0,1.2184696791468346e-07,2.0422511100769043,-0.20580056309699896,9.590906143188477,8.999999999999999e-08,0.0,0.0,0.0,8.999999999999999e-08,0.0,0.0,0.0,8.999999999999999e-08
1676469335.1486928,10893,1676469335,94273856,base_link,0.010589564275756237,0.10363402179304292,-0.003743314497343482,-0.9945521655409078,1.0,0.0,0.0,0.0,1.0,0.0,0.0,0.0,1.0,-1.652166247367859e-05,-0.0009176568128168582,0.00046613733866252016,1.2184696791468346e-07,0.0,0.0,0.0,1.2184696791468346e-07,0.0,0.0,0.0,1.2184696791468346e-07,2.0318942070007324,-0.22115606069564703,9.592577934265137,8.999999999999999e-08,0.0,0.0,0.0,8.999999999999999e-08,0.0,0.0,0.0,8.999999999999999e-08
1676469335.148809,10894,1676469335,114273856,base_link,0.010585512909943124,0.10363227796718578,-0.0037446631964958366,-0.9945523341283018,1.0,0.0,0.0,0.0,1.0,0.0,0.0,0.0,1.0,0.0024706250987946987,0.0021180198527872562,0.0012912276433780787,1.2184696791468346e-07,0.0,0.0,0.0,1.2184696791468346e-07,0.0,0.0,0.0,1.2184696791468346e-07,2.0241663455963135,-0.22683331370353582,9.589631080627441,8.999999999999999e-08,0.0,0.0,0.0,8.999999999999999e-08,0.0,0.0,0.0,8.999999999999999e-08
1676469335.1489794,10895,1676469335,134273856,base_link,0.010586350578557276,0.10363642416340804,-0.0037487514408014078,-0.9945518705129682,1.0,0.0,0.0,0.0,1.0,0.0,0.0,0.0,1.0,0.0015384601429104805,-0.0009641132201068104,-0.0008340087952092289,1.2184696791468346e-07,0.0,0.0,0.0,1.2184696791468346e-07,0.0,0.0,0.0,1.2184696791468346e-07,2.0341427326202393,-0.20370402932166937,9.586005210876465,8.999999999999999e-08,0.0,0.0,0.0,8.999999999999999e-08,0.0,0.0,0.0,8.999999999999999e-08
1676469335.157586,10896,1676469335,154273856,base_link,0.010598430919011715,0.10363723022188581,-0.003757517985291652,-0.9945516176318772,1.0,0.0,0.0,0.0,1.0,0.0,0.0,0.0,1.0,-0.0025653732009232044,-0.0002478169044479727,0.000588645227253437,1.2184696791468346e-07,0.0,0.0,0.0,1.2184696791468346e-07,0.0,0.0,0.0,1.2184696791468346e-07,2.0197689533233643,-0.22437539696693304,9.599692344665527,8.999999999999999e-08,0.0,0.0,0.0,8.999999999999999e-08,0.0,0.0,0.0,8.999999999999999e-08
1676469335.1793113,10897,1676469335,174275136,base_link,0.010592182648719976,0.10363322627127727,-0.0037567171951699437,-0.9945521655409078,1.0,0.0,0.0,0.0,1.0,0.0,0.0,0.0,1.0,-0.002465536119416356,0.00035457813646644354,-0.00013266221503727143,1.2184696791468346e-07,0.0,0.0,0.0,1.2184696791468346e-07,0.0,0.0,0.0,1.2184696791468346e-07,2.021759510040283,-0.21808362007140997,9.604382514953613,8.999999999999999e-08,0.0,0.0,0.0,8.999999999999999e-08,0.0,0.0,0.0,8.999999999999999e-08
1676469335.197418,10898,1676469335,194275136,base_link,0.010591334443393694,0.10363603430505931,-0.0037594567403231613,-0.9945518705129682,1.0,0.0,0.0,0.0,1.0,0.0,0.0,0.0,1.0,0.00215248204767704,0.0003733790945261718,0.0009475824190303683,1.2184696791468346e-07,0.0,0.0,0.0,1.2184696791468346e-07,0.0,0.0,0.0,1.2184696791468346e-07,2.0242650508880615,-0.22295078635215643,9.602721214294434,8.999999999999999e-08,0.0,0.0,0.0,8.999999999999999e-08,0.0,0.0,0.0,8.999999999999999e-08
1676469335.2184877,10899,1676469335,214275136,base_link,0.010592667337477851,0.10364365761628372,-0.0037576444258371824,-0.9945509854291494,1.0,0.0,0.0,0.0,1.0,0.0,0.0,0.0,1.0,0.0011773393489420414,0.00015826884191483262,0.00015977359726093707,1.2184696791468346e-07,0.0,0.0,0.0,1.2184696791468346e-07,0.0,0.0,0.0,1.2184696791468346e-07,2.05275559425354,-0.2154238820075977,9.585384368896484,8.999999999999999e-08,0.0,0.0,0.0,8.999999999999999e-08,0.0,0.0,0.0,8.999999999999999e-08
1676469335.2375197,10900,1676469335,234275136,base_link,0.010596307771517977,0.10364286209451808,-0.003759836061959758,-0.9945510697228466,1.0,0.0,0.0,0.0,1.0,0.0,0.0,0.0,1.0,-0.002723915968090296,0.0005522366845980287,0.0004181601980235427,1.2184696791468346e-07,0.0,0.0,0.0,1.2184696791468346e-07,0.0,0.0,0.0,1.2184696791468346e-07,2.0266988277435303,-0.1952564120292652,9.57565689086914,8.999999999999999e-08,0.0,0.0,0.0,8.999999999999999e-08,0.0,0.0,0.0,8.999999999999999e-08
1676469335.2574222,10901,1676469335,254275136,base_link,0.010599105268587889,0.10364377352011712,-0.003766453117175938,-0.994550943282301,1.0,0.0,0.0,0.0,1.0,0.0,0.0,0.0,1.0,-0.0003429437056183815,-0.0006515614222735164,0.001365729491226375,1.2184696791468346e-07,0.0,0.0,0.0,1.2184696791468346e-07,0.0,0.0,0.0,1.2184696791468346e-07,2.0093798637390137,-0.23133054375648382,9.587560653686523,8.999999999999999e-08,0.0,0.0,0.0,8.999999999999999e-08,0.0,0.0,0.0,8.999999999999999e-08
1676469335.2953336,10902,1676469335,289275136,base_link,0.0106343979858597,0.10362292663517243,-0.0038161863984188292,-0.9945525448625444,1.0,0.0,0.0,0.0,1.0,0.0,0.0,0.0,1.0,-0.020999819040298462,0.04501824453473091,0.023616297170519822,1.2184696791468346e-07,0.0,0.0,0.0,1.2184696791468346e-07,0.0,0.0,0.0,1.2184696791468346e-07,2.02240252494812,-0.21581515669822576,9.599647521972656,8.999999999999999e-08,0.0,0.0,0.0,8.999999999999999e-08,0.0,0.0,0.0,8.999999999999999e-08
1676469335.3126109,10903,1676469335,309275136,base_link,0.01055523039928805,0.1036457017384365,-0.004001042475987609,-0.9945502689327248,1.0,0.0,0.0,0.0,1.0,0.0,0.0,0.0,1.0,0.05825556442141533,-0.027142984792590138,0.027058625593781475,1.2184696791468346e-07,0.0,0.0,0.0,1.2184696791468346e-07,0.0,0.0,0.0,1.2184696791468346e-07,2.7777929306030273,0.09092575311660879,9.162338256835938,8.999999999999999e-08,0.0,0.0,0.0,8.999999999999999e-08,0.0,0.0,0.0,8.999999999999999e-08
1676469335.334075,10904,1676469335,329275136,base_link,0.010352604156715864,0.10379217784208004,-0.0038039216655021634,-0.9945378356124142,1.0,0.0,0.0,0.0,1.0,0.0,0.0,0.0,1.0,0.0037418236024677753,-0.03412098437547684,-0.020128259435296055,1.2184696791468346e-07,0.0,0.0,0.0,1.2184696791468346e-07,0.0,0.0,0.0,1.2184696791468346e-07,1.9595856666564941,-0.4857436716556538,9.04474925994873,8.999999999999999e-08,0.0,0.0,0.0,8.999999999999999e-08,0.0,0.0,0.0,8.999999999999999e-08
1676469335.351802,10905,1676469335,349275136,base_link,0.00998216496844149,0.10408573064195843,-0.003974279227183206,-0.9945103558671851,1.0,0.0,0.0,0.0,1.0,0.0,0.0,0.0,1.0,0.04686262458562851,-0.028031827881932255,0.026165552437305454,1.2184696791468346e-07,0.0,0.0,0.0,1.2184696791468346e-07,0.0,0.0,0.0,1.2184696791468346e-07,1.7179666757583618,-0.13864019513130071,9.607133865356445,8.999999999999999e-08,0.0,0.0,0.0,8.999999999999999e-08,0.0,0.0,0.0,8.999999999999999e-08
1676469335.3727288,10906,1676469335,369277440,base_link,0.009543094905723182,0.10438955146780528,-0.003589899968763843,-0.9944842248211082,1.0,0.0,0.0,0.0,1.0,0.0,0.0,0.0,1.0,0.0830763578414917,-0.011805649846792226,-0.046352729201316833,1.2184696791468346e-07,0.0,0.0,0.0,1.2184696791468346e-07,0.0,0.0,0.0,1.2184696791468346e-07,2.199775457382202,-0.20429965853690985,9.446282386779785,8.999999999999999e-08,0.0,0.0,0.0,8.999999999999999e-08,0.0,0.0,0.0,8.999999999999999e-08
1676469335.3952584,10907,1676469335,389277440,base_link,0.0088255026629767,0.10397742904635363,-0.003276496003236799,-0.9945351382141094,1.0,0.0,0.0,0.0,1.0,0.0,0.0,0.0,1.0,0.06908590346574783,0.11828407645225525,0.010530361905693994,1.2184696791468346e-07,0.0,0.0,0.0,1.2184696791468346e-07,0.0,0.0,0.0,1.2184696791468346e-07,2.5757875442504883,-0.3908003866672504,9.599305152893066,8.999999999999999e-08,0.0,0.0,0.0,8.999999999999999e-08,0.0,0.0,0.0,8.999999999999999e-08
1676469335.412762,10908,1676469335,409277440,base_link,0.007796619065484821,0.1013556053093925,-0.003921679960241593,-0.994812043008826,1.0,0.0,0.0,0.0,1.0,0.0,0.0,0.0,1.0,0.174129918217659,0.3608090281486511,0.0773869082331657,1.2184696791468346e-07,0.0,0.0,0.0,1.2184696791468346e-07,0.0,0.0,0.0,1.2184696791468346e-07,2.479949474334717,-0.6940050125122058,10.365667343139648,8.999999999999999e-08,0.0,0.0,0.0,8.999999999999999e-08,0.0,0.0,0.0,8.999999999999999e-08
1676469335.4318647,10909,1676469335,429277440,base_link,0.006799738096902864,0.0938131027644701,-0.0051769816962900506,-0.9955531531930416,1.0,0.0,0.0,0.0,1.0,0.0,0.0,0.0,1.0,-0.019165009260177612,1.046967625617981,0.21356230974197374,1.2184696791468346e-07,0.0,0.0,0.0,1.2184696791468346e-07,0.0,0.0,0.0,1.2184696791468346e-07,4.134603977203369,0.4821539223194134,9.495466232299805,8.999999999999999e-08,0.0,0.0,0.0,8.999999999999999e-08,0.0,0.0,0.0,8.999999999999999e-08
1676469335.452488,10910,1676469335,449277440,base_link,0.006393218572125132,0.08250867788858655,-0.006808359761601196,-0.9965465965592918,1.0,0.0,0.0,0.0,1.0,0.0,0.0,0.0,1.0,0.10593629628419876,1.2112038135528564,0.1512537300586699,1.2184696791468346e-07,0.0,0.0,0.0,1.2184696791468346e-07,0.0,0.0,0.0,1.2184696791468346e-07,3.492220640182495,-0.3872213065624225,9.749619483947754,8.999999999999999e-08,0.0,0.0,0.0,8.999999999999999e-08,0.0,0.0,0.0,8.999999999999999e-08
1676469335.473147,10911,1676469335,469279744,base_link,0.006437348956694071,0.06974795295610609,-0.008151074061461252,-0.99751066357213,1.0,0.0,0.0,0.0,1.0,0.0,0.0,0.0,1.0,-0.04098761826753616,1.4134403467178345,0.20108875632286055,1.2184696791468346e-07,0.0,0.0,0.0,1.2184696791468346e-07,0.0,0.0,0.0,1.2184696791468346e-07,3.774894952774048,0.6007187366485606,8.594622611999512,8.999999999999999e-08,0.0,0.0,0.0,8.999999999999999e-08,0.0,0.0,0.0,8.999999999999999e-08
1676469335.495181,10912,1676469335,489279744,base_link,0.0075910530802289974,0.05619358179274123,-0.009961660526640837,-0.9983413358094312,1.0,0.0,0.0,0.0,1.0,0.0,0.0,0.0,1.0,-0.11318603903055191,1.3250937461853027,0.1809555441141127,1.2184696791468346e-07,0.0,0.0,0.0,1.2184696791468346e-07,0.0,0.0,0.0,1.2184696791468346e-07,1.792014241218567,0.20283785462379572,9.538050651550293,8.999999999999999e-08,0.0,0.0,0.0,8.999999999999999e-08,0.0,0.0,0.0,8.999999999999999e-08
1676469335.513573,10913,1676469335,509279744,base_link,0.008914339000014553,0.0428158441202185,-0.01142331323299859,-0.9989779218093398,1.0,0.0,0.0,0.0,1.0,0.0,0.0,0.0,1.0,-0.10728492587804794,1.3135722875595093,0.16584002971649153,1.2184696791468346e-07,0.0,0.0,0.0,1.2184696791468346e-07,0.0,0.0,0.0,1.2184696791468346e-07,1.7533634901046753,0.20953649282455555,9.168265342712402,8.999999999999999e-08,0.0,0.0,0.0,8.999999999999999e-08,0.0,0.0,0.0,8.999999999999999e-08
1676469335.5352063,10914,1676469335,529279744,base_link,0.010383266647552042,0.03118237155402082,-0.013076860540626475,-0.9993742286258878,1.0,0.0,0.0,0.0,1.0,0.0,0.0,0.0,1.0,-0.16401666402816772,1.0185294151306152,0.1790415197610854,1.2184696791468346e-07,0.0,0.0,0.0,1.2184696791468346e-07,0.0,0.0,0.0,1.2184696791468346e-07,-0.2852068245410919,-0.14361044764518618,9.819962501525879,8.999999999999999e-08,0.0,0.0,0.0,8.999999999999999e-08,0.0,0.0,0.0,8.999999999999999e-08
1676469335.5530145,10915,1676469335,549279744,base_link,0.011456778159988641,0.02210848467115158,-0.014488527084650375,-0.9995849628684422,1.0,0.0,0.0,0.0,1.0,0.0,0.0,0.0,1.0,-0.05659298971295357,0.757567286491394,0.10490671545267095,1.2184696791468346e-07,0.0,0.0,0.0,1.2184696791468346e-07,0.0,0.0,0.0,1.2184696791468346e-07,-0.636554479598999,-0.5437939167022693,9.784052848815918,8.999999999999999e-08,0.0,0.0,0.0,8.999999999999999e-08,0.0,0.0,0.0,8.999999999999999e-08
1676469335.5752847,10916,1676469335,569281792,base_link,0.011525540578698038,0.015960861218291683,-0.015310854245946416,-0.9996890234374156,1.0,0.0,0.0,0.0,1.0,0.0,0.0,0.0,1.0,-0.05478730797767639,0.45650017261505127,0.04171415418386454,1.2184696791468346e-07,0.0,0.0,0.0,1.2184696791468346e-07,0.0,0.0,0.0,1.2184696791468346e-07,-0.751943826675415,-0.878840386867522,9.834593772888184,8.999999999999999e-08,0.0,0.0,0.0,8.999999999999999e-08,0.0,0.0,0.0,8.999999999999999e-08
1676469335.592766,10917,1676469335,589281792,base_link,0.011003238886613198,0.012433158967309345,-0.015602383997096347,-0.9997404847394473,1.0,0.0,0.0,0.0,1.0,0.0,0.0,0.0,1.0,0.1279878467321396,0.23602208495140076,0.033586185425519915,1.2184696791468346e-07,0.0,0.0,0.0,1.2184696791468346e-07,0.0,0.0,0.0,1.2184696791468346e-07,-0.9903538823127747,-0.8260832428932178,9.990248680114746,8.999999999999999e-08,0.0,0.0,0.0,8.999999999999999e-08,0.0,0.0,0.0,8.999999999999999e-08
1676469335.6131039,10918,1676469335,609281792,base_link,0.010003446286966294,0.01091122396103047,-0.015007312642971001,-0.9997777847003796,1.0,0.0,0.0,0.0,1.0,0.0,0.0,0.0,1.0,0.10186583548784256,0.08245747536420821,-0.14460457861423492,1.2184696791468346e-07,0.0,0.0,0.0,1.2184696791468346e-07,0.0,0.0,0.0,1.2184696791468346e-07,-0.6873934864997864,0.10104232281446576,9.764817237854004,8.999999999999999e-08,0.0,0.0,0.0,8.999999999999999e-08,0.0,0.0,0.0,8.999999999999999e-08
1676469335.6335664,10919,1676469335,629281792,base_link,0.009182925225142415,0.011006035560502472,-0.014357323945235936,-0.9997942219712987,1.0,0.0,0.0,0.0,1.0,0.0,0.0,0.0,1.0,0.04035889729857445,-0.08346456289291382,-0.006995189469307651,1.2184696791468346e-07,0.0,0.0,0.0,1.2184696791468346e-07,0.0,0.0,0.0,1.2184696791468346e-07,-0.7924119830131531,-0.2778623700141895,9.537471771240234,8.999999999999999e-08,0.0,0.0,0.0,8.999999999999999e-08,0.0,0.0,0.0,8.999999999999999e-08
1676469335.655888,10920,1676469335,649281792,base_link,0.008697615130523853,0.012115834192417935,-0.013812702368778235,-0.9997934633280255,1.0,0.0,0.0,0.0,1.0,0.0,0.0,0.0,1.0,0.07542040199041367,-0.13675372302532196,-0.09516420960426329,1.2184696791468346e-07,0.0,0.0,0.0,1.2184696791468346e-07,0.0,0.0,0.0,1.2184696791468346e-07,-0.6585094332695007,-0.1441328525543201,9.660492897033691,8.999999999999999e-08,0.0,0.0,0.0,8.999999999999999e-08,0.0,0.0,0.0,8.999999999999999e-08
1676469335.6727343,10921,1676469335,669283584,base_link,0.00852621575143119,0.013549988714300413,-0.013367842382745672,-0.9997825472942612,1.0,0.0,0.0,0.0,1.0,0.0,0.0,0.0,1.0,-0.045335590839385986,-0.16837665438652039,-0.04436908662319181,1.2184696791468346e-07,0.0,0.0,0.0,1.2184696791468346e-07,0.0,0.0,0.0,1.2184696791468346e-07,0.2769623100757599,0.32506394386291626,9.809380531311035,8.999999999999999e-08,0.0,0.0,0.0,8.999999999999999e-08,0.0,0.0,0.0,8.999999999999999e-08
1676469335.6948428,10922,1676469335,689283584,base_link,0.008383026937335364,0.014821776618197847,-0.013124444332595353,-0.9997688495684952,1.0,0.0,0.0,0.0,1.0,0.0,0.0,0.0,1.0,0.027201002463698387,-0.08343297988176346,-0.0012163114733993905,1.2184696791468346e-07,0.0,0.0,0.0,1.2184696791468346e-07,0.0,0.0,0.0,1.2184696791468346e-07,0.33936381340026855,-0.46780484914779547,9.617165565490723,8.999999999999999e-08,0.0,0.0,0.0,8.999999999999999e-08,0.0,0.0,0.0,8.999999999999999e-08
1676469335.7153263,10923,1676469335,709283584,base_link,0.00823634405071631,0.015640182805493372,-0.01288197351311208,-0.9997607995204296,1.0,0.0,0.0,0.0,1.0,0.0,0.0,0.0,1.0,0.048845209181308746,-0.09027934819459915,0.015340590849518786,1.2184696791468346e-07,0.0,0.0,0.0,1.2184696791468346e-07,0.0,0.0,0.0,1.2184696791468346e-07,0.35631945729255676,0.4312674701213849,10.132135391235352,8.999999999999999e-08,0.0,0.0,0.0,8.999999999999999e-08,0.0,0.0,0.0,8.999999999999999e-08
1676469335.7330878,10924,1676469335,729283584,base_link,0.00782981497704321,0.01586544355207718,-0.012715240580403,-0.9997626539817641,1.0,0.0,0.0,0.0,1.0,0.0,0.0,0.0,1.0,0.05765634775161743,-0.006813277024775743,0.00998357217758894,1.2184696791468346e-07,0.0,0.0,0.0,1.2184696791468346e-07,0.0,0.0,0.0,1.2184696791468346e-07,-0.2812478840351105,-0.9004212617874132,10.461798667907715,8.999999999999999e-08,0.0,0.0,0.0,8.999999999999999e-08,0.0,0.0,0.0,8.999999999999999e-08
1676469335.7534819,10925,1676469335,749283584,base_link,0.007667960871321504,0.015492008974108244,-0.01281306341579686,-0.9997685123937071,1.0,0.0,0.0,0.0,1.0,0.0,0.0,0.0,1.0,0.006982939783483744,0.09242504090070724,0.02373944967985152,1.2184696791468346e-07,0.0,0.0,0.0,1.2184696791468346e-07,0.0,0.0,0.0,1.2184696791468346e-07,-0.24439263343811035,-0.33951053023338196,10.0253324508667,8.999999999999999e-08,0.0,0.0,0.0,8.999999999999999e-08,0.0,0.0,0.0,8.999999999999999e-08
1676469335.772437,10926,1676469335,769285632,base_link,0.007153360363349139,0.01455650764639282,-0.01279152637620778,-0.9997866776854153,1.0,0.0,0.0,0.0,1.0,0.0,0.0,0.0,1.0,0.15961001813411713,0.15561330318450928,-0.036516230553388616,1.2184696791468346e-07,0.0,0.0,0.0,1.2184696791468346e-07,0.0,0.0,0.0,1.2184696791468346e-07,0.97597336769104,-0.477391093969344,9.27711296081543,8.999999999999999e-08,0.0,0.0,0.0,8.999999999999999e-08,0.0,0.0,0.0,8.999999999999999e-08
1676469335.7959917,10927,1676469335,789285632,base_link,0.006446839900143117,0.013472153198632285,-0.012644981783935411,-0.9998085518997925,1.0,0.0,0.0,0.0,1.0,0.0,0.0,0.0,1.0,0.02958737127482891,0.08187834173440933,-0.032104227691888816,1.2184696791468346e-07,0.0,0.0,0.0,1.2184696791468346e-07,0.0,0.0,0.0,1.2184696791468346e-07,-0.14227840304374695,0.4705197513103498,10.216261863708496,8.999999999999999e-08,0.0,0.0,0.0,8.999999999999999e-08,0.0,0.0,0.0,8.999999999999999e-08
1676469335.8159783,10928,1676469335,809285632,base_link,0.006327580123925479,0.012507565935632788,-0.012679289318623242,-0.9998214488354369,1.0,0.0,0.0,0.0,1.0,0.0,0.0,0.0,1.0,-0.2653651833534241,0.028437307104468356,0.09641966968774796,1.2184696791468346e-07,0.0,0.0,0.0,1.2184696791468346e-07,0.0,0.0,0.0,1.2184696791468346e-07,-0.35959452390670776,-0.01549109444022037,11.57153606414795,8.999999999999999e-08,0.0,0.0,0.0,8.999999999999999e-08,0.0,0.0,0.0,8.999999999999999e-08
1676469335.833049,10929,1676469335,829285632,base_link,0.006475245888222697,0.011717916740639598,-0.012751908338607497,-0.9998290774150173,1.0,0.0,0.0,0.0,1.0,0.0,0.0,0.0,1.0,-0.09752123057842255,0.05780283734202385,-0.024359745904803283,1.2184696791468346e-07,0.0,0.0,0.0,1.2184696791468346e-07,0.0,0.0,0.0,1.2184696791468346e-07,0.054611124098300934,-0.6345348954200734,9.3120698928833,8.999999999999999e-08,0.0,0.0,0.0,8.999999999999999e-08,0.0,0.0,0.0,8.999999999999999e-08
1676469335.8536284,10930,1676469335,849285632,base_link,0.006001924431735833,0.010871122510602337,-0.01260266634803039,-0.9998435337840565,1.0,0.0,0.0,0.0,1.0,0.0,0.0,0.0,1.0,0.21819953620433807,0.10016614198684692,-0.007994160056114209,1.2184696791468346e-07,0.0,0.0,0.0,1.2184696791468346e-07,0.0,0.0,0.0,1.2184696791468346e-07,1.421549916267395,-0.11974696069955729,7.945761203765869,8.999999999999999e-08,0.0,0.0,0.0,8.999999999999999e-08,0.0,0.0,0.0,8.999999999999999e-08
1676469335.8745294,10931,1676469335,869287424,base_link,0.005426232066846928,0.010154849332505345,-0.012692860603843708,-0.999853227559214,1.0,0.0,0.0,0.0,1.0,0.0,0.0,0.0,1.0,-0.0734100416302681,0.029723027721047405,0.016045473515987393,1.2184696791468346e-07,0.0,0.0,0.0,1.2184696791468346e-07,0.0,0.0,0.0,1.2184696791468346e-07,0.16811171174049377,0.9479049444198621,9.893917083740234,8.999999999999999e-08,0.0,0.0,0.0,8.999999999999999e-08,0.0,0.0,0.0,8.999999999999999e-08
1676469335.8932595,10932,1676469335,889287424,base_link,0.005476132289122556,0.009655300188535179,-0.01281769956913298,-0.9998562621323068,1.0,0.0,0.0,0.0,1.0,0.0,0.0,0.0,1.0,-0.19373561441898346,-0.02733786031603813,-0.003966656513512131,1.2184696791468346e-07,0.0,0.0,0.0,1.2184696791468346e-07,0.0,0.0,0.0,1.2184696791468346e-07,0.10911092907190323,0.6261304020881666,10.81650447845459,8.999999999999999e-08,0.0,0.0,0.0,8.999999999999999e-08,0.0,0.0,0.0,8.999999999999999e-08
1676469335.9133213,10933,1676469335,909287424,base_link,0.0054641420046295875,0.009015031113829616,-0.013302978382887439,-0.9998560092512158,1.0,0.0,0.0,0.0,1.0,0.0,0.0,0.0,1.0,0.2375916987657547,0.09997343271970749,0.027571452781558023,1.2184696791468346e-07,0.0,0.0,0.0,1.2184696791468346e-07,0.0,0.0,0.0,1.2184696791468346e-07,0.9909058809280396,-1.1043330430984486,8.609101295471191,8.999999999999999e-08,0.0,0.0,0.0,8.999999999999999e-08,0.0,0.0,0.0,8.999999999999999e-08
1676469335.9345791,10934,1676469335,929287424,base_link,0.004475235351494797,0.00855675723471403,-0.013283843713663455,-0.9998651972641911,1.0,0.0,0.0,0.0,1.0,0.0,0.0,0.0,1.0,0.18728677928447723,0.01887756213545799,-0.02617467194795609,1.2184696791468346e-07,0.0,0.0,0.0,1.2184696791468346e-07,0.0,0.0,0.0,1.2184696791468346e-07,1.2891013622283936,0.27848911285400496,8.514914512634277,8.999999999999999e-08,0.0,0.0,0.0,8.999999999999999e-08,0.0,0.0,0.0,8.999999999999999e-08
1676469335.9527457,10935,1676469335,949287424,base_link,0.00398534475055096,0.008196034870654938,-0.013186821668391463,-0.9998715192914677,1.0,0.0,0.0,0.0,1.0,0.0,0.0,0.0,1.0,-0.052142973989248276,0.007085436023771762,-0.008706998080015184,1.2184696791468346e-07,0.0,0.0,0.0,1.2184696791468346e-07,0.0,0.0,0.0,1.2184696791468346e-07,-0.32006707787513733,0.24152719974517953,10.6988525390625,8.999999999999999e-08,0.0,0.0,0.0,8.999999999999999e-08,0.0,0.0,0.0,8.999999999999999e-08
1676469335.9735692,10936,1676469335,969289472,base_link,0.003594660422376053,0.00799503408056458,-0.013102738705612191,-0.9998757761231674,1.0,0.0,0.0,0.0,1.0,0.0,0.0,0.0,1.0,-0.0025199793744832277,0.0344390645623207,-0.05238741636276246,1.2184696791468346e-07,0.0,0.0,0.0,1.2184696791468346e-07,0.0,0.0,0.0,1.2184696791468346e-07,0.2361573576927185,-0.3298741579055774,9.888396263122559,8.999999999999999e-08,0.0,0.0,0.0,8.999999999999999e-08,0.0,0.0,0.0,8.999999999999999e-08
1676469335.9955807,10937,1676469335,989289472,base_link,8.432481324985221e-05,0.00544750898135534,-0.007919139954105809,-0.999953874233458,1.0,0.0,0.0,0.0,1.0,0.0,0.0,0.0,1.0,1.092820405960083,0.8374317288398742,-0.5772816538810731,1.2184696791468346e-07,0.0,0.0,0.0,1.2184696791468346e-07,0.0,0.0,0.0,1.2184696791468346e-07,0.880626380443573,-0.03323790431022546,7.962707996368408,8.999999999999999e-08,0.0,0.0,0.0,8.999999999999999e-08,0.0,0.0,0.0,8.999999999999999e-08
1676469336.0129888,10938,1676469336,8289472,base_link,-0.020825518138867145,-0.01174080906482597,-0.00425067825971758,-0.9997052078272437,1.0,0.0,0.0,0.0,1.0,0.0,0.0,0.0,1.0,3.315798044204712,2.6395349502563477,-0.004902677610516872,1.2184696791468346e-07,0.0,0.0,0.0,1.2184696791468346e-07,0.0,0.0,0.0,1.2184696791468346e-07,2.290170907974243,-3.006563901901244,10.538997650146484,8.999999999999999e-08,0.0,0.0,0.0,8.999999999999999e-08,0.0,0.0,0.0,8.999999999999999e-08
1676469336.0347679,10939,1676469336,28289472,base_link,-0.06391457163129562,-0.04277350563525565,-0.0023410888473860358,-0.9970356264425637,1.0,0.0,0.0,0.0,1.0,0.0,0.0,0.0,1.0,4.379234313964844,3.0801029205322266,-0.2827831804752354,1.2184696791468346e-07,0.0,0.0,0.0,1.2184696791468346e-07,0.0,0.0,0.0,1.2184696791468346e-07,3.003901958465576,-5.73776054382324,16.12147331237793,8.999999999999999e-08,0.0,0.0,0.0,8.999999999999999e-08,0.0,0.0,0.0,8.999999999999999e-08
1676469336.0557363,10940,1676469336,48289472,base_link,-0.09724873868223893,-0.06969685648773158,-0.000477903115264943,-0.9928166004660778,1.0,0.0,0.0,0.0,1.0,0.0,0.0,0.0,1.0,2.1258814334869385,2.190725803375244,0.002058470621704787,1.2184696791468346e-07,0.0,0.0,0.0,1.2184696791468346e-07,0.0,0.0,0.0,1.2184696791468346e-07,-0.37194159626960754,0.028904747217895935,19.06757164001465,8.999999999999999e-08,0.0,0.0,0.0,8.999999999999999e-08,0.0,0.0,0.0,8.999999999999999e-08
1676469336.0736322,10941,1676469336,68291520,base_link,-0.11170495757332777,-0.08555371525360263,-1.846031964768684e-05,-0.9900518093506115,1.0,0.0,0.0,0.0,1.0,0.0,0.0,0.0,1.0,0.9981536269187927,1.0289266109466553,-0.16035442054271712,1.2184696791468346e-07,0.0,0.0,0.0,1.2184696791468346e-07,0.0,0.0,0.0,1.2184696791468346e-07,-1.7487380504608154,3.1750197410583527,25.556957244873047,8.999999999999999e-08,0.0,0.0,0.0,8.999999999999999e-08,0.0,0.0,0.0,8.999999999999999e-08
1676469336.0919917,10942,1676469336,88291520,base_link,-0.12052340459044587,-0.09295232187226378,0.0012170745444491577,-0.9883484444680438,1.0,0.0,0.0,0.0,1.0,0.0,0.0,0.0,1.0,0.8616960644721985,0.49009770154953003,-0.09508898854255682,1.2184696791468346e-07,0.0,0.0,0.0,1.2184696791468346e-07,0.0,0.0,0.0,1.2184696791468346e-07,1.186928629875183,-0.2807164192199675,26.116413116455078,8.999999999999999e-08,0.0,0.0,0.0,8.999999999999999e-08,0.0,0.0,0.0,8.999999999999999e-08
1676469336.113248,10943,1676469336,108291520,base_link,-0.12467632982048765,-0.09556451373725114,0.002280270944984969,-0.9875819618810247,1.0,0.0,0.0,0.0,1.0,0.0,0.0,0.0,1.0,0.13479772210121155,0.10244131833314894,-0.10436799377202989,1.2184696791468346e-07,0.0,0.0,0.0,1.2184696791468346e-07,0.0,0.0,0.0,1.2184696791468346e-07,1.63681960105896,0.07966260612011267,25.439476013183594,8.999999999999999e-08,0.0,0.0,0.0,8.999999999999999e-08,0.0,0.0,0.0,8.999999999999999e-08
1676469336.1336982,10944,1676469336,128291520,base_link,-0.12365820025481113,-0.09482554118850849,0.0028543531685518418,-0.9877796727473893,1.0,0.0,0.0,0.0,1.0,0.0,0.0,0.0,1.0,-0.4084272086620331,-0.20500051975250244,-0.027365915477275824,1.2184696791468346e-07,0.0,0.0,0.0,1.2184696791468346e-07,0.0,0.0,0.0,1.2184696791468346e-07,1.7300834655761719,1.1320847272872951,22.060344696044922,8.999999999999999e-08,0.0,0.0,0.0,8.999999999999999e-08,0.0,0.0,0.0,8.999999999999999e-08
1676469336.1518042,10945,1676469336,148291520,base_link,-0.11690211048789742,-0.0921877727719201,0.0028457552114556335,-0.9888514671050213,1.0,0.0,0.0,0.0,1.0,0.0,0.0,0.0,1.0,-0.9795872569084167,-0.4064280390739441,-0.05728126317262645,1.2184696791468346e-07,0.0,0.0,0.0,1.2184696791468346e-07,0.0,0.0,0.0,1.2184696791468346e-07,0.8307592868804932,0.25877141952514865,17.597965240478516,8.999999999999999e-08,0.0,0.0,0.0,8.999999999999999e-08,0.0,0.0,0.0,8.999999999999999e-08
1676469336.1737149,10946,1676469336,168293568,base_link,-0.10333053089799447,-0.0849563001395734,0.002414930125977282,-0.991009301455082,1.0,0.0,0.0,0.0,1.0,0.0,0.0,0.0,1.0,-1.6885079145431519,-0.9469299912452698,-0.057267632335424305,1.2184696791468346e-07,0.0,0.0,0.0,1.2184696791468346e-07,0.0,0.0,0.0,1.2184696791468346e-07,-1.0704008340835571,0.4359259307384506,12.030841827392578,8.999999999999999e-08,0.0,0.0,0.0,8.999999999999999e-08,0.0,0.0,0.0,8.999999999999999e-08
1676469336.1950827,10947,1676469336,189293568,base_link,-0.08646035059989966,-0.07481563997167325,0.0022474385499949606,-0.9934395730339173,1.0,0.0,0.0,0.0,1.0,0.0,0.0,0.0,1.0,-1.7967519760131836,-1.0628955364227295,0.004180178046226632,1.2184696791468346e-07,0.0,0.0,0.0,1.2184696791468346e-07,0.0,0.0,0.0,1.2184696791468346e-07,-0.6035590767860413,0.8115559816360483,7.563140392303467,8.999999999999999e-08,0.0,0.0,0.0,8.999999999999999e-08,0.0,0.0,0.0,8.999999999999999e-08
1676469336.2132838,10948,1676469336,208293568,base_link,-0.06866069893687679,-0.06312907192524722,0.0019639588469107243,-0.9956387955892158,1.0,0.0,0.0,0.0,1.0,0.0,0.0,0.0,1.0,-1.847112774848938,-1.257615089416504,0.08041091263294235,1.2184696791468346e-07,0.0,0.0,0.0,1.2184696791468346e-07,0.0,0.0,0.0,1.2184696791468346e-07,0.6697163581848145,0.7638155221939094,5.729067802429199,8.999999999999999e-08,0.0,0.0,0.0,8.999999999999999e-08,0.0,0.0,0.0,8.999999999999999e-08
1676469336.2323358,10949,1676469336,228293568,base_link,-0.0502784059884758,-0.05051293731305267,0.001898209763233747,-0.9974553247600352,1.0,0.0,0.0,0.0,1.0,0.0,0.0,0.0,1.0,-1.8126181364059448,-1.3007806539535522,-0.008971255272626717,1.2184696791468346e-07,0.0,0.0,0.0,1.2184696791468346e-07,0.0,0.0,0.0,1.2184696791468346e-07,-0.06006232276558876,1.0967153310775761,4.1243510246276855,8.999999999999999e-08,0.0,0.0,0.0,8.999999999999999e-08,0.0,0.0,0.0,8.999999999999999e-08
1676469336.253995,10950,1676469336,248293568,base_link,-0.032040542963614,-0.037887569330629756,0.0018487715099304327,-0.9987665553640577,1.0,0.0,0.0,0.0,1.0,0.0,0.0,0.0,1.0,-1.7921217679977417,-1.2679115533828735,-0.013447975739836537,1.2184696791468346e-07,0.0,0.0,0.0,1.2184696791468346e-07,0.0,0.0,0.0,1.2184696791468346e-07,-0.11905156075954437,0.21847912669181865,3.3130948543548584,8.999999999999999e-08,0.0,0.0,0.0,8.999999999999999e-08,0.0,0.0,0.0,8.999999999999999e-08
1676469336.2723515,10951,1676469336,268295616,base_link,-0.014858248130138824,-0.025667719514901155,0.0018273187640384012,-0.9995584525007288,1.0,0.0,0.0,0.0,1.0,0.0,0.0,0.0,1.0,-1.6776469945907593,-1.2257251739501953,0.009151510894298704,1.2184696791468346e-07,0.0,0.0,0.0,1.2184696791468346e-07,0.0,0.0,0.0,1.2184696791468346e-07,-0.271899938583374,0.3558711111545568,4.23656702041626,8.999999999999999e-08,0.0,0.0,0.0,8.999999999999999e-08,0.0,0.0,0.0,8.999999999999999e-08
1676469336.2961473,10952,1676469336,288295616,base_link,0.0010504041734683087,-0.014236094462394976,0.0018611205365441604,-0.9998964702257862,1.0,0.0,0.0,0.0,1.0,0.0,0.0,0.0,1.0,-1.4751163721084595,-1.1513701677322388,-0.0928382426500319,1.2184696791468346e-07,0.0,0.0,0.0,1.2184696791468346e-07,0.0,0.0,0.0,1.2184696791468346e-07,-0.5940877199172974,-0.36193925142288164,3.6069865226745605,8.999999999999999e-08,0.0,0.0,0.0,8.999999999999999e-08,0.0,0.0,0.0,8.999999999999999e-08
1676469336.3129375,10953,1676469336,308295616,base_link,0.015299495670272893,-0.003551932243700615,0.002165842251277881,-0.9998743852771664,1.0,0.0,0.0,0.0,1.0,0.0,0.0,0.0,1.0,-1.3192994594573975,-1.139183759689331,-0.12480215728282915,1.2184696791468346e-07,0.0,0.0,0.0,1.2184696791468346e-07,0.0,0.0,0.0,1.2184696791468346e-07,-0.37741780281066895,-0.6774238348007197,4.916351795196533,8.999999999999999e-08,0.0,0.0,0.0,8.999999999999999e-08,0.0,0.0,0.0,8.999999999999999e-08
1676469336.333483,10954,1676469336,328295616,base_link,0.028479585696703797,0.006138645021674248,0.002425888306590093,-0.9995726138418285,1.0,0.0,0.0,0.0,1.0,0.0,0.0,0.0,1.0,-1.3377634286880493,-0.9091350436210632,0.0016590619925410668,1.2184696791468346e-07,0.0,0.0,0.0,1.2184696791468346e-07,0.0,0.0,0.0,1.2184696791468346e-07,1.3131015300750732,0.3779619932174689,4.89173698425293,8.999999999999999e-08,0.0,0.0,0.0,8.999999999999999e-08,0.0,0.0,0.0,8.999999999999999e-08
1676469336.3545158,10955,1676469336,348295616,base_link,0.04074396168225064,0.015439362621234324,0.002800742377245985,-0.9990464525850185,1.0,0.0,0.0,0.0,1.0,0.0,0.0,0.0,1.0,-1.2680412530899048,-0.8959869742393494,-0.03392037749290455,1.2184696791468346e-07,0.0,0.0,0.0,1.2184696791468346e-07,0.0,0.0,0.0,1.2184696791468346e-07,-1.4986557960510254,-0.9481937885284416,6.192245006561279,8.999999999999999e-08,0.0,0.0,0.0,8.999999999999999e-08,0.0,0.0,0.0,8.999999999999999e-08
1676469336.3720005,10956,1676469336,368297664,base_link,0.05257928406704559,0.024293812266603848,0.0031757228884474378,-0.9983161741408701,1.0,0.0,0.0,0.0,1.0,0.0,0.0,0.0,1.0,-1.1313616037368774,-0.8665292263031006,-0.047515675425529376,1.2184696791468346e-07,0.0,0.0,0.0,1.2184696791468346e-07,0.0,0.0,0.0,1.2184696791468346e-07,0.1487211436033249,-0.4709971249103538,7.020636558532715,8.999999999999999e-08,0.0,0.0,0.0,8.999999999999999e-08,0.0,0.0,0.0,8.999999999999999e-08
1676469336.394224,10957,1676469336,388297664,base_link,0.06395859599019889,0.03288969889889313,0.003700704033499141,-0.9974036105769124,1.0,0.0,0.0,0.0,1.0,0.0,0.0,0.0,1.0,-1.1114702224731445,-0.8372251987457275,-0.06395447254180898,1.2184696791468346e-07,0.0,0.0,0.0,1.2184696791468346e-07,0.0,0.0,0.0,1.2184696791468346e-07,0.4657600224018097,1.4819332361221325,9.15937614440918,8.999999999999999e-08,0.0,0.0,0.0,8.999999999999999e-08,0.0,0.0,0.0,8.999999999999999e-08
1676469336.4140995,10958,1676469336,408297664,base_link,0.07442260217006307,0.04097246608980851,0.004178649295612677,-0.9963759861165198,1.0,0.0,0.0,0.0,1.0,0.0,0.0,0.0,1.0,-1.0504759550094604,-0.8085376620292664,-0.08066008239984503,1.2184696791468346e-07,0.0,0.0,0.0,1.2184696791468346e-07,0.0,0.0,0.0,1.2184696791468346e-07,-0.1572474241256714,0.43595191836357233,9.447834968566895,8.999999999999999e-08,0.0,0.0,0.0,8.999999999999999e-08,0.0,0.0,0.0,8.999999999999999e-08
1676469336.432876,10959,1676469336,428297664,base_link,0.08422543493226867,0.04823927556190903,0.004584776327863627,-0.9952678611754713,1.0,0.0,0.0,0.0,1.0,0.0,0.0,0.0,1.0,-0.9664030075073242,-0.6685189008712769,-0.07354635000228874,1.2184696791468346e-07,0.0,0.0,0.0,1.2184696791468346e-07,0.0,0.0,0.0,1.2184696791468346e-07,-1.2953684329986572,-0.05513950809836267,9.835770606994629,8.999999999999999e-08,0.0,0.0,0.0,8.999999999999999e-08,0.0,0.0,0.0,8.999999999999999e-08
1676469336.4522943,10960,1676469336,448297664,base_link,0.09328430469545013,0.054066883427017896,0.005075239203984941,-0.9941575024514518,1.0,0.0,0.0,0.0,1.0,0.0,0.0,0.0,1.0,-0.9210869669914246,-0.5517038702964783,0.0508240498602391,1.2184696791468346e-07,0.0,0.0,0.0,1.2184696791468346e-07,0.0,0.0,0.0,1.2184696791468346e-07,-0.20823371410369873,0.7904964685440077,10.514540672302246,8.999999999999999e-08,0.0,0.0,0.0,8.999999999999999e-08,0.0,0.0,0.0,8.999999999999999e-08
1676469336.4734323,10961,1676469336,468299200,base_link,0.10124444167935599,0.05861824915781347,0.005742760990700445,-0.9931166438806267,1.0,0.0,0.0,0.0,1.0,0.0,0.0,0.0,1.0,-0.7867117524147034,-0.4069637954235077,-0.06571370363235468,1.2184696791468346e-07,0.0,0.0,0.0,1.2184696791468346e-07,0.0,0.0,0.0,1.2184696791468346e-07,-0.2193644493818283,-1.2313302755355822,10.737613677978516,8.999999999999999e-08,0.0,0.0,0.0,8.999999999999999e-08,0.0,0.0,0.0,8.999999999999999e-08
1676469336.4943006,10962,1676469336,488299200,base_link,0.10821568715665078,0.06219586463732547,0.006266519877145333,-0.992160205447369,1.0,0.0,0.0,0.0,1.0,0.0,0.0,0.0,1.0,-0.7409377098083496,-0.30979016423225403,-0.06710813939571376,1.2184696791468346e-07,0.0,0.0,0.0,1.2184696791468346e-07,0.0,0.0,0.0,1.2184696791468346e-07,0.07105113565921783,-0.9203424453735338,10.868083953857422,8.999999999999999e-08,0.0,0.0,0.0,8.999999999999999e-08,0.0,0.0,0.0,8.999999999999999e-08
1676469336.5140998,10963,1676469336,508299200,base_link,0.11410725286437493,0.06497782532520373,0.0068846455574060935,-0.9913173527708482,1.0,0.0,0.0,0.0,1.0,0.0,0.0,0.0,1.0,-0.5202609896659851,-0.2130047082901001,-0.07997321337461469,1.2184696791468346e-07,0.0,0.0,0.0,1.2184696791468346e-07,0.0,0.0,0.0,1.2184696791468346e-07,0.1967894434928894,-0.7371455430984484,10.436589241027832,8.999999999999999e-08,0.0,0.0,0.0,8.999999999999999e-08,0.0,0.0,0.0,8.999999999999999e-08
1676469336.5328255,10964,1676469336,528299200,base_link,0.118638284057853,0.06686582238020758,0.007296631001600093,-0.9906567009204399,1.0,0.0,0.0,0.0,1.0,0.0,0.0,0.0,1.0,-0.3576844036579132,-0.14735250174999237,-0.019212819635868055,1.2184696791468346e-07,0.0,0.0,0.0,1.2184696791468346e-07,0.0,0.0,0.0,1.2184696791468346e-07,0.5085980892181396,0.8060168623924268,9.762682914733887,8.999999999999999e-08,0.0,0.0,0.0,8.999999999999999e-08,0.0,0.0,0.0,8.999999999999999e-08
1676469336.5537672,10965,1676469336,548299200,base_link,0.12158385881165056,0.06772821538936931,0.007613743889796073,-0.9902385198895148,1.0,0.0,0.0,0.0,1.0,0.0,0.0,0.0,1.0,-0.2836638391017914,-0.04355925694108009,0.006744981743395334,1.2184696791468346e-07,0.0,0.0,0.0,1.2184696791468346e-07,0.0,0.0,0.0,1.2184696791468346e-07,-0.37159594893455505,-0.0011930149048554979,9.667081832885742,8.999999999999999e-08,0.0,0.0,0.0,8.999999999999999e-08,0.0,0.0,0.0,8.999999999999999e-08
1676469336.5726557,10966,1676469336,568301248,base_link,0.12302078712300066,0.06729286478603208,0.007997575239184783,-0.9900876763186943,1.0,0.0,0.0,0.0,1.0,0.0,0.0,0.0,1.0,-0.041149891912937164,0.12116935104131699,-0.022777808830142035,1.2184696791468346e-07,0.0,0.0,0.0,1.2184696791468346e-07,0.0,0.0,0.0,1.2184696791468346e-07,-0.06052425503730774,0.7029923796653758,8.441462516784668,8.999999999999999e-08,0.0,0.0,0.0,8.999999999999999e-08,0.0,0.0,0.0,8.999999999999999e-08
1676469336.5938706,10967,1676469336,588301248,base_link,0.12363643667591141,0.06608401941375475,0.008226264039204895,-0.9900906265980901,1.0,0.0,0.0,0.0,1.0,0.0,0.0,0.0,1.0,0.02381213568150997,0.17621664702892303,-0.007065818645060084,1.2184696791468346e-07,0.0,0.0,0.0,1.2184696791468346e-07,0.0,0.0,0.0,1.2184696791468346e-07,0.854448676109314,0.8060858249664318,9.191997528076172,8.999999999999999e-08,0.0,0.0,0.0,8.999999999999999e-08,0.0,0.0,0.0,8.999999999999999e-08
1676469336.6136134,10968,1676469336,608301248,base_link,0.12331261453626811,0.06454644706233867,0.008475646941843844,-0.9902302591072066,1.0,0.0,0.0,0.0,1.0,0.0,0.0,0.0,1.0,0.01827375218272209,0.11757306009531021,0.03220261633396147,1.2184696791468346e-07,0.0,0.0,0.0,1.2184696791468346e-07,0.0,0.0,0.0,1.2184696791468346e-07,0.00466223806142807,0.15010575950145827,8.653046607971191,8.999999999999999e-08,0.0,0.0,0.0,8.999999999999999e-08,0.0,0.0,0.0,8.999999999999999e-08
1676469336.6320913,10969,1676469336,628301248,base_link,0.12302225699434248,0.06308855332803243,0.008496636072402284,-0.9903601556943173,1.0,0.0,0.0,0.0,1.0,0.0,0.0,0.0,1.0,0.09422294050455093,0.1722313016653061,-0.03650369495153429,1.2184696791468346e-07,0.0,0.0,0.0,1.2184696791468346e-07,0.0,0.0,0.0,1.2184696791468346e-07,-0.783790111541748,-0.5198478102684011,8.403043746948242,8.999999999999999e-08,0.0,0.0,0.0,8.999999999999999e-08,0.0,0.0,0.0,8.999999999999999e-08
1676469336.6532469,10970,1676469336,648301248,base_link,0.12240660480725368,0.06118295996377528,0.008530227110665438,-0.9905556749245593,1.0,0.0,0.0,0.0,1.0,0.0,0.0,0.0,1.0,0.10571454465389252,0.18889087438583374,-0.03055789135396483,1.2184696791468346e-07,0.0,0.0,0.0,1.2184696791468346e-07,0.0,0.0,0.0,1.2184696791468346e-07,0.026906780898571014,-0.470940500497817,8.225093841552734,8.999999999999999e-08,0.0,0.0,0.0,8.999999999999999e-08,0.0,0.0,0.0,8.999999999999999e-08
1676469336.673304,10971,1676469336,668303296,base_link,0.12073736570108956,0.058839819091702286,0.008566431253536294,-0.9909021641661674,1.0,0.0,0.0,0.0,1.0,0.0,0.0,0.0,1.0,0.24038787186145782,0.28925296664237976,0.03956769406795498,1.2184696791468346e-07,0.0,0.0,0.0,1.2184696791468346e-07,0.0,0.0,0.0,1.2184696791468346e-07,0.5351419448852539,-0.5459094643592823,8.640387535095215,8.999999999999999e-08,0.0,0.0,0.0,8.999999999999999e-08,0.0,0.0,0.0,8.999999999999999e-08
1676469336.6917741,10972,1676469336,688303296,base_link,0.11805055679208072,0.05612155809699217,0.008430971282422288,-0.991384576994223,1.0,0.0,0.0,0.0,1.0,0.0,0.0,0.0,1.0,0.25400614738464355,0.27573734521865845,-0.012479340657591853,1.2184696791468346e-07,0.0,0.0,0.0,1.2184696791468346e-07,0.0,0.0,0.0,1.2184696791468346e-07,1.0116701126098633,-0.5620641708374012,9.392062187194824,8.999999999999999e-08,0.0,0.0,0.0,8.999999999999999e-08,0.0,0.0,0.0,8.999999999999999e-08
1676469336.7125409,10973,1676469336,708303296,base_link,0.1151372665242425,0.053138556941716944,0.008321937385324614,-0.9918924043719308,1.0,0.0,0.0,0.0,1.0,0.0,0.0,0.0,1.0,0.18387861549854279,0.2653162479400635,0.0918900445103645,1.2184696791468346e-07,0.0,0.0,0.0,1.2184696791468346e-07,0.0,0.0,0.0,1.2184696791468346e-07,0.3460563123226166,-0.7436794638633717,9.073577880859375,8.999999999999999e-08,0.0,0.0,0.0,8.999999999999999e-08,0.0,0.0,0.0,8.999999999999999e-08
1676469336.7344897,10974,1676469336,728303296,base_link,0.11265331829965067,0.050261657843389866,0.008180155386933964,-0.9923286242540186,1.0,0.0,0.0,0.0,1.0,0.0,0.0,0.0,1.0,0.32134267687797546,0.29581382870674133,-0.05646530166268352,1.2184696791468346e-07,0.0,0.0,0.0,1.2184696791468346e-07,0.0,0.0,0.0,1.2184696791468346e-07,-0.6274785995483398,-1.681543469429015,9.184144020080566,8.999999999999999e-08,0.0,0.0,0.0,8.999999999999999e-08,0.0,0.0,0.0,8.999999999999999e-08
1676469336.75157,10975,1676469336,748303296,base_link,0.10997358215865756,0.0474368153713298,0.007999513994216263,-0.9927697331705336,1.0,0.0,0.0,0.0,1.0,0.0,0.0,0.0,1.0,0.30089083313941956,0.28875765204429626,0.028106056153774227,1.2184696791468346e-07,0.0,0.0,0.0,1.2184696791468346e-07,0.0,0.0,0.0,1.2184696791468346e-07,-0.43358132243156433,-1.504183530807494,8.798462867736816,8.999999999999999e-08,0.0,0.0,0.0,8.999999999999999e-08,0.0,0.0,0.0,8.999999999999999e-08
1676469336.772597,10976,1676469336,768305344,base_link,0.10595904742279033,0.044196581462880455,0.007836700718418719,-0.9933569652108359,1.0,0.0,0.0,0.0,1.0,0.0,0.0,0.0,1.0,0.5068164467811584,0.3619445562362671,0.07306403666734691,1.2184696791468346e-07,0.0,0.0,0.0,1.2184696791468346e-07,0.0,0.0,0.0,1.2184696791468346e-07,0.9039227962493896,-0.7929686307907092,9.811861038208008,8.999999999999999e-08,0.0,0.0,0.0,8.999999999999999e-08,0.0,0.0,0.0,8.999999999999999e-08
1676469336.794025,10977,1676469336,788305344,base_link,0.10146173107394293,0.040792290946602465,0.0075209786762235956,-0.993974374394672,1.0,0.0,0.0,0.0,1.0,0.0,0.0,0.0,1.0,0.48035407066345215,0.357351690530777,0.024509834125637963,1.2184696791468346e-07,0.0,0.0,0.0,1.2184696791468346e-07,0.0,0.0,0.0,1.2184696791468346e-07,0.6211681365966797,-1.2235739231109608,9.552924156188965,8.999999999999999e-08,0.0,0.0,0.0,8.999999999999999e-08,0.0,0.0,0.0,8.999999999999999e-08
1676469336.8126597,10978,1676469336,808305344,base_link,0.09691256093053698,0.037159556608861326,0.007358713309456656,-0.9945717638254654,1.0,0.0,0.0,0.0,1.0,0.0,0.0,0.0,1.0,0.5309246778488159,0.3943653106689453,-0.03110266104340558,1.2184696791468346e-07,0.0,0.0,0.0,1.2184696791468346e-07,0.0,0.0,0.0,1.2184696791468346e-07,-0.23839060962200165,-1.3436626195907582,9.367229461669922,8.999999999999999e-08,0.0,0.0,0.0,8.999999999999999e-08,0.0,0.0,0.0,8.999999999999999e-08
1676469336.834614,10979,1676469336,828305344,base_link,0.09247818563158454,0.03344911665335626,0.0069683491985487395,-0.9951283551069002,1.0,0.0,0.0,0.0,1.0,0.0,0.0,0.0,1.0,0.4996044635772705,0.38814112544059753,0.05479308590292926,1.2184696791468346e-07,0.0,0.0,0.0,1.2184696791468346e-07,0.0,0.0,0.0,1.2184696791468346e-07,0.8983205556869507,0.4885882139205944,9.54975700378418,8.999999999999999e-08,0.0,0.0,0.0,8.999999999999999e-08,0.0,0.0,0.0,8.999999999999999e-08
1676469336.8542876,10980,1676469336,848305344,base_link,0.0874697676217357,0.029596423181592828,0.006624009446214766,-0.9957054297567114,1.0,0.0,0.0,0.0,1.0,0.0,0.0,0.0,1.0,0.5463786721229553,0.4022846221923828,0.022617675364017438,1.2184696791468346e-07,0.0,0.0,0.0,1.2184696791468346e-07,0.0,0.0,0.0,1.2184696791468346e-07,0.33191898465156555,0.6030431985855114,9.484219551086426,8.999999999999999e-08,0.0,0.0,0.0,8.999999999999999e-08,0.0,0.0,0.0,8.999999999999999e-08
1676469336.8720565,10981,1676469336,868307392,base_link,0.08172928519503293,0.02522340052318209,0.006356334811322061,-0.9963150839204216,1.0,0.0,0.0,0.0,1.0,0.0,0.0,0.0,1.0,0.5773418545722961,0.455110102891922,0.04061590507626528,1.2184696791468346e-07,0.0,0.0,0.0,1.2184696791468346e-07,0.0,0.0,0.0,1.2184696791468346e-07,-0.4684589207172394,-0.06264108419418223,9.193254470825195,8.999999999999999e-08,0.0,0.0,0.0,8.999999999999999e-08,0.0,0.0,0.0,8.999999999999999e-08
1676469336.894007,10982,1676469336,888307392,base_link,0.07564652821157321,0.02047678819957079,0.00611483336935463,-0.9969057298554531,1.0,0.0,0.0,0.0,1.0,0.0,0.0,0.0,1.0,0.7034301161766052,0.5051922798156738,0.022735839709639487,1.2184696791468346e-07,0.0,0.0,0.0,1.2184696791468346e-07,0.0,0.0,0.0,1.2184696791468346e-07,-0.09235232323408127,-0.5564754009246814,10.242878913879395,8.999999999999999e-08,0.0,0.0,0.0,8.999999999999999e-08,0.0,0.0,0.0,8.999999999999999e-08
1676469336.9134283,10983,1676469336,908307392,base_link,0.06915241798664715,0.015922360236813104,0.0058554616636185925,-0.9974618996684029,1.0,0.0,0.0,0.0,1.0,0.0,0.0,0.0,1.0,0.5978771448135376,0.4175749719142914,0.024093080312013574,1.2184696791468346e-07,0.0,0.0,0.0,1.2184696791468346e-07,0.0,0.0,0.0,1.2184696791468346e-07,-0.523171067237854,-1.7486759424209581,10.033137321472168,8.999999999999999e-08,0.0,0.0,0.0,8.999999999999999e-08,0.0,0.0,0.0,8.999999999999999e-08
1676469336.9317942,10984,1676469336,928307392,base_link,0.06335580122608395,0.01216204738862949,0.005586649063816093,-0.9979013227109775,1.0,0.0,0.0,0.0,1.0,0.0,0.0,0.0,1.0,0.646148145198822,0.38320595026016235,-0.010260999202728318,1.2184696791468346e-07,0.0,0.0,0.0,1.2184696791468346e-07,0.0,0.0,0.0,1.2184696791468346e-07,0.11771372705698013,-0.6867416501045216,9.43365478515625,8.999999999999999e-08,0.0,0.0,0.0,8.999999999999999e-08,0.0,0.0,0.0,8.999999999999999e-08
1676469336.9530756,10985,1676469336,948307392,base_link,0.05754846599510882,0.0088779544159485,0.005303717269762481,-0.9982892001578233,1.0,0.0,0.0,0.0,1.0,0.0,0.0,0.0,1.0,0.5516809821128845,0.2976139187812805,0.063553474843502,1.2184696791468346e-07,0.0,0.0,0.0,1.2184696791468346e-07,0.0,0.0,0.0,1.2184696791468346e-07,1.0944368839263916,0.4717723131179822,9.769007682800293,8.999999999999999e-08,0.0,0.0,0.0,8.999999999999999e-08,0.0,0.0,0.0,8.999999999999999e-08
1676469336.974579,10986,1676469336,968309440,base_link,0.05150741595242866,0.0056053043126382185,0.004944626120449677,-0.9986446666781641,1.0,0.0,0.0,0.0,1.0,0.0,0.0,0.0,1.0,0.6558105945587158,0.3598844110965729,-0.016841288655996368,1.2184696791468346e-07,0.0,0.0,0.0,1.2184696791468346e-07,0.0,0.0,0.0,1.2184696791468346e-07,-0.7647820711135864,0.1959459483623516,9.201071739196777,8.999999999999999e-08,0.0,0.0,0.0,8.999999999999999e-08,0.0,0.0,0.0,8.999999999999999e-08
1676469336.9927049,10987,1676469336,988309440,base_link,0.04530243310828734,0.002175501782120971,0.004763731846640908,-0.9989595879302375,1.0,0.0,0.0,0.0,1.0,0.0,0.0,0.0,1.0,0.6193262934684753,0.32610082626342773,0.033029738813638646,1.2184696791468346e-07,0.0,0.0,0.0,1.2184696791468346e-07,0.0,0.0,0.0,1.2184696791468346e-07,-1.1087720394134521,-0.28224962949752697,9.235654830932617,8.999999999999999e-08,0.0,0.0,0.0,8.999999999999999e-08,0.0,0.0,0.0,8.999999999999999e-08
1676469337.0150478,10988,1676469337,8309440,base_link,0.03902788952485682,-0.0009737844955979247,0.00456007827463624,-0.9992273047119787,1.0,0.0,0.0,0.0,1.0,0.0,0.0,0.0,1.0,0.6020467281341553,0.3054431974887848,0.04621583223342892,1.2184696791468346e-07,0.0,0.0,0.0,1.2184696791468346e-07,0.0,0.0,0.0,1.2184696791468346e-07,0.1494673192501068,-0.8695957064628589,9.678340911865234,8.999999999999999e-08,0.0,0.0,0.0,8.999999999999999e-08,0.0,0.0,0.0,8.999999999999999e-08
1676469337.034562,10989,1676469337,28309440,base_link,0.0336205713501876,-0.0036298907425556088,0.004294806010108704,-0.9994189042853093,1.0,0.0,0.0,0.0,1.0,0.0,0.0,0.0,1.0,0.5114032030105591,0.2550235688686371,0.024064747616648643,1.2184696791468346e-07,0.0,0.0,0.0,1.2184696791468346e-07,0.0,0.0,0.0,1.2184696791468346e-07,0.8283829092979431,-1.0371633768081654,9.221691131591797,8.999999999999999e-08,0.0,0.0,0.0,8.999999999999999e-08,0.0,0.0,0.0,8.999999999999999e-08
1676469337.0516624,10990,1676469337,48309440,base_link,0.02849392616190963,-0.005868533772101907,0.004062450434268138,-0.9995684834506744,1.0,0.0,0.0,0.0,1.0,0.0,0.0,0.0,1.0,0.5531924366950989,0.23616795241832733,0.03603813424706456,1.2184696791468346e-07,0.0,0.0,0.0,1.2184696791468346e-07,0.0,0.0,0.0,1.2184696791468346e-07,-0.09673669189214706,-0.5316327810287464,9.408160209655762,8.999999999999999e-08,0.0,0.0,0.0,8.999999999999999e-08,0.0,0.0,0.0,8.999999999999999e-08
1676469337.0727618,10991,1676469337,68311488,base_link,0.023200149621495234,-0.0079797859763905,0.003906717829020395,-0.9996914258077807,1.0,0.0,0.0,0.0,1.0,0.0,0.0,0.0,1.0,0.5430468320846558,0.18979981541633606,0.07949554175138471,1.2184696791468346e-07,0.0,0.0,0.0,1.2184696791468346e-07,0.0,0.0,0.0,1.2184696791468346e-07,-0.0010898038744926453,1.0787028074264537,8.5955810546875,8.999999999999999e-08,0.0,0.0,0.0,8.999999999999999e-08,0.0,0.0,0.0,8.999999999999999e-08
1676469337.0958226,10992,1676469337,88311488,base_link,0.01800908462162963,-0.009870958203739589,0.0036587679192308016,-0.9997824208537157,1.0,0.0,0.0,0.0,1.0,0.0,0.0,0.0,1.0,0.5480755567550659,0.17993637919425964,-0.024951228871941587,1.2184696791468346e-07,0.0,0.0,0.0,1.2184696791468346e-07,0.0,0.0,0.0,1.2184696791468346e-07,0.18294936418533325,0.021943356841803815,9.955606460571289,8.999999999999999e-08,0.0,0.0,0.0,8.999999999999999e-08,0.0,0.0,0.0,8.999999999999999e-08
1676469337.112279,10993,1676469337,108311488,base_link,0.013293899276710219,-0.011284306752754924,0.0034855865186995084,-0.9998418900569646,1.0,0.0,0.0,0.0,1.0,0.0,0.0,0.0,1.0,0.4844967722892761,0.11255991458892822,0.04024667292833327,1.2184696791468346e-07,0.0,0.0,0.0,1.2184696791468346e-07,0.0,0.0,0.0,1.2184696791468346e-07,-1.0057042837142944,-1.1945666074752797,9.851444244384766,8.999999999999999e-08,0.0,0.0,0.0,8.999999999999999e-08,0.0,0.0,0.0,8.999999999999999e-08
