Time,header.seq,header.stamp.secs,header.stamp.nsecs,header.frame_id,airspeed,groundspeed,heading,throttle,altitude,climb
1676469335.1753247,4360,1676469335,174665960,,0.0,0.005959183443337679,89,0.0,-127.2276840209961,0.0016675241058692336
1676469335.2249987,4361,1676469335,223797057,,0.0,0.005963626783341169,89,0.0,-127.24353790283203,0.0015666180988773704
1676469335.295634,4362,1676469335,292362135,,0.0,0.007594779599457979,89,0.0,-127.18540954589844,0.003436544444411993
1676469335.3249269,4363,1676469335,323825504,,0.0,0.004973789677023888,89,0.0,-127.18540954589844,0.003774113254621625
1676469335.3753755,4364,1676469335,374691779,,0.0,0.005574344657361507,89,0.0,-127.18540954589844,0.0006302678375504911
1676469335.4288561,4365,1676469335,427816760,,0.0,0.0727701187133789,89,0.0,-126.95816802978516,0.013741403818130493
1676469335.477853,4366,1676469335,477240927,,0.0,0.13012371957302094,88,0.0,-126.44556427001953,0.014519251883029938
1676469335.5267756,4367,1676469335,524967861,,0.0,0.1202537789940834,88,0.0,-127.16427612304688,0.012608367949724197
1676469335.5772865,4368,1676469335,576411294,,0.0,0.04766300693154335,88,0.0,-126.77320098876953,0.0054967510513961315
1676469335.6246436,4369,1676469335,623829474,,0.0,0.016227129846811295,88,0.0,-127.02159118652344,0.003365539712831378
1676469335.6755362,4370,1676469335,674698267,,0.0,0.003748580813407898,88,0.0,-127.37036895751953,0.002949912566691637
1676469335.7272155,4371,1676469335,725989406,,0.0,0.014243844896554947,88,0.0,-126.69393920898438,0.0044911084696650505
1676469335.775383,4372,1676469335,774713714,,0.0,0.02527674287557602,88,0.0,-126.69393920898438,0.002540403278544545
1676469335.827134,4373,1676469335,825968650,,0.0,0.019778184592723846,88,0.0,-126.95816802978516,0.011080194264650345
1676469335.8762572,4374,1676469335,875045915,,0.0,0.019668027758598328,88,0.0,-126.79434967041016,0.005792549345642328
1676469335.926377,4375,1676469335,925141146,,0.0,0.01648011989891529,88,0.0,-126.85775756835938,0.011461342684924603
1676469335.9770834,4376,1676469335,976250751,,0.0,0.019729988649487495,88,0.41999998688697815,-126.55125427246094,0.01470634713768959
1676469336.02591,4377,1676469336,23716356,,0.0,0.22476166486740112,89,0.41999998688697815,-126.60938262939453,0.13889242708683014
1676469336.07776,4378,1676469336,76370642,,0.0,0.4525103271007538,88,0.3799999952316284,-123.9776382446289,0.8876359462738037
1676469336.1247616,4379,1676469336,123775193,,0.0,0.7395347356796265,88,0.20000000298023224,-122.18614196777344,1.4183658361434937
1676469336.1764917,4380,1676469336,175327458,,0.0,0.9400040507316589,89,0.09000000357627869,-123.50202178955078,1.5935146808624268
1676469336.22703,4381,1676469336,226272733,,0.0,0.9912053942680359,89,0.05999999865889549,-125.39920043945312,1.3408442735671997
1676469336.276637,4382,1676469336,275341648,,0.0,1.0131484270095825,90,0.07999999821186066,-126.11791229248047,1.0305428504943848
1676469336.327716,4383,1676469336,326351366,,0.0,1.0264570713043213,90,0.14000000059604645,-126.36100769042969,0.7983484268188477
1676469336.375209,4384,1676469336,373937877,,0.0,1.016814112663269,90,0.1599999964237213,-126.36100769042969,0.6999601721763611
1676469336.4276261,4385,1676469336,426099578,,0.0,0.9538260698318481,90,0.18000000715255737,-125.84839630126953,0.693514347076416
1676469336.476328,4386,1676469336,475488024,,0.0,0.863163948059082,89,0.17000000178813934,-126.05449676513672,0.7355839610099792
1676469336.527862,4387,1676469336,526298746,,0.0,0.7547357082366943,89,0.15000000596046448,-126.01221466064453,0.7479106783866882
1676469336.5759394,4388,1676469336,574583561,,0.0,0.6750220060348511,89,0.14000000059604645,-125.7057113647461,0.7251907587051392
1676469336.626997,4389,1676469336,625786832,,0.0,0.5494813323020935,90,0.14000000059604645,-125.91181945800781,0.6424183249473572
1676469336.6779082,4390,1676469336,676700607,,0.0,0.4539695680141449,90,0.15000000596046448,-126.05449676513672,0.5713711380958557
1676469336.7250738,4391,1676469336,724543133,,0.0,0.3759545385837555,90,0.15000000596046448,-126.07563781738281,0.5259508490562439
1676469336.7754881,4392,1676469336,775024822,,0.0,0.265857458114624,90,0.15000000596046448,-125.45733642578125,0.49045220017433167
1676469336.8269444,4393,1676469336,826079373,,0.0,0.1770017147064209,90,0.1599999964237213,-125.91181945800781,0.4694972336292267
1676469336.8751807,4394,1676469336,874596130,,0.0,0.12501533329486847,90,0.1599999964237213,-125.39920043945312,0.45908263325691223
1676469336.9265678,4395,1676469336,926122210,,0.0,0.06005565822124481,90,0.15000000596046448,-125.39920043945312,0.4381231367588043
1676469336.974811,4396,1676469336,973142619,,0.0,0.0601508654654026,90,0.15000000596046448,-125.64229583740234,0.4174875020980835
1676469337.0260522,4397,1676469337,24948085,,0.0,0.07895978540182114,90,0.15000000596046448,-125.64229583740234,0.3780449330806732
1676469337.0758202,4398,1676469337,74699286,,0.0,0.0922715812921524,90,0.15000000596046448,-126.15489959716797,0.35347720980644226
1676469337.1273358,4399,1676469337,126622695,,0.0,0.09627169370651245,90,0.1599999964237213,-125.17196655273438,0.330116331577301
1676469337.1747267,4400,1676469337,173640160,,0.0,0.09694916009902954,90,0.1599999964237213,-125.82726287841797,0.3153201639652252
1676469337.2267337,4401,1676469337,225830028,,0.0,0.08973976224660873,90,0.1599999964237213,-125.12968444824219,0.30393072962760925
1676469337.2775917,4402,1676469337,276486308,,0.0,0.07319245487451553,90,0.1599999964237213,-125.31465148925781,0.287523090839386
1676469337.3268378,4403,1676469337,325418689,,0.0,0.07157275825738907,90,0.15000000596046448,-125.68457794189453,0.26574036478996277
1676469337.3757374,4404,1676469337,374083555,,0.0,0.06179085001349449,90,0.1599999964237213,-125.45733642578125,0.24409176409244537
1676469337.427895,4405,1676469337,426347737,,0.0,0.05812278762459755,90,0.1599999964237213,-125.37805938720703,0.22672827541828156
1676469337.477079,4406,1676469337,476090049,,0.0,0.06508424133062363,90,0.1599999964237213,-125.37805938720703,0.21615619957447052
1676469337.5265598,4407,1676469337,525045022,,0.0,0.06750531494617462,90,0.1599999964237213,-125.43619537353516,0.20991088449954987
1676469337.5758893,4408,1676469337,574976072,,0.0,0.07617495954036713,90,0.1599999964237213,-125.76911926269531,0.20567412674427032
1676469337.6273773,4409,1676469337,626038124,,0.0,0.08825921267271042,90,0.15000000596046448,-125.91181945800781,0.1934668868780136
1676469337.6752493,4410,1676469337,674727194,,0.0,0.08681941032409668,90,0.1599999964237213,-125.56302642822266,0.1731342226266861
1676469337.726145,4411,1676469337,725298327,,0.0,0.09003273397684097,90,0.15000000596046448,-125.62115478515625,0.15573546290397644
1676469337.777251,4412,1676469337,776408507,,0.0,0.09713643789291382,90,0.1599999964237213,-125.45733642578125,0.14353494346141815
1676469337.8248885,4413,1676469337,823872855,,0.0,0.08299478888511658,90,0.1599999964237213,-124.9447250366211,0.13368381559848785
1676469337.8754683,4414,1676469337,874967665,,0.0,0.08425550907850266,90,0.1599999964237213,-125.08740997314453,0.12278325110673904
1676469337.9280822,4415,1676469337,926238510,,0.0,0.07329335063695908,90,0.1599999964237213,-125.47846984863281,0.11664332449436188
1676469337.9763074,4416,1676469337,974724638,,0.0,0.05790884420275688,90,0.1599999964237213,-125.43619537353516,0.10938408225774765
1676469338.0239022,4417,1676469338,23258081,,0.0,0.048218417912721634,90,0.1599999964237213,-125.58416748046875,0.10225903242826462
1676469338.0752206,4418,1676469338,74084267,,0.0,0.0342966727912426,90,0.1599999964237213,-125.58416748046875,0.09182224422693253
1676469338.1267624,4419,1676469338,125420760,,0.0,0.021929055452346802,90,0.1599999964237213,-125.7057113647461,0.08690957725048065
1676469338.1762419,4420,1676469338,173906926,,0.0,0.02617333084344864,90,0.1599999964237213,-125.93295288085938,0.08029398322105408
1676469338.2263923,4421,1676469338,225195308,,0.0,0.026710065081715584,90,0.15000000596046448,-125.60530090332031,0.07129199802875519
1676469338.2771003,4422,1676469338,276548930,,0.0,0.03552618250250816,90,0.15000000596046448,-125.74798583984375,0.06198957562446594
1676469338.3249092,4423,1676469338,324333589,,0.0,0.04544898867607117,90,0.1599999964237213,-125.31465148925781,0.051906026899814606
1676469338.3759937,4424,1676469338,374840465,,0.0,0.04790482670068741,90,0.1599999964237213,-125.15081787109375,0.04446340352296829
1676469338.4272385,4425,1676469338,425403414,,0.0,0.054658349603414536,90,0.1599999964237213,-125.17196655273438,0.03995891660451889
1676469338.4753995,4426,1676469338,474651531,,0.0,0.0637436956167221,90,0.1599999964237213,-125.2089614868164,0.031972285360097885
1676469338.526625,4427,1676469338,525457773,,0.0,0.0617312490940094,90,0.1599999964237213,-125.7057113647461,0.02103346213698387
1676469338.5753553,4428,1676469338,574902609,,0.0,0.06665906310081482,90,0.1599999964237213,-125.7057113647461,0.012972913682460785
1676469338.626286,4429,1676469338,625324227,,0.0,0.06609403342008591,90,0.1599999964237213,-125.84839630126953,0.006482022348791361
1676469338.6752849,4430,1676469338,673845189,,0.0,0.0663539245724678,90,0.1599999964237213,-125.8695297241211,0.002554311417043209
1676469338.7267375,4431,1676469338,725876986,,0.0,0.06340259313583374,90,0.1599999964237213,-125.78498077392578,0.001392002566717565
1676469338.7758698,4432,1676469338,774758313,,0.0,0.05647521838545799,90,0.1599999964237213,-125.5418930053711,0.0019001971231773496
1676469338.8274164,4433,1676469338,826050788,,0.0,0.05698242783546448,90,0.1599999964237213,-125.39920043945312,-0.003857071278616786
1676469338.8745422,4434,1676469338,873862094,,0.0,0.04910005256533623,90,0.1599999964237213,-125.62115478515625,-0.009298909455537796
1676469338.926301,4435,1676469338,925123792,,0.0,0.045632343739271164,90,0.1599999964237213,-125.5418930053711,-0.015611277893185616
1676469338.976942,4436,1676469338,976156511,,0.0,0.042369063943624496,90,0.1599999964237213,-125.43619537353516,-0.018648110330104828
1676469339.0257022,4437,1676469339,23926633,,0.0,0.039542146027088165,90,0.1599999964237213,-125.31465148925781,-0.021190783008933067
1676469339.0756505,4438,1676469339,74669321,,0.0,0.036432743072509766,90,0.1599999964237213,-125.35692596435547,-0.019120071083307266
1676469339.1275554,4439,1676469339,126114165,,0.0,0.037250492721796036,90,0.1599999964237213,-124.923583984375,-0.01905798353254795
1676469339.1755002,4440,1676469339,173938916,,0.0,0.04040968418121338,90,0.1599999964237213,-124.923583984375,-0.025044066831469536
1676469339.226561,4441,1676469339,225131098,,0.0,0.03715666010975838,90,0.1599999964237213,-125.0292739868164,-0.02405976690351963
1676469339.2753959,4442,1676469339,273704930,,0.0,0.04010675847530365,90,0.1599999964237213,-125.23009490966797,-0.02440985105931759
1676469339.3252504,4443,1676469339,323775906,,0.0,0.03830013796687126,90,0.1599999964237213,-125.7057113647461,-0.024063849821686745
1676469339.3769798,4444,1676469339,376115495,,0.0,0.04146399721503258,90,0.1599999964237213,-125.91181945800781,-0.022092778235673904
1676469339.4255693,4445,1676469339,423756527,,0.0,0.03978091850876808,90,0.1599999964237213,-125.58416748046875,-0.016108699142932892
1676469339.4759424,4446,1676469339,474796544,,0.0,0.04712739586830139,90,0.1599999964237213,-125.62115478515625,-0.016303492709994316
1676469339.527075,4447,1676469339,526284184,,0.0,0.056241828948259354,90,0.1599999964237213,-125.84839630126953,-0.02981114201247692
1676469339.5760047,4448,1676469339,574809905,,0.0,0.058892108500003815,90,0.1599999964237213,-125.47846984863281,-0.04439790919423103
1676469339.6278334,4449,1676469339,626216806,,0.0,0.06260064989328384,89,0.1599999964237213,-125.58416748046875,-0.05797816067934036
1676469339.6750467,4450,1676469339,673861152,,0.0,0.06150031462311745,89,0.1599999964237213,-125.58416748046875,-0.05256006494164467
1676469339.7251155,4451,1676469339,723859759,,0.0,0.06464571505784988,89,0.1599999964237213,-125.58416748046875,-0.04403788596391678
1676469339.777255,4452,1676469339,776359679,,0.0,0.07049238681793213,89,0.1599999964237213,-125.1085433959961,-0.032428666949272156
1676469339.8255858,4453,1676469339,824447075,,0.0,0.060612164437770844,89,0.1599999964237213,-125.19309997558594,-0.020613189786672592
1676469339.8744016,4454,1676469339,873224848,,0.0,0.06492786854505539,89,0.1599999964237213,-125.04512786865234,-0.023123204708099365
1676469339.9244928,4455,1676469339,923937611,,0.0,0.06789436936378479,89,0.1599999964237213,-125.2353744506836,-0.028223831206560135
1676469339.9781482,4456,1676469339,976811822,,0.0,0.05515360087156296,89,0.1599999964237213,-125.62115478515625,-0.03257262334227562
1676469340.0247002,4457,1676469340,24141988,,0.0,0.04725426062941551,89,0.1599999964237213,-124.86016845703125,-0.04081036522984505
1676469340.0753899,4458,1676469340,74744401,,0.0,0.04832165688276291,89,0.1599999964237213,-125.27236938476562,-0.044403012841939926
1676469340.126849,4459,1676469340,124454625,,0.0,0.0377826914191246,89,0.1599999964237213,-125.3727798461914,-0.03585013747215271
1676469340.1757362,4460,1676469340,174716969,,0.0,0.026330960914492607,89,0.1599999964237213,-125.19309997558594,-0.01835608296096325
1676469340.227555,4461,1676469340,226649343,,0.0,0.02169046550989151,89,0.1599999964237213,-125.33578491210938,-0.009328622370958328
1676469340.2756965,4462,1676469340,274768554,,0.0,0.016418227925896645,89,0.1599999964237213,-125.33578491210938,-0.01144552044570446
1676469340.324935,4463,1676469340,323684511,,0.0,0.01635410450398922,89,0.1599999964237213,-125.60530090332031,-0.016931122168898582
1676469340.3753684,4464,1676469340,374940748,,0.0,0.014084630645811558,89,0.1599999964237213,-125.45733642578125,-0.026779858395457268
1676469340.4253814,4465,1676469340,424203515,,0.0,0.009380534291267395,89,0.1599999964237213,-125.08740997314453,-0.030214792117476463
1676469340.4764671,4466,1676469340,475442252,,0.0,0.022110523656010628,89,0.1599999964237213,-125.84839630126953,-0.02612508088350296
1676469340.5244374,4467,1676469340,523750830,,0.0,0.015169540420174599,89,0.1599999964237213,-125.2089614868164,-0.02091241255402565
1676469340.5755424,4468,1676469340,575022196,,0.0,0.017561791464686394,89,0.1599999964237213,-125.2089614868164,-0.015901943668723106
1676469340.626379,4469,1676469340,625923771,,0.0,0.0067457337863743305,89,0.1599999964237213,-125.62115478515625,-0.01277600321918726
1676469340.6757586,4470,1676469340,675168964,,0.0,0.016673676669597626,89,0.1599999964237213,-125.58416748046875,-0.005596774164587259
1676469340.7265432,4471,1676469340,724957835,,0.0,0.005601910408586264,89,0.1599999964237213,-125.56302642822266,-0.010354132391512394
1676469340.7762637,4472,1676469340,774969257,,0.0,0.002593420911580324,89,0.1599999964237213,-124.9447250366211,-0.016174839809536934
1676469340.826064,4473,1676469340,824832292,,0.0,0.004984518513083458,89,0.1599999964237213,-125.29350280761719,-0.016020111739635468
1676469340.8771908,4474,1676469340,876146324,,0.0,0.010173354297876358,89,0.1599999964237213,-125.29350280761719,-0.006299023982137442
1676469340.9247065,4475,1676469340,923752320,,0.0,0.017127864062786102,89,0.1599999964237213,-125.47846984863281,-0.008872772566974163
1676469340.9761145,4476,1676469340,974762728,,0.0,0.02548959292471409,89,0.1599999964237213,-125.56302642822266,-0.00987888965755701
1676469341.0283487,4477,1676469341,27442054,,0.0,0.03572903200984001,89,0.1599999964237213,-125.93295288085938,-0.003966066986322403
1676469341.0750656,4478,1676469341,73711997,,0.0,0.01900019682943821,89,0.1599999964237213,-125.47846984863281,-0.002445237711071968
1676469341.1263812,4479,1676469341,124939161,,0.0,0.02634820155799389,89,0.1599999964237213,-125.08740997314453,-0.009323326870799065
1676469341.1766186,4480,1676469341,175464724,,0.0,0.022138411179184914,89,0.1599999964237213,-125.5418930053711,-0.01944095455110073
1676469341.2267938,4481,1676469341,225121857,,0.0,0.020284105092287064,89,0.1599999964237213,-125.2353744506836,-0.018236592411994934
1676469341.2779396,4482,1676469341,276859198,,0.0,0.0151734733954072,89,0.1599999964237213,-125.43619537353516,-0.0077288150787353516
1676469341.3248734,4483,1676469341,324367029,,0.0,0.008754766546189785,89,0.1599999964237213,-125.0292739868164,-0.001719831139780581
1676469341.3754072,4484,1676469341,374708707,,0.0,0.010136681608855724,89,0.1599999964237213,-125.0292739868164,-0.0014179233694449067
1676469341.4275556,4485,1676469341,426588268,,0.0,0.012270151637494564,89,0.1599999964237213,-125.80612182617188,-0.002095692791044712
1676469341.475179,4486,1676469341,473962139,,0.0,0.009285291656851768,89,0.1599999964237213,-125.41505432128906,-0.004642709624022245
1676469341.526741,4487,1676469341,525173395,,0.0,0.013772367499768734,89,0.1599999964237213,-125.1085433959961,0.0011505497386679053
1676469341.5773118,4488,1676469341,576775535,,0.0,0.007946738973259926,90,0.1599999964237213,-125.56302642822266,0.0002994753886014223
1676469341.6247804,4489,1676469341,623687209,,0.0,0.016583189368247986,90,0.1599999964237213,-125.91181945800781,0.0002876299840863794
1676469341.6758528,4490,1676469341,675012575,,0.0,0.014550469815731049,90,0.1599999964237213,-126.09677124023438,0.0018529645167291164
1676469341.7273314,4491,1676469341,726831526,,0.0,0.008640161715447903,90,0.1599999964237213,-126.07563781738281,-0.0019831128884106874
1676469341.7761416,4492,1676469341,774877516,,0.0,0.010159718804061413,90,0.1599999964237213,-125.93295288085938,-0.006702730897814035
1676469341.8263292,4493,1676469341,824078304,,0.0,0.008882689289748669,90,0.1599999964237213,-125.58416748046875,-0.0015776794170960784
1676469341.8757164,4494,1676469341,874823734,,0.0,0.008539157919585705,90,0.1599999964237213,-125.82726287841797,0.001665230025537312
1676469341.9275773,4495,1676469341,927124437,,0.0,0.010732373222708702,90,0.1599999964237213,-125.35692596435547,0.0070447735488414764
1676469341.976705,4496,1676469341,973817948,,0.0,0.002745619509369135,90,0.1599999964237213,-125.35692596435547,0.005031336564570665
1676469342.0275233,4497,1676469342,26015708,,0.0,0.009279333055019379,90,0.1599999964237213,-125.4996109008789,0.00725787878036499
1676469342.077179,4498,1676469342,74006126,,0.0,0.007989108562469482,90,0.1599999964237213,-125.56302642822266,0.009417841210961342
1676469342.1267023,4499,1676469342,125636248,,0.0,0.009619495831429958,90,0.1599999964237213,-125.25122833251953,0.015377828851342201
1676469342.177404,4500,1676469342,176784617,,0.0,0.007733299396932125,90,0.15000000596046448,-125.39920043945312,0.01588534563779831
1676469342.225311,4501,1676469342,224363078,,0.0,0.019073402509093285,90,0.1599999964237213,-126.15489959716797,0.011657299473881721
1676469342.2770278,4502,1676469342,276147808,,0.0,0.012686475180089474,90,0.1599999964237213,-125.80612182617188,0.008342825807631016
1676469342.3249881,4503,1676469342,323675307,,0.0,0.013967549428343773,90,0.1599999964237213,-126.07563781738281,0.005673857871443033
1676469342.3773663,4504,1676469342,376598761,,0.0,0.01113735418766737,90,0.1599999964237213,-125.89067077636719,0.009515225887298584
1676469342.4268296,4505,1676469342,426063212,,0.0,0.01403436716645956,90,0.1599999964237213,-125.93295288085938,0.01136736199259758
1676469342.4776504,4506,1676469342,477021510,,0.0,0.008827765472233295,90,0.1599999964237213,-125.56302642822266,0.0065963175147771835
1676469342.5249684,4507,1676469342,524006276,,0.0,0.016568461433053017,90,0.1599999964237213,-125.56302642822266,0.0027725291438400745
1676469342.57609,4508,1676469342,574472397,,0.0,0.008656928315758705,90,0.1899999976158142,-125.6634292602539,0.019542448222637177
1676469342.626432,4509,1676469342,625323067,,0.0,0.13918691873550415,90,0.14000000059604645,-125.7057113647461,0.10598087310791016
1676469342.6761851,4510,1676469342,675683893,,0.0,0.2649845778942108,90,0.23999999463558197,-125.52074432373047,0.08380496501922607
1676469342.7248416,4511,1676469342,724281487,,0.0,0.5065867900848389,91,0.30000001192092896,-125.31465148925781,0.16973669826984406
1676469342.7762146,4512,1676469342,775454967,,0.0,1.1109113693237305,94,0.25999999046325684,-124.63821411132812,0.36519891023635864
1676469342.827302,4513,1676469342,826111085,,0.0,1.697925090789795,96,0.25,-124.26300811767578,0.4396587312221527
1676469342.8760703,4514,1676469342,874695179,,0.0,2.31962513923645,95,0.30000001192092896,-124.28414154052734,0.45581579208374023
1676469342.9240005,4515,1676469342,923195367,,0.0,2.8858609199523926,92,0.2800000011920929,-123.46502685546875,0.4676676392555237
1676469342.9763043,4516,1676469342,975245185,,0.0,3.533369302749634,90,0.2199999988079071,-123.93535614013672,0.4522034227848053
1676469343.0264337,4517,1676469343,24982466,,0.0,4.11265230178833,86,0.23999999463558197,-123.93535614013672,0.44571080803871155
1676469343.0770314,4518,1676469343,76170280,,0.0,4.489691257476807,82,0.17000000178813934,-123.68697357177734,0.4961254596710205
1676469343.1247962,4519,1676469343,123787241,,0.0,4.643807411193848,81,0.20999999344348907,-124.12032318115234,0.4982993006706238
1676469343.175957,4520,1676469343,175363864,,0.0,4.662063121795654,81,0.23999999463558197,-125.12968444824219,0.5031233429908752
1676469343.2274535,4521,1676469343,226496272,,0.0,4.5217108726501465,84,0.20999999344348907,-125.39920043945312,0.5598637461662292
1676469343.2766376,4522,1676469343,275614229,,0.0,4.177509307861328,89,0.1599999964237213,-124.16259765625,0.550132691860199
1676469343.326254,4523,1676469343,325064088,,0.0,3.796191692352295,98,0.2199999988079071,-122.96826171875,0.37673401832580566
1676469343.3783655,4524,1676469343,377537790,,0.0,3.309021234512329,103,0.20999999344348907,-122.56134796142578,0.1559799760580063
1676469343.4256468,4525,1676469343,424884477,,0.0,2.751241445541382,100,0.2800000011920929,-123.60771179199219,-0.07793065160512924
1676469343.4753737,4526,1676469343,474867051,,0.0,2.101870059967041,94,0.2199999988079071,-123.79267120361328,-0.27631935477256775
1676469343.5275197,4527,1676469343,525968107,,0.0,1.5967570543289185,89,0.28999999165534973,-125.1085433959961,-0.41223981976509094
1676469343.5770705,4528,1676469343,575293746,,0.0,1.3686326742172241,85,0.27000001072883606,-125.02399444580078,-0.4556017518043518
1676469343.6270192,4529,1676469343,625634962,,0.0,1.593682885169983,82,0.18000000715255737,-124.51138305664062,-0.44376394152641296
1676469343.6768901,4530,1676469343,676116787,,0.0,1.8996796607971191,80,0.15000000596046448,-124.51138305664062,-0.4888629913330078
1676469343.7247949,4531,1676469343,723861820,,0.0,2.0656635761260986,79,0.23000000417232513,-124.65406799316406,-0.5741908550262451
1676469343.7760158,4532,1676469343,774990117,,0.0,2.2657630443573,80,0.25999999046325684,-123.89308166503906,-0.5603035688400269
1676469343.8274884,4533,1676469343,826446427,,0.0,2.3592073917388916,83,0.3100000023841858,-122.72517395019531,-0.3728736937046051
1676469343.875631,4534,1676469343,874942448,,0.0,2.2481305599212646,84,0.3199999928474426,-122.70403289794922,-0.055304452776908875
1676469343.92748,4535,1676469343,926243965,,0.0,1.9059911966323853,83,0.33000001311302185,-122.45565795898438,0.22935661673545837
1676469343.974818,4536,1676469343,973813871,,0.0,1.4601398706436157,81,0.2800000011920929,-122.34996032714844,0.3649350106716156
1676469344.0254943,4537,1676469344,24433453,,0.0,1.248715877532959,79,0.1899999976158142,-123.07395935058594,0.2634756565093994
1676469344.075626,4538,1676469344,74668468,,0.0,1.332328200340271,77,0.23000000417232513,-123.66584014892578,0.06416409462690353
1676469344.1272256,4539,1676469344,126230500,,0.0,1.6695538759231567,76,0.28999999165534973,-122.74103546142578,-0.1659606397151947
1676469344.1758132,4540,1676469344,175041684,,0.0,2.2353689670562744,77,0.30000001192092896,-122.74103546142578,-0.3158424198627472
1676469344.2261007,4541,1676469344,225222088,,0.0,2.921581745147705,77,0.23000000417232513,-122.31297302246094,-0.3700547218322754
1676469344.2755876,4542,1676469344,274547284,,0.0,3.492403030395508,79,0.2199999988079071,-122.24955749511719,-0.3701133131980896
1676469344.3263807,4543,1676469344,325346345,,0.0,3.9247374534606934,84,0.2199999988079071,-122.640625,-0.3288504481315613
1676469344.3756123,4544,1676469344,374359193,,0.0,4.165243148803711,90,0.2199999988079071,-122.2284164428711,-0.24554812908172607
1676469344.4264865,4545,1676469344,425118533,,0.0,4.194606781005859,92,0.23999999463558197,-122.74103546142578,-0.16545464098453522
1676469344.476742,4546,1676469344,473570056,,0.0,4.027678489685059,90,0.2199999988079071,-121.65239715576172,-0.1089710220694542
1676469344.5260563,4547,1676469344,525268030,,0.0,3.745135545730591,85,0.20999999344348907,-121.4462890625,-0.1841011494398117
1676469344.5770695,4548,1676469344,574292267,,0.0,3.3789525032043457,83,0.25999999046325684,-120.84912872314453,-0.2930983901023865
1676469344.6269963,4549,1676469344,625692986,,0.0,2.836350917816162,86,0.25999999046325684,-121.75808715820312,-0.4304393529891968
1676469344.676695,4550,1676469344,676158460,,0.0,2.22860050201416,92,0.3199999928474426,-122.59833526611328,-0.5178540349006653
1676469344.7255573,4551,1676469344,724634243,,0.0,1.5377203226089478,99,0.25999999046325684,-122.59833526611328,-0.49469366669654846
1676469344.7780387,4552,1676469344,777264610,,0.0,0.9292162656784058,100,0.23000000417232513,-124.16259765625,-0.35463568568229675
1676469344.8253305,4553,1676469344,824645594,,0.0,0.5619089603424072,101,0.28999999165534973,-124.16259765625,-0.165815532207489
1676469344.8761034,4554,1676469344,875463636,,0.0,0.4195702075958252,99,0.25,-124.61707305908203,0.10484740883111954
1676469344.9272776,4555,1676469344,926537027,,0.0,0.3994186222553253,96,0.12999999523162842,-125.23009490966797,0.3494212031364441
1676469344.9763784,4556,1676469344,974762350,,0.0,0.358086496591568,93,0.18000000715255737,-124.88130950927734,0.3270733952522278
1676469345.0265334,4557,1676469345,25714040,,0.0,0.3472861647605896,91,0.17000000178813934,-125.58416748046875,0.3251339793205261
1676469345.0776036,4558,1676469345,76712636,,0.0,0.3023865520954132,91,0.09000000357627869,-125.31465148925781,0.30161845684051514
1676469345.1257834,4559,1676469345,124550706,,0.0,0.28687694668769836,91,0.10999999940395355,-125.8695297241211,0.09935478121042252
1676469345.1767437,4560,1676469345,175081199,,0.0,0.291612446308136,90,0.17000000178813934,-125.64229583740234,-0.10645867139101028
1676469345.2275293,4561,1676469345,226611454,,0.0,0.35320866107940674,90,0.1899999976158142,-125.58416748046875,-0.23390385508537292
1676469345.2762232,4562,1676469345,275832947,,0.0,0.49800124764442444,90,0.20000000298023224,-125.00813293457031,-0.2390526831150055
1676469345.3265705,4563,1676469345,325099570,,0.0,0.7092136144638062,90,0.20000000298023224,-125.00813293457031,-0.1762261986732483
1676469345.3754725,4564,1676469345,374013809,,0.0,0.9378961324691772,90,0.20000000298023224,-125.25122833251953,-0.09721064567565918
1676469345.4264836,4565,1676469345,425045850,,0.0,1.1166895627975464,90,0.17000000178813934,-125.29350280761719,-0.023547174409031868
1676469345.4777114,4566,1676469345,476988913,,0.0,1.254416584968567,90,0.1599999964237213,-124.80204010009766,0.008090117946267128
1676469345.5246372,4567,1676469345,523763962,,0.0,1.3399080038070679,90,0.1599999964237213,-124.98699951171875,0.0051365802064538
1676469345.5756342,4568,1676469345,574776744,,0.0,1.3653028011322021,90,0.1599999964237213,-124.12032318115234,-0.011805235408246517
1676469345.6264443,4569,1676469345,625257515,,0.0,1.3524707555770874,91,0.1599999964237213,-123.99877166748047,-0.024133598431944847
1676469345.6764717,4570,1676469345,675910616,,0.0,1.2969588041305542,91,0.1599999964237213,-124.12032318115234,-0.026019293814897537
1676469345.727464,4571,1676469345,726116262,,0.0,1.1955907344818115,91,0.1599999964237213,-123.89308166503906,-0.019359780475497246
1676469345.7764227,4572,1676469345,774366122,,0.0,1.075866937637329,91,0.1599999964237213,-123.9776382446289,-0.029458647593855858
1676469345.826762,4573,1676469345,824307364,,0.0,0.9346071481704712,91,0.17000000178813934,-123.9776382446289,-0.03503044322133064
1676469345.8761785,4574,1676469345,874077794,,0.0,0.7901132702827454,90,0.17000000178813934,-124.1414566040039,-0.03920754790306091
1676469345.9273777,4575,1676469345,926282409,,0.0,0.6350604295730591,90,0.17000000178813934,-124.06219482421875,-0.03814396634697914
1676469345.9757638,4576,1676469345,975152501,,0.0,0.4905310869216919,90,0.17000000178813934,-124.38983154296875,-0.040457833558321
1676469346.0270374,4577,1676469346,26131950,,0.0,0.3644072413444519,90,0.17000000178813934,-124.65406799316406,-0.041948460042476654
1676469346.0766675,4578,1676469346,75237187,,0.0,0.2533450126647949,90,0.17000000178813934,-124.55365753173828,-0.038843657821416855
1676469346.1285305,4579,1676469346,126034546,,0.0,0.15635785460472107,89,0.17000000178813934,-124.78089904785156,-0.02434374950826168
1676469346.1783946,4580,1676469346,177593413,,0.0,0.07425602525472641,89,0.1599999964237213,-125.04512786865234,-0.00762559287250042
1676469346.2250662,4581,1676469346,224226983,,0.0,0.038962531834840775,89,0.1599999964237213,-125.17196655273438,-0.0023729978129267693
1676469346.275728,4582,1676469346,274871845,,0.0,0.025659706443548203,89,0.1599999964237213,-125.60530090332031,-0.005455237813293934
1676469346.3254256,4583,1676469346,323889139,,0.0,0.04116107150912285,89,0.1599999964237213,-125.17196655273438,-0.012922139838337898
1676469346.375621,4584,1676469346,374757182,,0.0,0.04715883359313011,89,0.1599999964237213,-125.35692596435547,-0.0163631122559309
1676469346.4273517,4585,1676469346,426211865,,0.0,0.04933743551373482,89,0.1599999964237213,-125.19309997558594,-0.014405924826860428
1676469346.4763079,4586,1676469346,475524469,,0.0,0.050239551812410355,89,0.1599999964237213,-125.19309997558594,-0.00869034044444561
1676469346.526764,4587,1676469346,525200827,,0.0,0.06293416768312454,89,0.1599999964237213,-125.17196655273438,-0.011450029909610748
1676469346.5771925,4588,1676469346,576412403,,0.0,0.07675755769014359,89,0.1599999964237213,-125.2089614868164,-0.01138962060213089
1676469346.6253262,4589,1676469346,623826610,,0.0,0.08339565992355347,89,0.1599999964237213,-125.15081787109375,-0.018031295388936996
1676469346.6761804,4590,1676469346,675020815,,0.0,0.09386582672595978,89,0.1599999964237213,-124.9024429321289,-0.023482266813516617
1676469346.7249568,4591,1676469346,723906759,,0.0,0.10994905978441238,89,0.1599999964237213,-125.00813293457031,-0.019520560279488564
1676469346.7772954,4592,1676469346,776752143,,0.0,0.11503029614686966,89,0.1599999964237213,-125.08740997314453,-0.021683605387806892
1676469346.8251114,4593,1676469346,823995278,,0.0,0.12007264792919159,89,0.1599999964237213,-125.04512786865234,-0.02376733534038067
1676469346.875334,4594,1676469346,874825008,,0.0,0.11392301321029663,89,0.1599999964237213,-125.39920043945312,-0.03336777910590172
1676469346.9265602,4595,1676469346,925248243,,0.0,0.11299928277730942,89,0.1599999964237213,-125.74798583984375,-0.03161422908306122
1676469346.9779959,4596,1676469346,976814035,,0.0,0.10375640541315079,89,0.1599999964237213,-125.74798583984375,-0.03594239428639412
1676469347.0250235,4597,1676469347,24533183,,0.0,0.11044691503047943,89,0.1599999964237213,-125.1085433959961,-0.03687884658575058
1676469347.0757952,4598,1676469347,75086287,,0.0,0.10397860407829285,89,0.1599999964237213,-125.00813293457031,-0.03974117338657379
1676469347.1256983,4599,1676469347,124195080,,0.0,0.10398540645837784,89,0.1599999964237213,-124.84431457519531,-0.03424835950136185
1676469347.1764429,4600,1676469347,173973456,,0.0,0.10950519889593124,89,0.10999999940395355,-124.98699951171875,-0.05954949930310249
1676469347.226599,4601,1676469347,225356548,,0.0,0.1054653599858284,89,0.10999999940395355,-125.12968444824219,-0.20881710946559906
1676469347.2751703,4602,1676469347,273438060,,0.0,0.10485272109508514,89,0.10999999940395355,-125.5418930053711,-0.3802122175693512
1676469347.3254545,4603,1676469347,324341771,,0.0,0.113179512321949,89,0.10999999940395355,-125.8695297241211,-0.5598152279853821
1676469347.376246,4604,1676469347,375083187,,0.0,0.13106122612953186,90,0.10999999940395355,-125.43619537353516,-0.7293744683265686
1676469347.4240847,4605,1676469347,423510676,,0.0,0.1355592906475067,89,0.10999999940395355,-125.9699478149414,-0.9049108028411865
1676469347.4750316,4606,1676469347,473983911,,0.0,0.16113565862178802,89,0.12999999523162842,-126.23945617675781,-1.0806572437286377
1676469347.5267932,4607,1676469347,525328985,,0.0,0.1985780894756317,89,0.1899999976158142,-125.76911926269531,-1.2104872465133667
1676469347.5748022,4608,1676469347,573550310,,0.0,0.2713267207145691,89,0.1899999976158142,-125.76911926269531,-1.203717827796936
1676469347.6257944,4609,1676469347,623864918,,0.0,0.3639601171016693,89,0.20999999344348907,-125.5418930053711,-1.1244574785232544
1676469347.6755502,4610,1676469347,675031310,,0.0,0.48330116271972656,89,0.23000000417232513,-125.74798583984375,-1.002413034439087
1676469347.7264898,4611,1676469347,725157773,,0.0,0.6090680360794067,89,0.23999999463558197,-125.17196655273438,-0.8108965158462524
1676469347.77826,4612,1676469347,776207407,,0.0,0.7767602205276489,89,0.23999999463558197,-125.43619537353516,-0.5264905691146851
1676469347.8253775,4613,1676469347,823938147,,0.0,0.8822640776634216,89,0.2199999988079071,-125.12968444824219,-0.32896462082862854
1676469347.8760662,4614,1676469347,875469255,,0.0,1.0260393619537354,89,0.20999999344348907,-124.51138305664062,-0.06694432348012924
1676469347.927332,4615,1676469347,926097377,,0.0,1.1240243911743164,89,0.1899999976158142,-124.55365753173828,0.09761403501033783
1676469347.9764113,4616,1676469347,974414256,,0.0,1.1881600618362427,89,0.18000000715255737,-124.59593963623047,0.18983809649944305
1676469348.0253153,4617,1676469348,24774772,,0.0,1.2459006309509277,89,0.18000000715255737,-124.67520141601562,0.2690962553024292
1676469348.076019,4618,1676469348,73632162,,0.0,1.3046704530715942,89,0.18000000715255737,-124.69635009765625,0.33539584279060364
1676469348.125394,4619,1676469348,123972455,,0.0,1.343526005744934,89,0.18000000715255737,-124.69635009765625,0.40612852573394775
1676469348.1758823,4620,1676469348,175294845,,0.0,1.3814109563827515,89,0.18000000715255737,-124.67520141601562,0.5037068128585815
1676469348.227247,4621,1676469348,226132039,,0.0,1.397467017173767,89,0.18000000715255737,-124.65406799316406,0.5823912024497986
1676469348.275091,4622,1676469348,273956037,,0.0,1.4094220399856567,89,0.18000000715255737,-124.53251647949219,0.6452861428260803
1676469348.3258927,4623,1676469348,325167021,,0.0,1.4072123765945435,89,0.15000000596046448,-124.16259765625,0.6936416029930115
1676469348.3772979,4624,1676469348,376260600,,0.0,1.4031010866165161,89,0.14000000059604645,-124.57479858398438,0.6608628034591675
1676469348.424966,4625,1676469348,423858361,,0.0,1.3932658433914185,89,0.12999999523162842,-124.69635009765625,0.6081620454788208
1676469348.475972,4626,1676469348,474939218,,0.0,1.374036192893982,89,0.12999999523162842,-124.88130950927734,0.4986923336982727
1676469348.5280344,4627,1676469348,526229589,,0.0,1.3388330936431885,89,0.12999999523162842,-125.17196655273438,0.3955673277378082
1676469348.5761406,4628,1676469348,575169108,,0.0,1.3116885423660278,90,0.12999999523162842,-125.00813293457031,0.29552292823791504
1676469348.6268518,4629,1676469348,626056412,,0.0,1.2736772298812866,90,0.12999999523162842,-125.00813293457031,0.1853770762681961
1676469348.6757069,4630,1676469348,674078111,,0.0,1.2352360486984253,90,0.12999999523162842,-125.23009490966797,0.10164107382297516
1676469348.7267725,4631,1676469348,726037306,,0.0,1.1808017492294312,90,0.12999999523162842,-125.39391326904297,-0.0267990343272686
1676469348.777326,4632,1676469348,776208750,,0.0,1.1199030876159668,90,0.12999999523162842,-125.23009490966797,-0.13711801171302795
1676469348.8249586,4633,1676469348,823891714,,0.0,1.0715748071670532,89,0.14000000059604645,-125.39920043945312,-0.22871775925159454
1676469348.8765693,4634,1676469348,875927204,,0.0,1.003013014793396,89,0.14000000059604645,-125.58416748046875,-0.3330816626548767
1676469348.9248292,4635,1676469348,923734573,,0.0,0.9636577367782593,90,0.14000000059604645,-125.45733642578125,-0.39979153871536255
1676469348.9758081,4636,1676469348,975292478,,0.0,0.8823150396347046,90,0.14000000059604645,-125.5418930053711,-0.4984903633594513
1676469349.02807,4637,1676469349,26487648,,0.0,0.8221098780632019,90,0.14000000059604645,-125.8695297241211,-0.5779790878295898
1676469349.077363,4638,1676469349,76458078,,0.0,0.75702303647995,90,0.14000000059604645,-125.5418930053711,-0.6583199501037598
1676469349.1256433,4639,1676469349,124556480,,0.0,0.7065542936325073,90,0.14000000059604645,-125.68457794189453,-0.7403538227081299
1676469349.1760957,4640,1676469349,175072086,,0.0,0.6473849415779114,90,0.14000000059604645,-125.82726287841797,-0.8239211440086365
1676469349.2275174,4641,1676469349,226182943,,0.0,0.5876045227050781,90,0.1599999964237213,-125.99108123779297,-0.9060593843460083
1676469349.277443,4642,1676469349,276092559,,0.0,0.535446047782898,90,0.18000000715255737,-125.99108123779297,-0.9491688013076782
1676469349.326539,4643,1676469349,325037041,,0.0,0.47544482350349426,90,0.1899999976158142,-125.7057113647461,-0.9142207503318787
1676469349.37715,4644,1676469349,376341043,,0.0,0.426703542470932,90,0.1899999976158142,-125.9699478149414,-0.8336977958679199
1676469349.4262047,4645,1676469349,424692423,,0.0,0.3718673586845398,90,0.1899999976158142,-125.82726287841797,-0.7460626363754272
1676469349.475566,4646,1676469349,475108531,,0.0,0.3272165060043335,90,0.1899999976158142,-125.5418930053711,-0.6504546999931335
1676469349.5276196,4647,1676469349,526994746,,0.0,0.2725867033004761,90,0.1899999976158142,-125.82726287841797,-0.5385643243789673
1676469349.57714,4648,1676469349,574410659,,0.0,0.23554527759552002,90,0.1899999976158142,-125.89067077636719,-0.41898447275161743
1676469349.627256,4649,1676469349,626275096,,0.0,0.18362948298454285,90,0.1899999976158142,-125.95408630371094,-0.3079221546649933
1676469349.6764014,4650,1676469349,674184761,,0.0,0.15370087325572968,90,0.1599999964237213,-125.9699478149414,-0.22877198457717896
1676469349.7260509,4651,1676469349,725166101,,0.0,0.129677414894104,90,0.15000000596046448,-125.91181945800781,-0.23501893877983093
1676469349.777198,4652,1676469349,776460399,,0.0,0.11864516884088516,90,0.15000000596046448,-125.91181945800781,-0.27187225222587585
1676469349.8251033,4653,1676469349,823763647,,0.0,0.09698484092950821,90,0.15000000596046448,-126.34515380859375,-0.3169533908367157
1676469349.8755217,4654,1676469349,874950966,,0.0,0.1063862219452858,90,0.1599999964237213,-126.15489959716797,-0.35344231128692627
1676469349.927215,4655,1676469349,926171210,,0.0,0.10651993751525879,90,0.18000000715255737,-126.3028793334961,-0.3607197403907776
1676469349.9748669,4656,1676469349,973833933,,0.0,0.10619161278009415,90,0.18000000715255737,-126.1760482788086,-0.30265623331069946
1676469350.0263855,4657,1676469350,25556577,,0.0,0.11363730579614639,90,0.1899999976158142,-125.78498077392578,-0.21874946355819702
1676469350.077132,4658,1676469350,76094184,,0.0,0.1177760660648346,90,0.1899999976158142,-125.31465148925781,-0.11436237394809723
1676469350.1253765,4659,1676469350,123750149,,0.0,0.12305062264204025,90,0.1899999976158142,-125.8695297241211,0.000350561342202127
1676469350.17554,4660,1676469350,175013912,,0.0,0.11542457342147827,90,0.1899999976158142,-125.02399444580078,0.11851957440376282
1676469350.226988,4661,1676469350,226170787,,0.0,0.11519984900951385,90,0.17000000178813934,-125.17196655273438,0.22959180176258087
1676469350.2753713,4662,1676469350,274491649,,0.0,0.10650833696126938,90,0.17000000178813934,-125.39920043945312,0.30331283807754517
1676469350.3272574,4663,1676469350,325635228,,0.0,0.10907907038927078,90,0.1599999964237213,-124.923583984375,0.34746989607810974
1676469350.3759718,4664,1676469350,374898095,,0.0,0.11069821566343307,90,0.1599999964237213,-124.923583984375,0.36690717935562134
1676469350.4268234,4665,1676469350,425229761,,0.0,0.11157312989234924,90,0.1599999964237213,-124.96586608886719,0.37891215085983276
1676469350.4775074,4666,1676469350,476601947,,0.0,0.11788850277662277,90,0.1599999964237213,-126.11791229248047,0.3862922191619873
1676469350.5264618,4667,1676469350,525145455,,0.0,0.11925466358661652,90,0.15000000596046448,-124.86016845703125,0.392875611782074
1676469350.577344,4668,1676469350,576321311,,0.0,0.1271456629037857,90,0.15000000596046448,-125.99108123779297,0.3705675005912781
1676469350.6248934,4669,1676469350,624099922,,0.0,0.12980760633945465,89,0.15000000596046448,-125.62115478515625,0.3399043083190918
1676469350.6756864,4670,1676469350,675349148,,0.0,0.1395452916622162,89,0.15000000596046448,-125.89067077636719,0.30348584055900574
1676469350.727263,4671,1676469350,726155047,,0.0,0.1464814394712448,89,0.15000000596046448,-125.56302642822266,0.26909658312797546
1676469350.7775996,4672,1676469350,774546520,,0.0,0.14825128018856049,89,0.15000000596046448,-125.8695297241211,0.23353438079357147
1676469350.8263717,4673,1676469350,825129904,,0.0,0.1515078842639923,89,0.15000000596046448,-125.5418930053711,0.19684351980686188
1676469350.8751726,4674,1676469350,873564968,,0.0,0.15502823889255524,89,0.15000000596046448,-125.91181945800781,0.16150321066379547
1676469350.9245977,4675,1676469350,923789783,,0.0,0.15283994376659393,89,0.15000000596046448,-125.91181945800781,0.12296199798583984
1676469350.9757283,4676,1676469350,974907548,,0.0,0.15343783795833588,89,0.15000000596046448,-125.37805938720703,0.08411785960197449
1676469351.0274427,4677,1676469351,26142737,,0.0,0.1538374423980713,89,0.15000000596046448,-125.82726287841797,0.046971261501312256
1676469351.0751145,4678,1676469351,73770870,,0.0,0.1530212163925171,89,0.15000000596046448,-125.72685241699219,0.009648830629885197
1676469351.1267397,4679,1676469351,125654864,,0.0,0.1605900675058365,89,0.14000000059604645,-126.21832275390625,-0.03896845877170563
1676469351.178848,4680,1676469351,175279374,,0.0,0.15330930054187775,89,0.14000000059604645,-125.76911926269531,-0.10030775517225266
1676469351.2264998,4681,1676469351,225681650,,0.0,0.16005882620811462,89,0.14000000059604645,-126.03335571289062,-0.1668625771999359
1676469351.2775676,4682,1676469351,274964980,,0.0,0.15981173515319824,89,0.14000000059604645,-126.23945617675781,-0.242198646068573
1676469351.3268065,4683,1676469351,325249017,,0.0,0.15810734033584595,89,0.15000000596046448,-126.21832275390625,-0.32394683361053467
1676469351.3748863,4684,1676469351,373831599,,0.0,0.15581972897052765,89,0.15000000596046448,-126.07563781738281,-0.37626686692237854
1676469351.423868,4685,1676469351,423425832,,0.0,0.16411066055297852,89,0.15000000596046448,-126.07563781738281,-0.414743572473526
1676469351.4760764,4686,1676469351,475076404,,0.0,0.16718272864818573,89,0.17000000178813934,-126.56710815429688,-0.4364687204360962
1676469351.5266356,4687,1676469351,526171206,,0.0,0.16372288763523102,89,0.17000000178813934,-126.6305160522461,-0.4184141755104065
1676469351.5756826,4688,1676469351,574326127,,0.0,0.16963934898376465,89,0.17000000178813934,-126.03335571289062,-0.37027597427368164
1676469351.6269724,4689,1676469351,626035569,,0.0,0.16739366948604584,89,0.17000000178813934,-126.1760482788086,-0.32226699590682983
1676469351.6767669,4690,1676469351,676312903,,0.0,0.17424669861793518,89,0.17000000178813934,-125.95408630371094,-0.26983174681663513
1676469351.725414,4691,1676469351,724426991,,0.0,0.17819589376449585,89,0.17000000178813934,-125.82726287841797,-0.21249349415302277
1676469351.776477,4692,1676469351,774543660,,0.0,0.1782761961221695,89,0.17000000178813934,-126.09677124023438,-0.16058585047721863
1676469351.8250775,4693,1676469351,823908100,,0.0,0.1895250678062439,89,0.17000000178813934,-125.91181945800781,-0.13103646039962769
1676469351.875797,4694,1676469351,875215400,,0.0,0.19461075961589813,89,0.17000000178813934,-125.7057113647461,-0.09837665408849716
1676469351.9275327,4695,1676469351,926383238,,0.0,0.20443256199359894,89,0.17000000178813934,-125.43619537353516,-0.061980731785297394
1676469351.9766996,4696,1676469351,974902450,,0.0,0.20368607342243195,89,0.1599999964237213,-125.37805938720703,-0.030286362394690514
1676469352.027364,4697,1676469352,26145473,,0.0,0.19876635074615479,89,0.1599999964237213,-125.6634292602539,-0.0009669849532656372
1676469352.076376,4698,1676469352,74816942,,0.0,0.20236355066299438,89,0.1599999964237213,-125.6634292602539,0.011649144813418388
1676469352.1274865,4699,1676469352,126363813,,0.0,0.19900628924369812,89,0.1599999964237213,-125.74798583984375,0.0300174318253994
1676469352.1755514,4700,1676469352,174134352,,0.0,0.18881237506866455,89,0.1599999964237213,-125.91181945800781,0.04764607548713684
1676469352.226273,4701,1676469352,225422115,,0.0,0.1752251237630844,89,0.1599999964237213,-125.29350280761719,0.06635043770074844
1676469352.2750661,4702,1676469352,273896050,,0.0,0.16505245864391327,89,0.15000000596046448,-126.11791229248047,0.07616394758224487
1676469352.3287444,4703,1676469352,327211616,,0.0,0.14508788287639618,89,0.14000000059604645,-125.89067077636719,0.04237723723053932
1676469352.3757272,4704,1676469352,374773380,,0.0,0.1382029950618744,89,0.14000000059604645,-126.13904571533203,0.0064819264225661755
1676469352.4276118,4705,1676469352,426640524,,0.0,0.12289133667945862,89,0.14000000059604645,-125.91181945800781,-0.03810371458530426
1676469352.476032,4706,1676469352,475456028,,0.0,0.09808389842510223,89,0.14000000059604645,-125.95408630371094,-0.08568760007619858
1676469352.5266433,4707,1676469352,525267795,,0.0,0.0811774805188179,89,0.14000000059604645,-126.03335571289062,-0.13590750098228455
1676469352.577783,4708,1676469352,577178771,,0.0,0.06480827182531357,89,0.14000000059604645,-126.03335571289062,-0.1944287270307541
1676469352.6274512,4709,1676469352,626842744,,0.0,0.05516839772462845,89,0.14000000059604645,-126.28173828125,-0.22835712134838104
1676469352.674964,4710,1676469352,674203826,,0.0,0.050595637410879135,89,0.14000000059604645,-126.23945617675781,-0.26692652702331543
1676469352.7255483,4711,1676469352,724594751,,0.0,0.04945207014679909,89,0.15000000596046448,-126.01221466064453,-0.30516624450683594
1676469352.778207,4712,1676469352,777366177,,0.0,0.04384498670697212,89,0.14000000059604645,-126.15489959716797,-0.3398357629776001
1676469352.828812,4713,1676469352,827660122,,0.0,0.0494440458714962,89,0.15000000596046448,-125.89067077636719,-0.36364132165908813
1676469352.878102,4714,1676469352,877085506,,0.0,0.048715971410274506,89,0.14000000059604645,-125.6634292602539,-0.3805580139160156
1676469352.9271023,4715,1676469352,925379796,,0.0,0.05075681209564209,89,0.14000000059604645,-126.44556427001953,-0.38255855441093445
1676469352.9779782,4716,1676469352,977133293,,0.0,0.04148251935839653,89,0.14000000059604645,-125.80612182617188,-0.38698065280914307
1676469353.0262396,4717,1676469353,25022979,,0.0,0.03970421105623245,89,0.11999999731779099,-125.5418930053711,0.0691184401512146
1676469353.0775251,4718,1676469353,76609108,,0.0,0.04037509858608246,89,0.10999999940395355,-125.80612182617188,-0.032543957233428955
1676469353.1258223,4719,1676469353,124232168,,0.0,0.04763061925768852,89,0.10000000149011612,-125.80612182617188,-0.12849116325378418
1676469353.1772099,4720,1676469353,175808298,,0.0,0.04799188673496246,89,0.09000000357627869,-126.19718170166016,-0.268661230802536
1676469353.2271626,4721,1676469353,225024853,,0.0,0.05921005830168724,89,0.07999999821186066,-125.84839630126953,-0.08145402371883392
1676469353.2757587,4722,1676469353,275003636,,0.0,0.05557653307914734,89,0.07000000029802322,-126.50897216796875,-0.17938725650310516
1676469353.3262527,4723,1676469353,325110214,,0.0,0.04999971017241478,89,0.0,-126.09677124023438,-0.10844255983829498
1676469353.3753638,4724,1676469353,374836039,,0.0,0.03771810606122017,89,0.0,-126.44556427001953,-0.1694500595331192
1676469353.4276538,4725,1676469353,426567814,,0.0,0.042210161685943604,89,0.0,-126.91590118408203,-0.1403227001428604
1676469353.4754047,4726,1676469353,474870716,,0.0,0.05244157835841179,89,0.0,-127.2276840209961,-0.13830967247486115
1676469353.5275335,4727,1676469353,526118443,,0.0,0.0636984333395958,89,0.0,-127.08499908447266,-0.13366363942623138
1676469353.5750024,4728,1676469353,574144534,,0.0,0.06802574545145035,89,0.0,-127.37036895751953,-0.13065606355667114
1676469353.6272795,4729,1676469353,625377410,,0.0,0.0688522681593895,89,0.0,-127.30696105957031,-0.1272071748971939
1676469353.6752129,4730,1676469353,673832032,,0.0,0.06688264012336731,89,0.0,-127.18540954589844,-0.12448044866323471
1676469353.7277455,4731,1676469353,726406072,,0.0,0.06986965239048004,89,0.0,-127.18540954589844,-0.12154708802700043
1676469353.7756808,4732,1676469353,775107246,,0.0,0.08690670877695084,89,0.0,-127.20655059814453,-0.11530695110559464
1676469353.8277357,4733,1676469353,826355862,,0.0,0.07244235277175903,89,0.0,-127.34923553466797,-0.10908045619726181
1676469353.8772745,4734,1676469353,876591531,,0.0,0.051795411854982376,89,0.0,-127.0638656616211,-0.10292847454547882
1676469353.9247053,4735,1676469353,923813004,,0.0,0.05719183385372162,89,0.0,-127.0638656616211,-0.09678836166858673
1676469353.9771683,4736,1676469353,976274306,,0.0,0.028230682015419006,89,0.0,-127.07971954345703,-0.09127233922481537
1676469354.0269957,4737,1676469354,26124980,,0.0,0.041468143463134766,89,0.0,-127.20655059814453,-0.08527227491140366
1676469354.0774481,4738,1676469354,76875753,,0.0,0.030833955854177475,89,0.0,-127.20655059814453,-0.08166059106588364
1676469354.1254992,4739,1676469354,124773420,,0.0,0.029920998960733414,89,0.0,-127.07971954345703,-0.07853451371192932
1676469354.17619,4740,1676469354,175367121,,0.0,0.03485886752605438,89,0.0,-127.02159118652344,-0.07450302690267563
1676469354.2279453,4741,1676469354,226361649,,0.0,0.03600883111357689,89,0.0,-127.02159118652344,-0.07151592522859573
1676469354.275702,4742,1676469354,275220580,,0.0,0.04070436209440231,89,0.0,-127.02159118652344,-0.06801771372556686
1676469354.327862,4743,1676469354,326369439,,0.0,0.03925708681344986,89,0.0,-127.12199401855469,-0.06394276767969131
1676469354.3765574,4744,1676469354,375558476,,0.0,0.03601556271314621,89,0.0,-127.2276840209961,-0.06074830889701843
1676469354.4268425,4745,1676469354,425670092,,0.0,0.030124709010124207,89,0.0,-127.20655059814453,-0.05552075803279877
1676469354.47762,4746,1676469354,476568047,,0.0,0.024783190339803696,89,0.0,-127.14312744140625,-0.051190461963415146
1676469354.525772,4747,1676469354,523909353,,0.0,0.022359877824783325,89,0.0,-127.042724609375,-0.04764798283576965
1676469354.575594,4748,1676469354,574937547,,0.0,0.020444057881832123,89,0.0,-127.32809448242188,-0.04327590391039848
1676469354.627177,4749,1676469354,626165405,,0.0,0.01914246194064617,89,0.0,-127.12199401855469,-0.04003022983670235
1676469354.6782866,4750,1676469354,674528639,,0.0,0.018565291538834572,89,0.0,-127.16427612304688,-0.03712208941578865
1676469354.7270582,4751,1676469354,725480909,,0.0,0.017702091485261917,89,0.0,-127.12199401855469,-0.03410569205880165
1676469354.7775908,4752,1676469354,775421749,,0.0,0.01623387634754181,89,0.0,-127.16427612304688,-0.031354330480098724
1676469354.8265193,4753,1676469354,825275109,,0.0,0.015009616501629353,89,0.0,-127.16427612304688,-0.028198767453432083
1676469354.8772924,4754,1676469354,876631151,,0.0,0.013659522868692875,89,0.0,-127.02159118652344,-0.02516043744981289
1676469354.926558,4755,1676469354,924939701,,0.0,0.013484552502632141,89,0.0,-127.4919204711914,-0.022197874262928963
1676469354.976022,4756,1676469354,974873189,,0.0,0.012498587369918823,89,0.0,-127.2276840209961,-0.01967618800699711
1676469355.0273304,4757,1676469355,26434450,,0.0,0.011623951606452465,89,0.0,-127.10614013671875,-0.017306966707110405
1676469355.0754824,4758,1676469355,74904202,,0.0,0.01070078369230032,89,0.0,-127.02159118652344,-0.0150494035333395
1676469355.1268082,4759,1676469355,125316813,,0.0,0.010459329932928085,89,0.0,-127.20655059814453,-0.012935496866703033
1676469355.1780617,4760,1676469355,177015017,,0.0,0.010428307577967644,89,0.0,-126.97930908203125,-0.010894359089434147
1676469355.2261772,4761,1676469355,224874055,,0.0,0.010414566844701767,89,0.0,-127.07971954345703,-0.00911432784050703
1676469355.275274,4762,1676469355,274844433,,0.0,0.010546264238655567,89,0.0,-127.37036895751953,-0.007622682489454746
1676469355.3271403,4763,1676469355,326175808,,0.0,0.009784781374037266,89,0.0,-127.10614013671875,-0.006291368044912815
