Time,header.seq,header.stamp.secs,header.stamp.nsecs,header.frame_id,twist.linear.x,twist.linear.y,twist.linear.z,twist.angular.x,twist.angular.y,twist.angular.z
1676469335.1220443,2293,1676469334,755265920,base_link,0.005252964794635773,-0.0018582619959488511,0.0016837926814332604,-0.0010542116804382053,-0.0005496142969676861,0.0009443726176290204
1676469335.1221745,2294,1676469334,795267456,base_link,0.005443139001727104,-0.0018482212908565998,0.0016501452773809433,-0.002176486723275748,0.0007341320946288864,3.5751528104347325e-05
1676469335.1222782,2295,1676469334,825267456,base_link,0.0054937852546572685,-0.0018327694851905107,0.0014655450358986855,0.0009535215504928996,-0.000354073458605097,-0.00026994918615156596
1676469335.1224341,2296,1676469334,855267456,base_link,0.005556969437748194,-0.0019018606981262565,0.0013618626398965716,-0.0010734123717419327,-0.0012782025228408925,-0.0006249921629065117
1676469335.1225162,2297,1676469334,895269248,base_link,0.005369711667299271,-0.0017908507725223899,0.001337677938863635,0.00032984685805478625,-0.000343036166300961,-0.0002095117158945648
1676469335.1226983,2298,1676469334,925269248,base_link,0.005543634761124849,-0.0017526736482977867,0.0013849182287231088,-0.0025045792570934024,-0.00033175361725738584,0.0007693982428972115
1676469335.122859,2299,1676469334,955269248,base_link,0.005454462021589279,-0.001969427801668644,0.0015414238441735506,0.0021888061560026663,0.0014649253534882482,0.00038422587380919273
1676469335.1231196,2300,1676469334,995271808,base_link,0.005555957555770874,-0.0018681123619899154,0.0016310501378029585,-0.002793230292658584,-0.0004381005841941557,0.0008649104478320585
1676469335.124286,2301,1676469335,25271808,base_link,0.005738311447203159,-0.0019715188536792994,0.001704073161818087,-0.0007769553711620025,3.454472609643096e-05,-0.0007223789454127674
1676469335.1244302,2302,1676469335,54271808,base_link,0.00600949814543128,-0.0017711983527988195,0.0017017261125147343,2.6876270971727043e-05,-0.00031538350860682574,0.0009375331973203569
1676469335.1245923,2303,1676469335,94273856,base_link,0.005814576055854559,-0.001873785862699151,0.0017543865833431482,-0.00010747371526506334,-0.0009081276286261736,0.0004726569813637412
1676469335.1487744,2304,1676469335,125273856,base_link,0.0057507045567035675,-0.0016234286595135927,0.0016276234528049827,0.0021400891730335497,0.00216749438980608,0.0017260509046026441
1676469335.1672928,2305,1676469335,164273856,base_link,0.0057300301268696785,-0.001636649132706225,0.0016675241058692336,-0.0026302785149847126,-0.0002606126470915985,5.2650503752792226e-05
1676469335.2010455,2306,1676469335,194275136,base_link,0.0057115801610052586,-0.001735857455059886,0.0015847256872802973,0.001908798836324843,0.0004133308241438069,0.0013624052349977427
1676469335.2342017,2307,1676469335,224275136,base_link,0.005549775902181864,-0.0017125551821663976,0.0016989606665447354,0.0011182253914351814,0.00017285576514394007,0.00039547114859679453
1676469335.2943428,2308,1676469335,284275136,base_link,0.007174820173531771,-0.0024905081372708082,0.003436544444411993,-0.0006137814038701978,-0.0006269923089477936,0.0012796533747141863
1676469335.3278482,2309,1676469335,324275136,base_link,0.004602177534252405,-0.0042861225083470345,0.0015902789309620857,0.051577975858144456,-0.02599931330985944,0.039068782415979435
1676469335.3606718,2310,1676469335,354275136,base_link,0.002048783702775836,-0.0055780126713216305,0.0013135812478139997,0.0405899834832331,-0.027059667415928447,0.0358713360343565
1676469335.3942826,2311,1676469335,384277440,base_link,0.01247899979352951,-0.006566380616277456,0.0013392649125307798,0.09095167227082275,-0.01188956841031882,-0.027857881884438447
1676469335.4282267,2312,1676469335,424277440,base_link,0.07189612835645676,-0.011244419030845165,0.013741403818130493,0.15269133310189523,0.36352688057477356,0.1050080036409571
1676469335.4584708,2313,1676469335,454277440,base_link,0.1159386932849884,-0.0036483071744441986,0.015142264775931835,0.06443979466282113,1.2142991836689803,0.14979944307421017
1676469335.493227,2314,1676469335,484279744,base_link,0.12868823111057281,0.008542447350919247,0.01561011467128992,-0.09030122083628607,1.4147859211782632,0.17365705809562507
1676469335.5266411,2315,1676469335,514279744,base_link,0.11967583000659943,0.011775730177760124,0.012608367949724197,-0.15006130678059817,1.3132816716203133,0.13136963401963925
1676469335.5585332,2316,1676469335,554279744,base_link,0.07191896438598633,0.0039753178134560585,0.008546135388314724,-0.08274465140979166,0.7577180545274288,0.08445739496404359
1676469335.591978,2317,1676469335,584281792,base_link,0.03759114816784859,-0.010064917616546154,0.004838990978896618,-0.06988611784161168,0.455408417049552,0.02921012914602247
1676469335.6273222,2318,1676469335,624281792,base_link,0.008811851032078266,-0.007424061186611652,0.0033881235867738724,0.10253765824258267,0.08263776527733094,-0.14402567906918745
1676469335.66136,2319,1676469335,654281792,base_link,-0.002568658208474517,-0.0048425449058413506,0.002824194962158799,0.08144613218658653,-0.13620507518245867,-0.09088866620630105
1676469335.69573,2320,1676469335,684283584,base_link,0.0016095929313451052,-0.004309854470193386,0.001514701172709465,-0.03962870554027881,-0.17025464862228568,-0.042632730525914854
1676469335.7268941,2321,1676469335,724283584,base_link,0.013151402585208416,-0.0054706246592104435,0.0044911084696650505,0.050624238334599274,-0.08871994928644067,0.018371336110196538
1676469335.7595723,2322,1676469335,754283584,base_link,0.020684070885181427,-0.005283574108034372,0.0066491300240159035,0.0038912682159242553,0.09291894528092484,0.022486412447822617
1676469335.7944396,2323,1676469335,784285632,base_link,0.024152977392077446,-0.005798250902444124,0.003027521073818207,0.15661189293604286,0.15915341641884648,-0.03416428173010972
1676469335.826503,2324,1676469335,824285632,base_link,0.01847675070166588,-0.0070559363812208176,0.011080194264650345,-0.26834032494816806,0.02284520746870755,0.08941856737807122
1676469335.8594928,2325,1676469335,854285632,base_link,0.01673390157520771,-0.005183116998523474,0.013597493059933186,0.21574238841372506,0.10556075737839347,-0.004510936089855813
1676469335.892606,2326,1676469335,884287424,base_link,0.01451915130019188,-0.0055460683070123196,0.012540306895971298,-0.0744504426733769,0.028010287654806326,0.014230431537668896
1676469335.9254956,2327,1676469335,914287424,base_link,0.01439219992607832,-0.00802862923592329,0.011461342684924603,0.2343182790990522,0.10657058216623756,0.030697600658107158
1676469335.9584067,2328,1676469335,954287424,base_link,0.015981413424015045,-0.012313748709857464,0.0061149997636675835,-0.05216059338009387,0.005636807069661566,-0.009612692649159897
1676469335.9952765,2329,1676469335,984289472,base_link,0.033279404044151306,-0.02714604325592518,0.02442493662238121,-0.0025766832649593875,0.03399456824717475,-0.052674195676888386
1676469336.027925,2330,1676469336,24289472,base_link,0.15830203890800476,-0.21939124166965485,0.206434965133667,3.2935058874200602,2.667155627065046,0.02802303783291469
1676469336.0612805,2331,1676469336,54289472,base_link,0.21071770787239075,-0.27188459038734436,0.5844242572784424,2.1331302572355817,2.17972616246094,0.13116712416367504
1676469336.092365,2332,1676469336,84291520,base_link,0.29346930980682373,-0.4357900619506836,1.0459480285644531,0.976005068994214,1.0578313355292692,-0.09550468480954458
1676469336.1276648,2333,1676469336,124291520,base_link,0.4506365954875946,-0.657285213470459,1.5032140016555786,0.11559600867568134,0.1276072836880966,-0.09955537019397374
1676469336.1615136,2334,1676469336,154291520,base_link,0.5249988436698914,-0.747497022151947,1.6217843294143677,-0.9843740945086181,-0.39764027507737876,0.030756165856313918
1676469336.1939006,2335,1676469336,183293568,base_link,0.5496339201927185,-0.7974554300308228,1.556949257850647,-1.6948866106605676,-0.9365092103967518,0.03639840245898987
1676469336.2267249,2336,1676469336,223293568,base_link,0.5613284707069397,-0.8169445991516113,1.3408442735671997,-1.8381099301052577,-1.2655506850406635,0.14007347927904784
1676469336.2609146,2337,1676469336,254293568,base_link,0.566310465335846,-0.8302130699157715,1.1498643159866333,-1.7957413304585097,-1.2621698138026998,0.041490024625795485
1676469336.2959666,2338,1676469336,283295616,base_link,0.5756540894508362,-0.8392516374588013,0.9760751724243164,-1.6803686549337178,-1.2205996255613647,0.05901803418306296
1676469336.3270519,2339,1676469336,323295616,base_link,0.5813894867897034,-0.8459315896034241,0.7983484268188477,-1.3249586821565797,-1.1365987245672868,-0.08058604563950277
1676469336.3595588,2340,1676469336,354295616,base_link,0.5784928798675537,-0.8385459780693054,0.7176514267921448,-1.2725194782376186,-0.8902617230528014,-0.0003341378514456113
1676469336.3928409,2341,1676469336,383297664,base_link,0.5544970631599426,-0.8323549032211304,0.6818760633468628,-1.1354226007977921,-0.86243277598567,-0.011616471655304215
1676469336.427392,2342,1676469336,423297664,base_link,0.5303000807762146,-0.7928215265274048,0.693514347076416,-1.0520403626890946,-0.8092019292210765,-0.04628439178732437
1676469336.461454,2343,1676469336,453297664,base_link,0.4991052448749542,-0.7485669851303101,0.7180213928222656,-0.9322024623974838,-0.5326152956993795,0.05177799953154421
1676469336.4933848,2344,1676469336,483299200,base_link,0.46797654032707214,-0.6897147297859192,0.7371543049812317,-0.7831513149995211,-0.4122170952684392,-0.07486178747366283
1676469336.5276747,2345,1676469336,523299200,base_link,0.41736823320388794,-0.6288321018218994,0.7479106783866882,-0.5117074638480094,-0.22621527044406836,-0.09705844054057805
1676469336.5601542,2346,1676469336,553299200,base_link,0.3845290541648865,-0.5757733583450317,0.7317383885383606,-0.28329501572815113,-0.041029684103293405,-0.021646625081932075
1676469336.592609,2347,1676469336,583301248,base_link,0.34568914771080017,-0.5289081931114197,0.7014278769493103,-0.03385649440730022,0.11188337782796336,-0.05683310108385118
1676469336.626359,2348,1676469336,623301248,base_link,0.30711838603019714,-0.4556402564048767,0.6424183249473572,0.01791482364680882,0.12186431525773476,0.004744552120794067
1676469336.6589649,2349,1676469336,653301248,base_link,0.27513357996940613,-0.41117367148399353,0.5959212779998779,0.1145692330794978,0.1755576490007197,-0.06198802192385193
1676469336.6919343,2350,1676469336,683303296,base_link,0.24376574158668518,-0.3654046654701233,0.5575427412986755,0.243176430935495,0.2896193444037738,-0.0022514564391930333
1676469336.727436,2351,1676469336,723303296,base_link,0.20994779467582703,-0.28540003299713135,0.5183729529380798,0.18093078724018016,0.27852915591118915,0.0483052447282655
1676469336.7606332,2352,1676469336,753303296,base_link,0.1786261349916458,-0.24202178418636322,0.49735188484191895,0.30449959047443664,0.28625481614544623,-0.006663731990327056
1676469336.793573,2353,1676469336,783305344,base_link,0.15246252715587616,-0.18828459084033966,0.4804927110671997,0.507505320073332,0.3660602130039367,0.04053882910899137
1676469336.8265917,2354,1676469336,823305344,base_link,0.11475328356027603,-0.13476383686065674,0.4694972336292267,0.5402684900542486,0.37695457624026624,-0.0662389120705871
1676469336.8600144,2355,1676469336,853305344,base_link,0.0972011610865593,-0.08809550106525421,0.459285169839859,0.551456129260983,0.39566376658315555,-0.014847602056367116
1676469336.893707,2356,1676469336,883307392,base_link,0.0855802372097969,-0.05236203595995903,0.4513787627220154,0.5822021316152364,0.45068878735885276,-0.004332381085509967
1676469336.92547,2357,1676469336,923307392,base_link,0.05925808474421501,-0.009755072183907032,0.4381231367588043,0.6025845536016325,0.4112135140868087,-0.01420266644031147
1676469336.9593172,2358,1676469336,953307392,base_link,0.052943527698516846,0.020076103508472443,0.42191511392593384,0.5539308855883874,0.2976559783047155,0.03907028888553626
1676469336.9922476,2359,1676469336,983309440,base_link,0.050887539982795715,0.038073502480983734,0.4064840078353882,0.6596792546404671,0.3501257698066696,-0.046077984491027645
1676469337.0283113,2360,1676469337,23309440,base_link,0.0385487861931324,0.06891036778688431,0.3780449330806732,0.6048872578066995,0.30257194284310585,0.021291729035205837
1676469337.0613763,2361,1676469337,53309440,base_link,0.038277339190244675,0.08097589761018753,0.3599221408367157,0.5554062469388703,0.23315009601144324,0.016150989979614127
1676469337.095192,2362,1676469337,83311488,base_link,0.037545863538980484,0.08432465046644211,0.3469676077365875,0.5456560850909635,0.1888294025374147,0.0620182756120165
1676469337.1269422,2363,1676469337,123311488,base_link,0.03442312777042389,0.08990710228681564,0.330116331577301,0.48602428994781344,0.11006179195861743,0.02633330491917777
1676469337.1593668,2364,1676469337,153311488,base_link,0.039910875260829926,0.09117070585489273,0.3173940181732178,0.3803843553979227,0.059956766110811834,0.017753458085884348
1676469337.1925576,2365,1676469337,183314304,base_link,0.04385793209075928,0.08482026308774948,0.30922165513038635,0.35651611624712587,0.040344706058775284,0.02537204279931822
1676469337.2259562,2366,1676469337,223314304,base_link,0.04706844687461853,0.07640540599822998,0.30393072962760925,0.30249522853460836,-0.0077503986833775285,-0.0054063218967844535
1676469337.2584586,2367,1676469337,253314304,base_link,0.05089401453733444,0.07049711793661118,0.29591310024261475,0.2724912245258426,-0.052096506246928034,0.04485644682362939
1676469337.291763,2368,1676469337,283315840,base_link,0.05345388129353523,0.062467530369758606,0.28364673256874084,0.21793604135021755,-0.06102806973343969,-0.09053630031245057
1676469337.3260803,2369,1676469337,323315840,base_link,0.05644270032644272,0.044010013341903687,0.26574036478996277,0.08136470988976913,-0.1348271987628063,0.07633961843306647
1676469337.3590422,2370,1676469337,353315840,base_link,0.05724284425377846,0.03193249925971031,0.2503455877304077,0.09644276876553158,-0.09958859325789518,-0.01934772358004418
1676469337.3924527,2371,1676469337,382318912,base_link,0.05965326353907585,0.020796064287424088,0.23843523859977722,0.032746655829597716,-0.11024707530140211,-0.008925380473902738
1676469337.4276104,2372,1676469337,423318912,base_link,0.05809918791055679,-0.001656159060075879,0.22672827541828156,-0.03940770589647744,-0.06110374940862913,-0.014821324403272154
1676469337.4583824,2373,1676469337,453318912,base_link,0.05755731463432312,-0.016198085620999336,0.2183888554573059,-0.07786215476410265,-0.08098084453892863,-0.006031123016534988
1676469337.4931486,2374,1676469337,482321216,base_link,0.05600779503583908,-0.02805342711508274,0.21385641396045685,-0.1698728715941069,-0.11612176870159532,0.04076450444371569
1676469337.5260947,2375,1676469337,522321216,base_link,0.053458526730537415,-0.04122079163789749,0.20991088449954987,-0.16949262934813486,-0.07132325480359447,-0.004600364169782363
1676469337.5609245,2376,1676469337,552321216,base_link,0.05246515944600105,-0.05260244011878967,0.20923739671707153,-0.11338759822098055,-0.07586259008412914,-0.020858186704895948
1676469337.595078,2377,1676469337,582323520,base_link,0.0493800975382328,-0.06422645598649979,0.20529428124427795,-0.2431289912766049,-0.10647123028458455,0.04815592646508182
1676469337.6271667,2378,1676469337,622323520,base_link,0.044075217097997665,-0.07646609842777252,0.1934668868780136,-0.21997243341697473,-0.09793254236015991,-0.03080177989099287
1676469337.6597,2379,1676469337,652323520,base_link,0.04324580356478691,-0.08491916209459305,0.18318763375282288,-0.24126714193898402,-0.08982050393956417,0.012044975358789355
1676469337.6927702,2380,1676469337,682326592,base_link,0.037159353494644165,-0.0917840301990509,0.17261527478694916,-0.19979571037928975,-0.03901995602712431,-0.015411446852612467
1676469337.7258456,2381,1676469337,722326592,base_link,0.03371761739253998,-0.08348063379526138,0.15573546290397644,-0.17661637529396504,-0.07139646559083433,-0.07248458628391509
1676469337.7585104,2382,1676469337,752326592,base_link,0.02703084610402584,-0.08703216165304184,0.14917802810668945,-0.2128184533273353,-0.04248968828019139,0.03609782295453322
1676469337.792162,2383,1676469337,782328896,base_link,0.022964810952544212,-0.0834139883518219,0.14384326338768005,-0.16787017492104264,-0.031011729865244135,-0.008547709413300013
1676469337.8274467,2384,1676469337,822328896,base_link,0.016053838655352592,-0.08142732083797455,0.13368381559848785,-0.1546007229465994,-0.03922402820526356,0.04828332527905026
1676469337.861004,2385,1676469337,852328896,base_link,0.007917876355350018,-0.07920511811971664,0.12648479640483856,-0.12260792707601796,-0.05838485403546686,-0.031811163204750935
1676469337.8936088,2386,1676469337,882331456,base_link,0.004823744297027588,-0.06884736567735672,0.11958480626344681,-0.08049632013728159,-0.0015155349797048021,0.010408484959273594
1676469337.927827,2387,1676469337,922331456,base_link,-0.0019331745570525527,-0.0732678547501564,0.11664332449436188,-0.22458208404068683,0.007135623837343301,0.09222565073123994
1676469337.9596379,2388,1676469337,952331456,base_link,-0.009697421453893185,-0.0641995295882225,0.11004123091697693,-0.060729590997926304,0.013753140380070687,-0.08033734108012597
1676469337.9947822,2389,1676469337,982332736,base_link,-0.009400049224495888,-0.050570279359817505,0.10430492460727692,-0.1121592459180445,0.07452193837092516,0.022054125220876297
1676469338.0270166,2390,1676469338,22332736,base_link,-0.015232106670737267,-0.052677497267723083,0.10165827721357346,-0.1579528784685307,0.056506451843875455,0.010092489749983011
1676469338.0603256,2391,1676469338,52332736,base_link,-0.017538854852318764,-0.03972126170992851,0.09605291485786438,-0.04876055551101205,-0.020569732576992784,-0.03246042520983615
1676469338.0940661,2392,1676469338,82335552,base_link,-0.017423545941710472,-0.036564894020557404,0.09208425879478455,-0.04745036780447132,0.009410071713192003,-0.035449071725574495
1676469338.1264315,2393,1676469338,122335552,base_link,-0.016303181648254395,-0.0146659379824996,0.08690957725048065,0.09395576570301471,0.051162798362836825,-0.09139734805333684
1676469338.1585073,2394,1676469338,152335552,base_link,-0.016349080950021744,-0.010069834999740124,0.08424736559391022,-0.046940591099878234,0.013869928816720625,0.06172333610235476
1676469338.1943974,2395,1676469338,182337600,base_link,-0.021516429260373116,-0.008570696227252483,0.08291752636432648,0.07508377782897221,-0.014832770192958181,-0.026807146427818007
1676469338.2256627,2396,1676469338,222337600,base_link,-0.02601257525384426,0.006064121145755053,0.07129199802875519,0.10173637932404517,0.005244780411224628,-0.01180485451400361
1676469338.2586353,2397,1676469338,247337600,base_link,-0.026149312034249306,0.011915290728211403,0.06653746962547302,-0.02433091226018908,0.0022239560368752962,0.03228575987138957
1676469338.2923567,2398,1676469338,287339904,base_link,-0.03805570676922798,0.015175793319940567,0.057658322155475616,-0.06972294878224503,0.011738851823656379,0.06349827165344116
1676469338.327493,2399,1676469338,317339904,base_link,-0.040011197328567505,0.021557245403528214,0.051906026899814606,0.05509294094165206,-0.010855658093552305,-0.032344041180677616
1676469338.3616378,2400,1676469338,357339904,base_link,-0.0407252199947834,0.02641148678958416,0.0471896268427372,0.09543163828537092,0.0591039359200436,-0.04203504653064788
1676469338.3957992,2401,1676469338,387342208,base_link,-0.04137236997485161,0.03353910893201828,0.04193141311407089,0.07192732714132084,0.0376827528230661,0.0213908778701744
1676469338.4264314,2402,1676469338,417342208,base_link,-0.04480637237429619,0.03130374103784561,0.03995891660451889,0.0026287839595859164,0.03364997911419284,0.02332939133848858
1676469338.4596853,2403,1676469338,457342208,base_link,-0.046645067632198334,0.040579646825790405,0.033518049865961075,0.1431301158766044,0.00016310453514595475,-0.06754680139533713
1676469338.4942217,2404,1676469338,487344768,base_link,-0.04622722789645195,0.04028039053082466,0.02671339549124241,0.04106267862729937,0.02042371226256428,-0.02110804230270473
1676469338.526269,2405,1676469338,517344768,base_link,-0.05031895637512207,0.03575960919260979,0.02103346213698387,0.011137216204400273,0.048997484922855945,0.005417276420148118
1676469338.5598943,2406,1676469338,557344768,base_link,-0.04807675629854202,0.0496717169880867,0.014492727816104889,0.06979961237744578,0.018519051130682303,0.004061257218373587
1676469338.5937788,2407,1676469338,587346816,base_link,-0.04869622364640236,0.04131035879254341,0.009622909128665924,0.0806372114472446,0.019429358204354628,-0.04704471033083405
1676469338.6260703,2408,1676469338,617346816,base_link,-0.05354528874158859,0.0387469120323658,0.006482022348791361,0.08567121309731346,-0.0070994874676385345,0.04334165529328995
1676469338.6595042,2409,1676469338,656346816,base_link,-0.04939118027687073,0.0432748980820179,0.0010191334877163172,0.0420770580587577,0.003679934703753715,-0.03309628364980439
1676469338.6930864,2410,1676469338,687349120,base_link,-0.04773694649338722,0.040788836777210236,0.0015765860443934798,0.01897378248208939,0.05429588883714227,-0.0070830227222699925
1676469338.7255342,2411,1676469338,716349120,base_link,-0.04849699139595032,0.04084031283855438,0.001392002566717565,-0.03408007783289508,0.016949259835841876,0.03622715496938388
1676469338.759958,2412,1676469338,756349120,base_link,-0.045967333018779755,0.0443122424185276,-0.0022022107150405645,0.04759753004476266,0.005263722109213855,-0.00860926988013072
1676469338.7943864,2413,1676469338,786351424,base_link,-0.043995603919029236,0.03978203982114792,-0.0021116870921105146,0.0780216012888278,-0.017360648705795918,0.00373472051183308
1676469338.8266277,2414,1676469338,816351424,base_link,-0.041637711226940155,0.038901131600141525,-0.003857071278616786,0.05247119401050558,-0.028322404491359778,-0.012550285766648973
1676469338.8592894,2415,1676469338,856351424,base_link,-0.03799240291118622,0.03711723908782005,-0.01157678198069334,-0.020822009987985748,-0.04807842680473627,-0.0016313736736970814
1676469338.8951604,2416,1676469338,886354240,base_link,-0.035628654062747955,0.03296537697315216,-0.013464096002280712,0.052728343931165836,0.017258069268058576,0.01243959016194599
1676469338.926099,2417,1676469338,916354240,base_link,-0.034942712634801865,0.029348213225603104,-0.015611277893185616,-0.05404374504074569,-0.06459882193356652,0.0505929025848894
1676469338.9594016,2418,1676469338,956354240,base_link,-0.0333554707467556,0.03689826279878616,-0.021573495119810104,-0.029592536567496483,-0.055740768172675446,0.0017158800304710531
1676469338.9929411,2419,1676469338,986356544,base_link,-0.030854549258947372,0.03276627138257027,-0.02174369804561138,-0.11079858279622187,-0.03456990208219862,0.057822484685100595
1676469339.0275905,2420,1676469339,16356544,base_link,-0.03056020475924015,0.02509292960166931,-0.021190783008933067,0.0024860431062321184,-0.03303345342647366,0.035689980358975214
1676469339.0606902,2421,1676469339,56356544,base_link,-0.03116874024271965,0.028992189094424248,-0.021646980196237564,0.018395854508040658,0.004118034508391124,0.02311019056102199
1676469339.0949817,2422,1676469339,86358848,base_link,-0.029251737520098686,0.028891446068882942,-0.020231856033205986,-0.023408591129147456,0.024313100368995248,-0.038686008149076356
1676469339.1273916,2423,1676469339,116358848,base_link,-0.028307797387242317,0.024212967604398727,-0.01905798353254795,-0.04966137878438466,-0.03927850656381843,0.06995262676459091
1676469339.1604767,2424,1676469339,156358848,base_link,-0.034772612154483795,0.01746106892824173,-0.021846311166882515,-0.08079548575258756,-0.0325824687101396,0.02847089530606604
1676469339.192999,2425,1676469339,186361408,base_link,-0.03346383944153786,0.021772032603621483,-0.02469726651906967,-0.08801525372316907,-0.041674461602483774,0.0416622508060909
1676469339.2258575,2426,1676469339,216361408,base_link,-0.03037191927433014,0.02140476368367672,-0.02405976690351963,-0.055833820290304315,0.037742421317841335,-0.02384925570305533
1676469339.2599213,2427,1676469339,256361408,base_link,-0.035115547478199005,0.01774703897535801,-0.022453468292951584,-0.08716399078178425,-0.02307233355882634,0.0657772833089976
1676469339.2926807,2428,1676469339,286363712,base_link,-0.035127244889736176,0.016310084611177444,-0.02269875630736351,-0.010534836842457823,-0.029914576081702,-0.011012139833606443
1676469339.327501,2429,1676469339,316363712,base_link,-0.03434722498059273,0.016946053132414818,-0.024063849821686745,-0.006662421428377595,0.0527638736070385,-0.021091832765914777
1676469339.3589008,2430,1676469339,356363712,base_link,-0.032648369669914246,0.023837385699152946,-0.025600863620638847,-0.07477590027178349,-0.0007451634228010676,0.03908927009094367
1676469339.3925638,2431,1676469339,386366016,base_link,-0.03218771144747734,0.022826414555311203,-0.022136764600872993,-0.056162646263094036,0.022750568026033393,0.00983031924763408
1676469339.427592,2432,1676469339,416366016,base_link,-0.0315202996134758,0.024269163608551025,-0.016108699142932892,-0.026913109421192707,0.00328917152058715,0.0059954438017944455
1676469339.4608107,2433,1676469339,456366016,base_link,-0.03363550826907158,0.04192312806844711,-0.018409667536616325,0.06322297200851,0.029108826361225904,0.02650264911283776
1676469339.4939444,2434,1676469339,486368576,base_link,-0.03301211819052696,0.0462472140789032,-0.022529492154717445,0.09275968385149543,0.03934554229169491,-0.07884412673844908
1676469339.526703,2435,1676469339,516368576,base_link,-0.03128255158662796,0.0467391200363636,-0.02981114201247692,0.004715631731519141,0.004272002126735108,0.09365272240447249
1676469339.5619254,2436,1676469339,556368576,base_link,-0.033433735370635986,0.041670382022857666,-0.04283403605222702,0.10084540830823524,0.02230096408012258,-0.06772492859422112
1676469339.593882,2437,1676469339,586370624,base_link,-0.033378634601831436,0.0479494072496891,-0.052619971334934235,-0.0010779306285017773,0.019715819171977282,0.06477973233094124
1676469339.627634,2438,1676469339,616370624,base_link,-0.0327606126666069,0.0533440075814724,-0.05797816067934036,0.07765665984223374,-0.003996518702130805,-0.05424107016837526
1676469339.659564,2439,1676469339,656370624,base_link,-0.023194262757897377,0.05812038853764534,-0.05296938493847847,0.09316708173364673,0.019282499080253892,-0.015295109543202475
1676469339.6955535,2440,1676469339,686372672,base_link,-0.023224569857120514,0.05936792120337486,-0.050024792551994324,0.1273504283824915,-0.006615583716153459,-0.023965051702793574
1676469339.72746,2441,1676469339,716372672,base_link,-0.023910503834486008,0.060061272233724594,-0.04403788596391678,0.06686332910871112,-0.06337064164273894,0.01505030546690394
1676469339.759926,2442,1676469339,756372672,base_link,-0.02144463360309601,0.05811790004372597,-0.030702613294124603,0.0750508832043973,-0.029152541935812838,0.012083735878263273
1676469339.7934422,2443,1676469339,786374976,base_link,-0.021996736526489258,0.056962765753269196,-0.024582399055361748,0.054821217053179584,-0.028539758223719566,0.03173689276956009
1676469339.82865,2444,1676469339,825374976,base_link,-0.02159147523343563,0.06677578389644623,-0.025577310472726822,0.031143574576850717,-0.025834885650278316,0.030951785214352445
1676469339.8584337,2445,1676469339,856374976,base_link,-0.02105538547039032,0.06569164991378784,-0.026003915816545486,0.09208968952844421,0.0008241741907490294,0.01635344550635821
1676469339.8923774,2446,1676469339,885377280,base_link,-0.021404864266514778,0.06485410779714584,-0.025323374196887016,0.11040982403440626,-0.01464693751016429,0.005145347234538797
1676469339.9287071,2447,1676469339,926377280,base_link,-0.024857448413968086,0.052233923226594925,-0.027728959918022156,0.13403932733692747,0.00903936250539332,-0.044373769363861296
1676469339.9592142,2448,1676469339,955377280,base_link,-0.024017738178372383,0.048956502228975296,-0.03183506429195404,0.02482984690668558,-0.03421119826908515,-0.00030875882249575826
1676469339.9928658,2449,1676469339,985379584,base_link,-0.02258511260151863,0.04518667608499527,-0.03676361218094826,0.05098647283123298,-0.00396042854355052,-0.08108570197364481
1676469340.0281208,2450,1676469340,25379584,base_link,-0.023219259455800056,0.04513275623321533,-0.043092843145132065,0.05050388636874431,0.010526432852184159,0.06039347534721044
1676469340.0624216,2451,1676469340,55379584,base_link,-0.022130751982331276,0.04101206362247467,-0.04487615078687668,0.08931215091453304,0.006106900639706758,-0.07075028731253172
1676469340.095332,2452,1676469340,85381632,base_link,-0.02130535989999771,0.034306641668081284,-0.042844273149967194,0.07386077779956515,-0.04839918985398196,0.043240076005919933
1676469340.1284459,2453,1676469340,125381632,base_link,-0.01803649216890335,0.02983894944190979,-0.03134213760495186,-0.027088977413180382,-0.003134582421713242,0.04640100479036426
1676469340.1613972,2454,1676469340,155381632,base_link,-0.01710383966565132,0.02180362492799759,-0.018937278538942337,-0.015843885298017935,0.02152466107860698,0.004157831011056783
1676469340.193966,2455,1676469340,185383680,base_link,-0.016563598066568375,0.017622770741581917,-0.010947615839540958,0.00873235274528839,0.01592591814534404,0.00684390166157519
1676469340.2271366,2456,1676469340,215383680,base_link,-0.015575501136481762,0.015095696784555912,-0.009328622370958328,-0.06392123826538151,0.020071677913364293,0.012539808566208482
1676469340.2593882,2457,1676469340,255383680,base_link,-0.014183283783495426,-0.0016574014443904161,-0.006597096100449562,-0.022004339348732832,0.016066686160511538,0.012501207151793328
1676469340.2937021,2458,1676469340,285385728,base_link,-0.011473448015749454,-0.007252425421029329,-0.01086979266256094,-0.0831796632851373,-0.003596480777800675,0.018429777645080955
1676469340.3279095,2459,1676469340,325385728,base_link,-0.014325728639960289,0.000993469264358282,-0.01968350261449814,-0.13778632484474365,-0.024699132417259278,-0.023754250194246686
1676469340.3609588,2460,1676469340,355385728,base_link,-0.010031536221504211,-0.0007058095070533454,-0.025693481788039207,-0.060518000317008096,-0.007835367984169775,0.011372891777197537
1676469340.3935335,2461,1676469340,385387776,base_link,-0.007065718062222004,-0.004502833355218172,-0.029253404587507248,-0.1493367857651239,-0.016492246691588303,0.06108948000908697
1676469340.427759,2462,1676469340,425387776,base_link,-0.01014758925884962,-0.013180685229599476,-0.029677104204893112,-0.0827552622653671,-0.01641586400283141,-0.061140606947996425
1676469340.4610574,2463,1676469340,455387776,base_link,-0.008080916479229927,-0.012906016781926155,-0.028778087347745895,-0.14884624177230324,-0.02694625063383158,0.05647991942888232
1676469340.4936695,2464,1676469340,485390080,base_link,-0.006929881405085325,-0.012289796024560928,-0.024445857852697372,-0.09345207161519281,0.03156458652089662,-0.0449339972414098
1676469340.5277143,2465,1676469340,525390080,base_link,-0.009807996451854706,-0.012529975734651089,-0.020530857145786285,-0.05722627272470958,0.014884351729581998,-0.02843093012479902
1676469340.5620239,2466,1676469340,555390080,base_link,-0.00753771560266614,-0.009825111366808414,-0.019540054723620415,-0.03151127505040881,0.05087734572804743,-0.006806807536296856
1676469340.5941358,2467,1676469340,585391360,base_link,-0.006631527561694384,-0.006168815307319164,-0.016355691477656364,-0.05990796761549257,0.030591715307606765,-0.017700227902344365
1676469340.6256216,2468,1676469340,615391360,base_link,-0.0059235431253910065,-0.0032274695113301277,-0.01277600321918726,-0.042702313526018845,-0.005492120850110664,-0.04093410622005499
1676469340.6585684,2469,1676469340,655391360,base_link,-0.0019087765831500292,-0.009161626920104027,-0.0052750492468476295,0.06510940174339126,-0.013570288770493925,-0.02312026284517817
1676469340.694425,2470,1676469340,685392384,base_link,-0.0016730909701436758,-0.00669366680085659,-0.007247638422995806,-0.02165827985473093,-0.015218787866574237,-0.07589771059054702
1676469340.7263622,2471,1676469340,715392384,base_link,-0.001899304217658937,-0.005270108580589294,-0.010354132391512394,0.05668608361556504,-0.02872911303123665,-0.0162566903848626
1676469340.759526,2472,1676469340,755392384,base_link,-0.0029031727463006973,-0.0022205475252121687,-0.018624773249030113,-0.0778688546590559,-0.02718444827238844,0.051680980735642444
1676469340.792642,2473,1676469340,785393408,base_link,-0.001679164357483387,0.002182845026254654,-0.02129293605685234,0.003864897148827682,-0.032904477332810725,-0.0037171913601732848
1676469340.8276274,2474,1676469340,825393408,base_link,7.442771675414406e-06,0.004256532061845064,-0.010565130971372128,0.0064152720126629545,0.04687541580078257,0.009292962303263465
1676469340.8586822,2475,1676469340,854393408,base_link,-0.0012249383144080639,0.006974291987717152,-0.006933628581464291,-0.07927259354396449,0.005131289923485583,0.062329283536287694
1676469340.8918495,2476,1676469340,884395200,base_link,-0.0029239729046821594,0.009888221509754658,-0.007569898851215839,0.12310810997713173,0.026637323816025765,0.004482884310300425
1676469340.9276295,2477,1676469340,925395200,base_link,0.0005218276637606323,0.02569068782031536,-0.008493766188621521,-0.07045724815666395,-0.05406540425058227,0.09485908506079192
1676469340.9620163,2478,1676469340,955395200,base_link,0.0020805688109248877,0.022556370124220848,-0.00785944052040577,0.07129673452096251,0.0016001114005100114,-0.047395073364013274
1676469340.9940069,2479,1676469340,984397248,base_link,-0.0007638640236109495,0.021365974098443985,-0.0036934383679181337,0.1103537910269591,0.046966982381247614,0.0384983155219329
1676469341.0278132,2480,1676469341,24397248,base_link,-0.0014311755076050758,0.03570035472512245,-0.003966066986322403,0.0186907679952594,0.01392723848622137,0.04058157326145129
1676469341.06037,2481,1676469341,54397248,base_link,0.0021363147534430027,0.035702019929885864,-0.0042551541700959206,0.10179529987208846,0.030510885497499786,-0.09302577980679777
1676469341.092565,2482,1676469341,84399296,base_link,0.0026770178228616714,0.03101157955825329,-0.00481046037748456,0.02907663070619748,0.018131928089194574,0.046381922030304175
1676469341.126206,2483,1676469341,114399296,base_link,0.0004811211838386953,0.026343809440732002,-0.009323326870799065,0.1700107655829479,-0.007261937008733428,-0.0920673264801811
1676469341.158841,2484,1676469341,154399296,base_link,-0.004653335083276033,0.018115729093551636,-0.018999064341187477,0.007744108856503889,-0.025116666538894893,0.05178587427528775
1676469341.1927097,2485,1676469341,184400832,base_link,-0.004298652056604624,0.019913410767912865,-0.02040860615670681,-0.004187220632598885,0.004292686720762781,0.01556375859481035
1676469341.2264893,2486,1676469341,214400832,base_link,-0.002642775885760784,0.02011120691895485,-0.018236592411994934,-0.06316277228230889,0.04236052114828795,0.012168010578816585
1676469341.2584956,2487,1676469341,254400832,base_link,0.0014605928445234895,0.012613230384886265,-0.009038100950419903,0.05326565600300376,0.059463416125726934,0.006466429999964072
1676469341.2923303,2488,1676469341,284403136,base_link,0.002221162198111415,0.010693835094571114,-0.0032487893477082253,-0.04501448849352322,0.05432732466968784,-0.024726514748744374
1676469341.3275912,2489,1676469341,324403136,base_link,0.0004538909124676138,0.0016970497090369463,0.000698710500728339,0.023615167434208457,0.027305922068114385,-0.02889873727993046
1676469341.3615282,2490,1676469341,354403136,base_link,0.003272168105468154,0.0023304284550249577,-5.0621150876395404e-05,-0.005663869446886393,0.04482262875598213,-0.057362406350971465
1676469341.3942919,2491,1676469341,384405440,base_link,0.003799940226599574,0.0023688767105340958,-0.0028129855636507273,-0.05665567264312669,0.02035866113950882,-0.016180651962304376
1676469341.4270437,2492,1676469341,424405440,base_link,0.012180973775684834,0.001476656529121101,-0.002095692791044712,-0.05588256301950061,-0.029154213042191703,0.04860371581763854
1676469341.4611397,2493,1676469341,454405440,base_link,0.013250267133116722,-0.0022152953315526247,-0.002266342518851161,0.0036179276950077045,-0.027301598617667323,-0.0201841172567473
1676469341.493415,2494,1676469341,484407488,base_link,0.012852353975176811,-0.006785282865166664,-0.00029734009876847267,-0.055442661763684155,-0.07002830128474104,-0.009893408065685564
1676469341.526419,2495,1676469341,514407488,base_link,0.010600711219012737,-0.008792214095592499,0.0011505497386679053,0.012452010401772115,-0.03721198080239117,-0.05456088588536473
1676469341.5587566,2496,1676469341,554407488,base_link,0.01402364857494831,0.003500455291941762,-0.0016849710373207927,-0.09757033200606928,-0.04979547787293689,-0.00914199635445336
1676469341.5927067,2497,1676469341,584409792,base_link,0.01626959629356861,-0.0007928695995360613,-0.0012139384634792805,-0.008883431572911117,-0.0370401566211952,-0.06400025568345814
1676469341.6276865,2498,1676469341,624409792,base_link,0.010300463065505028,0.002671439666301012,0.0010258029215037823,0.03123182671689147,-0.00568405429944716,-0.007714996770268151
1676469341.6622026,2499,1676469341,654409792,base_link,0.011505268514156342,0.006024569272994995,0.0019200225360691547,-0.029541499535826132,-0.016837048346292537,-0.017731727305396808
1676469341.6949635,2500,1676469341,684412096,base_link,0.013402597047388554,0.005795426666736603,-0.0012709093280136585,-0.061712725170630124,-0.011727622906332155,0.09313082759319243
1676469341.727076,2501,1676469341,724412096,base_link,0.008319499902427197,-0.002332017756998539,-0.0019831128884106874,0.06884378756915505,0.004440031103971187,-0.03761108897791739
1676469341.7613807,2502,1676469341,754412096,base_link,0.007149679586291313,-0.00020156233222223818,-0.00400108378380537,-0.019220941432669055,-0.0022423381031857078,-0.015867816933612413
1676469341.7920141,2503,1676469341,784414656,base_link,0.008985014632344246,0.001465069712139666,-0.002678301651030779,0.002746232028622705,0.002557063294138123,0.02045039707848801
1676469341.8275914,2504,1676469341,824414656,base_link,0.008888395503163338,-0.0012865531025454402,-0.0010680732084438205,-0.026239414423653504,0.03254206405978784,0.005726697255229408
1676469341.861846,2505,1676469341,854414656,base_link,0.006131452973932028,-0.0046295952051877975,0.003547058207914233,-0.026312331898706062,-0.00518838259665071,-0.004237937273803952
1676469341.895302,2506,1676469341,884416960,base_link,0.0038162025157362223,-0.003956476226449013,0.008117817342281342,0.05628425420397997,0.022972118844683496,0.009683864046473907
1676469341.9268193,2507,1676469341,924416960,base_link,0.010330342687666416,0.00290995673276484,0.0070447735488414764,-0.12342107468784574,-0.022699823312002567,0.049810858457092405
1676469341.9606879,2508,1676469341,954416960,base_link,0.008839494548738003,-0.0025395553093403578,0.008736016228795052,-0.04894646934423043,0.013420124512443168,0.04295874869699623
1676469341.9930968,2509,1676469341,984419264,base_link,0.004287254996597767,-0.003854450536891818,0.008925983682274818,0.0418333167023655,-0.005068614889577549,0.00021628128439610546
1676469342.026624,2510,1676469342,24419264,base_link,0.009228182956576347,0.0009729663142934442,0.00725787878036499,-0.006063087038216597,0.013995413196427407,-0.017618738464842087
1676469342.05992,2511,1676469342,54419264,base_link,0.008819804526865482,-0.0026411579456180334,0.009721030481159687,0.012334322156541157,0.027639311063382972,0.0014474052836951309
1676469342.0927866,2512,1676469342,83421568,base_link,0.006801311857998371,0.00026773681747727096,0.012847449630498886,-0.013774584088067957,0.03181196534091453,-0.008842828328545486
1676469342.1263897,2513,1676469342,123421568,base_link,0.006853627972304821,0.006749998778104782,0.015377828851342201,0.01765058489655456,-0.013719533304858067,0.0001598438123705722
1676469342.1587963,2514,1676469342,154421568,base_link,0.005128353368490934,0.006637650076299906,0.0162220299243927,0.022766665378022473,0.00021879414884893586,-0.026642496156026093
1676469342.1918566,2515,1676469342,183423872,base_link,0.005797290708869696,0.012220382690429688,0.014458897523581982,0.07855432495671624,0.037115681539517484,0.018751034252974617
1676469342.2274704,2516,1676469342,223423872,base_link,0.005013089161366224,0.0008376518380828202,0.012048272415995598,0.05985445584034802,0.026192350200061252,-0.07086616745348567
1676469342.2593083,2517,1676469342,253423872,base_link,0.002691497327759862,0.004892162978649139,0.00797769334167242,0.009336144780691632,-0.009047265192063272,0.06883672803788994
1676469342.2915046,2518,1676469342,283426176,base_link,0.006661815568804741,0.011012359522283077,0.004558414686471224,-0.007629177047929184,0.015661806270868252,0.02384803104277528
1676469342.3275275,2519,1676469342,323426176,base_link,0.007958218455314636,0.004538093693554401,0.008512603119015694,0.0660729968171503,0.06103412577864744,-0.02617834116801889
1676469342.3583467,2520,1676469342,353426176,base_link,0.0075386748649179935,0.00895418506115675,0.008230202831327915,-0.042256396424684435,-0.023515783678854242,0.045274014147492374
1676469342.3925867,2521,1676469342,383428736,base_link,0.009763345122337341,0.010938562452793121,0.0068425629287958145,0.06678441129868523,-0.015009593031366704,-0.057177317900495205
1676469342.425835,2522,1676469342,423428736,base_link,0.013228995725512505,0.004685844294726849,0.01136736199259758,-0.009983801580614248,-0.008828553240563471,0.024039905520421317
1676469342.4587173,2523,1676469342,453428736,base_link,0.015159918926656246,0.008006168529391289,0.007625337690114975,-0.020472089609813574,-0.00736484799793348,0.026622602387662793
1676469342.4923038,2524,1676469342,483431040,base_link,0.01756363920867443,0.00733999302610755,0.005000586621463299,0.04201213920169096,-0.02528231159403243,-0.06310340833467291
1676469342.5275095,2525,1676469342,523431040,base_link,0.006738610565662384,0.010885133408010006,0.0019608186557888985,0.011160562281538207,-0.022216815127213605,0.0402915803642839
1676469342.5597482,2526,1676469342,553431040,base_link,-0.0051117860712111,0.014851033687591553,0.00881179329007864,-0.12994952696426051,-0.40814683942841373,0.07213196338494239
1676469342.5928392,2527,1676469342,583433344,base_link,0.02041785605251789,0.01577942445874214,0.05011817067861557,-0.11850137064976163,-0.09301423040502346,0.037950557251970135
1676469342.6260235,2528,1676469342,623433344,base_link,0.1377880871295929,0.01968359760940075,0.10598087310791016,-0.05112855440741691,2.6607018626512646,-0.021501464577998747
1676469342.6586022,2529,1676469342,653433344,base_link,0.2215276062488556,0.0448470264673233,0.08307729661464691,-0.7647810234193247,4.986632276141102,-0.12451448436348732
1676469342.6917598,2530,1676469342,683435648,base_link,0.33045104146003723,0.1047469973564148,0.10318057984113693,-1.5690566625606621,5.237395685483361,0.17822524639267956
1676469342.7286959,2531,1676469342,723435648,base_link,0.5338304042816162,0.22045305371284485,0.20399318635463715,-3.3156341984303146,3.9942607279851137,1.1092880531733424
1676469342.7612305,2532,1676469342,753435648,base_link,0.7947259545326233,0.37686288356781006,0.31420108675956726,-3.6673293498694677,3.044102264699404,1.957899331420314
1676469342.7939963,2533,1676469342,783437696,base_link,1.0950695276260376,0.5586524605751038,0.3835764527320862,-3.41914763855303,2.9378925333522643,1.8101302140426905
1676469342.826785,2534,1676469342,823437696,base_link,1.4802262783050537,0.8317931294441223,0.4396587312221527,-2.3401489004837153,1.9334114861157659,1.3755911471627857
1676469342.8596082,2535,1676469342,853437696,base_link,1.7665859460830688,1.061187744140625,0.44639840722084045,-0.2137028358501678,0.6052723976920286,0.8988700634920732
1676469342.8938432,2536,1676469342,883439488,base_link,2.064753532409668,1.3240387439727783,0.45383313298225403,0.6910285086485662,-0.004484953709388986,0.756567094471869
1676469342.926443,2537,1676469342,923439488,base_link,2.4990081787109375,1.7274178266525269,0.46560201048851013,0.4512828999038296,-0.3249402276532621,0.6876748797349997
1676469342.9594715,2538,1676469342,953439488,base_link,2.781430959701538,1.9960665702819824,0.4545905590057373,0.18776820807218753,-0.20760696198888873,0.4844791917737218
1676469342.993315,2539,1676469342,983441792,base_link,3.0197372436523438,2.2081267833709717,0.44341403245925903,0.6925663924143963,-0.530300235565552,0.025810514124619044
1676469343.0262341,2540,1676469343,23441792,base_link,3.3028478622436523,2.4505317211151123,0.44571080803871155,2.2215306408813107,-1.4514248102672755,-0.6593575474059626
1676469343.0586612,2541,1676469343,53441792,base_link,3.4902336597442627,2.5975351333618164,0.4673886299133301,3.4911228236323715,-2.5389710719798106,-1.0721490949462993
1676469343.0922248,2542,1676469343,83444096,base_link,3.649341344833374,2.710026264190674,0.5002374649047852,3.986936888227581,-3.1467396197841393,-1.1330469595312653
1676469343.1275418,2543,1676469343,123444096,base_link,3.752455949783325,2.7844855785369873,0.4847913086414337,4.270712970817983,-4.473305173801805,-1.1129157410431563
1676469343.1612523,2544,1676469343,153444096,base_link,3.7574868202209473,2.796544075012207,0.4852568805217743,4.192805765305506,-6.545762134475332,-0.7669612594387756
1676469343.1946404,2545,1676469343,183446400,base_link,3.7038440704345703,2.7965662479400635,0.5158678889274597,3.5362966835438967,-7.736671969584887,-0.6821301530732286
1676469343.226913,2546,1676469343,223446400,base_link,3.6188809871673584,2.7110092639923096,0.5598637461662292,3.0724033176161036,-7.9396780993624345,-0.38844365185152835
1676469343.2605338,2547,1676469343,252446400,base_link,3.4876694679260254,2.575209856033325,0.5740064978599548,3.7849094951637468,-5.950799613380004,0.6034163333376285
1676469343.2924604,2548,1676469343,283448704,base_link,3.3081729412078857,2.4206466674804688,0.5190338492393494,4.103343191635892,-5.172726052756541,1.1504837527473704
1676469343.3254917,2549,1676469343,322448704,base_link,3.0952439308166504,2.197848081588745,0.37673401832580566,4.307989038785658,-3.368937591367621,2.3640069876143577
1676469343.3585994,2550,1676469343,352448704,base_link,2.881989002227783,2.013134717941284,0.250371515750885,2.715793315138854,-1.5411087325155135,2.208262288321921
1676469343.391911,2551,1676469343,382450752,base_link,2.6633946895599365,1.7858792543411255,0.10431278496980667,1.6881609416444874,-0.7543582443791917,1.9074483478640383
1676469343.425214,2552,1676469343,422450752,base_link,2.3621275424957275,1.4105613231658936,-0.07793065160512924,0.27010398731438656,0.8306960730200139,1.6470342655830872
1676469343.4605856,2553,1676469343,452450752,base_link,2.1086788177490234,1.0561776161193848,-0.20078997313976288,-0.519990636518061,1.708356422478194,1.4315509933264163
1676469343.494581,2554,1676469343,482453056,base_link,1.867390751838684,0.6799759268760681,-0.30951985716819763,-0.5008705436391578,1.7587222602600288,1.311389724041883
1676469343.527449,2555,1676469343,522453056,base_link,1.5877488851547241,0.16937114298343658,-0.41223981976509094,-0.6104567841148134,2.167389353075257,1.097936467985453
1676469343.5594723,2556,1676469343,552453056,base_link,1.3828411102294922,-0.24377219378948212,-0.44373875856399536,-0.7791274749227902,2.3482049653393555,0.769765784532532
1676469343.594316,2557,1676469343,582455104,base_link,1.2041712999343872,-0.6716601848602295,-0.4556160569190979,-0.8312065640798912,2.3785598061480107,0.6985483368750844
1676469343.6265616,2558,1676469343,622455104,base_link,1.002198338508606,-1.2391221523284912,-0.44376394152641296,-0.4638520176248122,2.1872487769674436,0.5860114187222071
1676469343.6585028,2559,1676469343,652455104,base_link,0.8982216715812683,-1.5521574020385742,-0.4605788290500641,-1.2537390994068258,2.170548494856292,0.27613826432513444
1676469343.6917639,2560,1676469343,682457152,base_link,0.8211622834205627,-1.7606271505355835,-0.5048970580101013,-2.399637452544825,2.156745513226073,0.027856672527609098
1676469343.7278264,2561,1676469343,717457152,base_link,0.7264167666435242,-1.933722972869873,-0.5741908550262451,-4.895821720212764,1.5246938647424662,-1.3830818707674941
1676469343.7613301,2562,1676469343,757457152,base_link,0.6091123819351196,-2.1468279361724854,-0.5728322267532349,-5.876585047423244,0.3153416554460293,-2.1871287668259427
1676469343.7950683,2563,1676469343,787459456,base_link,0.49090152978897095,-2.263315200805664,-0.5110178589820862,-5.948934951105918,-0.1694736346233095,-2.210084541646626
1676469343.826828,2564,1676469343,817459456,base_link,0.35334712266921997,-2.3325963020324707,-0.3728736937046051,-6.334175593014734,-1.6526932880147263,-2.4457116813642474
1676469343.860701,2565,1676469343,857459456,base_link,0.12963277101516724,-2.2825067043304443,-0.1262643039226532,-5.924840729327274,-1.7942399479913493,-1.9843845045383204
1676469343.8937154,2566,1676469343,887461504,base_link,-0.07539332658052444,-2.138850212097168,0.06539563089609146,-5.752705701771038,-1.7489799467364762,-1.887119049576167
1676469343.9266534,2567,1676469343,917461504,base_link,-0.29480046033859253,-1.8830547332763672,0.22935661673545837,-5.4901503532159,-1.5143015487549256,-1.7005754642013313
1676469343.960726,2568,1676469343,957461504,base_link,-0.6005054712295532,-1.4227782487869263,0.3525983989238739,-5.267842204988073,-1.2832220800129621,-1.7877705594318465
1676469343.9940894,2569,1676469343,987463808,base_link,-0.8240270018577576,-1.0481377840042114,0.3451980948448181,-4.915577716972278,-1.1900336662217927,-1.7932365824690444
1676469344.0279315,2570,1676469344,17463808,base_link,-1.0199252367019653,-0.7204471230506897,0.2634756565093994,-3.680508177308928,-1.2429291420655741,-0.6156268145208692
1676469344.0584877,2571,1676469344,47463808,base_link,-1.190953016281128,-0.4300752878189087,0.14485414326190948,-1.015490130020192,-0.6470165641072642,0.06618691728718676
1676469344.0941186,2572,1676469344,87465600,base_link,-1.4295201301574707,-0.014582902193069458,-0.03519710153341293,0.33341928218521955,-0.3210300165841515,0.4112978321502869
1676469344.1270049,2573,1676469344,117465600,base_link,-1.6362526416778564,0.33179423213005066,-0.1659606397151947,1.4042490636408007,-0.028879594178165675,0.951610322757192
1676469344.1610405,2574,1676469344,157465600,base_link,-1.9380691051483154,0.8221768140792847,-0.29379796981811523,2.1990331775729457,0.2849547256281049,1.2675603016486006
1676469344.194234,2575,1676469344,187467648,base_link,-2.196171760559082,1.2142540216445923,-0.3440726697444916,2.1751158847742773,0.10386624973999208,1.1734845066292603
1676469344.225882,2576,1676469344,217467648,base_link,-2.455681324005127,1.5828043222427368,-0.3700547218322754,2.115660235861968,0.17893301935064365,1.0151156086188922
1676469344.2588735,2577,1676469344,247467648,base_link,-2.6885859966278076,1.8827756643295288,-0.37472426891326904,2.6762602850328268,0.8434740421392001,0.7389546299734606
1676469344.2925243,2578,1676469344,287469696,base_link,-2.9559836387634277,2.204634428024292,-0.372787207365036,3.290150652706131,1.3571512350715875,0.424173189899909
1676469344.3259401,2579,1676469344,317469696,base_link,-3.126763105392456,2.372112274169922,-0.3288504481315613,4.532947847454229,2.3671010433759743,0.5687135770793289
1676469344.3603384,2580,1676469344,357469696,base_link,-3.2824225425720215,2.5215110778808594,-0.25909218192100525,5.893135995612527,3.583919691692569,0.5257037528929221
1676469344.392843,2581,1676469344,387471744,base_link,-3.322854995727539,2.5722098350524902,-0.23043718934059143,6.354987473244071,4.438292282840612,0.42728263755670864
1676469344.4260707,2582,1676469344,417471744,base_link,-3.3042197227478027,2.5839617252349854,-0.16545464098453522,5.980062488879648,6.1083315486571035,-0.07041845452700969
1676469344.4590096,2583,1676469344,457471744,base_link,-3.1791210174560547,2.546196222305298,-0.10549727082252502,4.2586141302580724,7.450028234534232,0.09105211905320003
1676469344.4915392,2584,1676469344,487473792,base_link,-3.053957462310791,2.458503484725952,-0.13165584206581116,3.960658790842914,7.462118617370689,0.14664314998201014
1676469344.525613,2585,1676469344,516473792,base_link,-2.9097166061401367,2.3578782081604004,-0.1841011494398117,3.2532280144930867,6.250359942255732,-0.5406133430860289
1676469344.5594249,2586,1676469344,556473792,base_link,-2.698934316635132,2.180586814880371,-0.26262179017066956,1.8778775020235325,3.148234831843732,-1.8345755591227806
1676469344.5924203,2587,1676469344,586475840,base_link,-2.4443533420562744,2.0320143699645996,-0.3499966263771057,1.0261445984030027,2.0640412963461827,-1.7013824068813113
1676469344.626484,2588,1676469344,616475840,base_link,-2.1551034450531006,1.8440216779708862,-0.4304393529891968,-0.4753679167530633,0.8471734020388544,-0.6882321101834946
1676469344.659049,2589,1676469344,656475840,base_link,-1.7531743049621582,1.560537338256836,-0.50321364402771,-1.6706161161545454,-0.4990690619783587,-0.15083637319995408
1676469344.6915314,2590,1676469344,686477632,base_link,-1.4355030059814453,1.3482201099395752,-0.5325497984886169,-2.292157664401032,-1.4007025990934936,0.0754965941907128
1676469344.7278647,2591,1676469344,716477632,base_link,-1.0833030939102173,1.091347098350525,-0.49469366669654846,-1.9955860956423375,-1.8222066273617048,0.7011413956786723
1676469344.7588344,2592,1676469344,756477632,base_link,-0.6509165167808533,0.7929137945175171,-0.3884423077106476,-1.4224651831105062,-2.442332914752404,0.41842625866941957
1676469344.7924654,2593,1676469344,786479424,base_link,-0.39486682415008545,0.6390876770019531,-0.2821863293647766,-1.6029755657151015,-2.888251784092461,0.7022049785432821
1676469344.827953,2594,1676469344,816479424,base_link,-0.18363402783870697,0.531055748462677,-0.165815532207489,-2.8684709087322364,-3.930350983479707,1.1909261699368787
1676469344.8608787,2595,1676469344,856479424,base_link,0.043772824108600616,0.42976295948028564,0.04818445071578026,-3.632577574717759,-3.909397480864067,1.6930766761167584
1676469344.893797,2596,1676469344,886481472,base_link,0.16007433831691742,0.3803386390209198,0.21385031938552856,-3.622432109832231,-3.778655017312266,1.6484374748283581
1676469344.9268827,2597,1676469344,916481472,base_link,0.18148817121982574,0.35580509901046753,0.3494212031364441,-2.26192173396974,-4.925824301734489,1.2415990347847325
1676469344.9597468,2598,1676469344,956481472,base_link,0.15739558637142181,0.3165797293186188,0.3441968560218811,-0.06343417357226307,-5.998816746294617,1.2251209262729357
1676469344.9925058,2599,1676469344,986483520,base_link,0.1528049260377884,0.3120780289173126,0.30794835090637207,0.47566681681891165,-5.36588647816947,1.2328043556597408
1676469345.0260394,2600,1676469345,16483520,base_link,0.12469328194856644,0.32412847876548767,0.3251339793205261,0.7914840771946697,-2.4124583267320276,0.6342803927089026
1676469345.0587976,2601,1676469345,56483520,base_link,0.03432036191225052,0.3131251931190491,0.33004096150398254,0.8539275727348881,-0.09951270594888063,0.5661390691872147
1676469345.091538,2602,1676469345,86485568,base_link,-0.041126929223537445,0.2933012545108795,0.22930335998535156,0.6368090025460623,-0.024677344129608703,0.5510877046695815
1676469345.1275866,2603,1676469345,116485568,base_link,-0.0842461958527565,0.27422794699668884,0.09935478121042252,0.5558902763439906,-0.1981648770166477,0.2965548677152548
1676469345.1617026,2604,1676469345,156485568,base_link,-0.15535002946853638,0.24229292571544647,-0.07157143950462341,0.13338995055317038,-0.21839854397822242,0.15517846616386252
1676469345.1944878,2605,1676469345,186487616,base_link,-0.2087627500295639,0.2168029248714447,-0.16792023181915283,-0.13590069123897727,-0.06973194843722394,0.07520573978713012
1676469345.227379,2606,1676469345,216487616,base_link,-0.30258116126060486,0.18221141397953033,-0.23390385508537292,-0.22325955319600924,-0.17298951066011214,-0.03171445766909914
1676469345.2609644,2607,1676469345,256487616,base_link,-0.44013118743896484,0.13855867087841034,-0.24627047777175903,-0.23478293046639617,-0.16420451997157653,-0.0764295608441396
1676469345.293577,2608,1676469345,286489664,base_link,-0.5650508999824524,0.10631658136844635,-0.2201945036649704,-0.41149609551648964,-0.1128304527346214,-0.15561876459017093
1676469345.32564,2609,1676469345,316489664,base_link,-0.7061206102371216,0.06616408377885818,-0.1762261986732483,-0.3985809210418738,-0.02495043850281689,-0.10164713460759674
1676469345.3595755,2610,1676469345,356489664,base_link,-0.8930144309997559,0.029061125591397285,-0.11147940903902054,-0.40286884904556186,0.01849187399790308,-0.24752940306264054
1676469345.3929977,2611,1676469345,386491712,base_link,-1.022210717201233,0.020807258784770966,-0.06675998121500015,-0.4328907235298824,0.15644448636426903,-0.07230938481580336
1676469345.4263704,2612,1676469345,416491712,base_link,-1.116686224937439,0.0027259881608188152,-0.023547174409031868,-0.475660470910082,1.2321368272626945,-0.1051625337948652
1676469345.4587424,2613,1676469345,456491712,base_link,-1.2282370328903198,-0.01694425754249096,0.007486522197723389,-0.3651543981380998,2.1055051997433205,-0.11075398298495687
1676469345.491455,2614,1676469345,486493760,base_link,-1.2943322658538818,-0.026924222707748413,0.011165090836584568,-0.2717102133428081,2.3052532426452355,-0.15602951957882238
1676469345.5274088,2615,1676469345,516493760,base_link,-1.3395577669143677,-0.030635060742497444,0.0051365802064538,-0.32094245381109654,2.5475504043413943,-0.1926500100775502
1676469345.5615978,2616,1676469345,556493760,base_link,-1.362064003944397,-0.01434691809117794,-0.007192166522145271,-0.23421724957293177,2.512061017092738,-0.15697630318879374
1676469345.5937963,2617,1676469345,586495808,base_link,-1.3636000156402588,-0.012190522626042366,-0.017103388905525208,-0.32031217773345527,2.4654387997248803,-0.05000145459362683
1676469345.6259708,2618,1676469345,616495808,base_link,-1.3524250984191895,-0.011112968437373638,-0.024133598431944847,-0.12169980771298149,2.2648965600300754,0.015005489252075213
1676469345.6613188,2619,1676469345,656495808,base_link,-1.314590334892273,-0.008554017171263695,-0.020964602008461952,-0.00609802523841253,1.969793740475181,-0.0937865058072286
1676469345.6945932,2620,1676469345,685497856,base_link,-1.260380744934082,0.002154094632714987,-0.01910148561000824,0.045028654575971806,1.825116950389952,-0.022143587743495598
1676469345.7265804,2621,1676469345,715497856,base_link,-1.1955209970474243,0.012911214493215084,-0.019359780475497246,0.05162659878601122,1.5471120283588604,-0.08447747681832704
1676469345.7588038,2622,1676469345,756497856,base_link,-1.1117734909057617,0.022030213847756386,-0.023985890671610832,0.07205551110754337,1.160515979695478,-0.0844430172023018
1676469345.7925715,2623,1676469345,786499904,base_link,-1.0275697708129883,0.029486559331417084,-0.030666837468743324,0.20027884010273306,0.9195275601478263,-0.0703631805592577
1676469345.8265457,2624,1676469345,815499904,base_link,-0.9337752461433411,0.03942546620965004,-0.03503044322133064,0.24421294586748396,0.5223771549810826,-0.03587426219458289
1676469345.8587537,2625,1676469345,856499904,base_link,-0.8185009360313416,0.05115517973899841,-0.03932856023311615,0.22695460603107376,0.17114501186294936,-0.020352699213518854
1676469345.8947468,2626,1676469345,885501952,base_link,-0.723308265209198,0.05895904079079628,-0.03871981054544449,0.2701601359288132,0.021404173027289076,-0.07218986343399136
