Time,header.seq,header.stamp.secs,header.stamp.nsecs,header.frame_id,twist.linear.x,twist.linear.y,twist.linear.z,twist.angular.x,twist.angular.y,twist.angular.z
1676469335.1221828,2294,1676469334,795267456,base_link,0.005648179656059712,-0.0019126088181111683,0.0004545959427209325,-0.002115210983902216,0.0007447093958035113,0.0004986110143363475
1676469335.1222675,2295,1676469334,825267456,base_link,0.005659860959387053,-0.0018933802569244718,0.0002638706349327374,0.000873972661793232,-0.00035315030254423624,-0.0004678681143559515
1676469335.122421,2296,1676469334,855267456,base_link,0.005699666801625678,-0.001960496163081262,0.00014800747752309558,-0.0011914628557860851,-0.0012585613876581192,-0.0004160174285061656
1676469335.122524,2297,1676469334,895269248,base_link,0.005512542745472167,-0.0018479469531280175,0.00016521645938081798,0.0002762754447758198,-0.0003401171416044236,-0.0002799287904053926
1676469335.1226957,2298,1676469334,925269248,base_link,0.005692831593842844,-0.001811726751698047,0.0001762509028232594,-0.0022954170126467943,-0.0003352960338816045,0.001262374222278595
1676469335.122869,2299,1676469334,955269248,base_link,0.0056357456591449445,-0.0020313132166704787,0.00034340439663830223,0.0022350470535457134,0.001444640220142901,-4.5688968384638605e-05
1676469335.1231306,2300,1676469334,995271808,base_link,0.005754506093836496,-0.0019325381277053683,0.00041205410957784763,-0.002559180837124586,-0.0004421973135322331,0.0014132206561043859
1676469335.1243002,2301,1676469335,25271808,base_link,0.005947002026504501,-0.002038416426885239,0.00044384162665483473,-0.0009087552316486835,5.4399948567151956e-05,-0.0005457919905893505
1676469335.1244407,2302,1676469335,54271808,base_link,0.00621381012881275,-0.0018395112795755895,0.00038967316065124247,0.0002164267934858799,-0.0003359375987201928,0.0009052419336512685
1676469335.1245875,2303,1676469335,94273856,base_link,0.006032959365800822,-0.0019421603446835914,0.00047922296510518404,-1.652166247367859e-05,-0.0009176568128168582,0.00046613733866252016
1676469335.1488042,2304,1676469335,125273856,base_link,0.005946750050145901,-0.0016887705212275824,0.00037349627825367137,0.0024706250987946987,0.0021180198527872562,0.0012912276433780787
1676469335.167407,2305,1676469335,164273856,base_link,0.0059345708807732,-0.001702926790029792,0.0004164264933914512,-0.0025653732009232044,-0.0002478169044479727,0.000588645227253437
1676469335.2011752,2306,1676469335,194275136,base_link,0.0058984912916188546,-0.001800211967237108,0.0003372560500158001,0.00215248204767704,0.0003733790945261718,0.0009475824190303683
1676469335.2343266,2307,1676469335,224275136,base_link,0.00576394594126404,-0.0017785378877405676,0.00048275805406497024,0.0011773393489420414,0.00015826884191483262,0.00015977359726093707
1676469335.2943747,2308,1676469335,284275136,base_link,0.007704538666634963,-0.0026030017649648473,0.0018316600048596976,-0.0003429437056183815,-0.0006515614222735164,0.001365729491226375
1676469335.3278801,2309,1676469335,324275136,base_link,0.004787384246411245,-0.004346294439616425,0.0005201421981634745,0.05825556442141533,-0.027142984792590138,0.027058625593781475
1676469335.3606956,2310,1676469335,354275136,base_link,0.002220486426177374,-0.005615830501256514,0.0007544027345528812,0.04686262458562851,-0.028031827881932255,0.026165552437305454
1676469335.3945696,2311,1676469335,384277440,base_link,0.012424714765980907,-0.00665567898764918,-0.0014017206831052305,0.0830763578414917,-0.011805649846792226,-0.046352729201316833
1676469335.4286408,2312,1676469335,424277440,base_link,0.0730814818670981,-0.01191414386366691,-0.001211018775109774,0.174129918217659,0.3608090281486511,0.0773869082331657
1676469335.4584913,2313,1676469335,454277440,base_link,0.1167848311457872,-0.005308568267991329,-0.00418344774506036,0.10593629628419876,1.2112038135528564,0.1512537300586699
1676469335.493428,2314,1676469335,484279744,base_link,0.12973612438947743,0.006345268181503623,-0.0023633564975623976,-0.04098761826753616,1.4134403467178345,0.20108875632286055
1676469335.5267086,2315,1676469335,514279744,base_link,0.12055957201071636,0.008893851463600421,0.0024964072926438657,-0.10728492587804794,1.3135722875595093,0.16584002971649153
1676469335.5585566,2316,1676469335,554279744,base_link,0.07231051363394574,0.0017246876573639893,0.005421447200943728,-0.05659298971295357,0.757567286491394,0.10490671545267095
1676469335.5921288,2317,1676469335,584281792,base_link,0.037395272095696326,-0.011308315546294325,0.0033953563482775886,-0.05478730797767639,0.45650017261505127,0.04171415418386454
1676469335.6273222,2318,1676469335,624281792,base_link,0.008654285502422004,-0.007750613659452165,0.0030456715035095143,0.10186583548784256,0.08245747536420821,-0.14460457861423492
1676469335.661448,2319,1676469335,654281792,base_link,-0.002633951904528827,-0.0048196228714997725,0.002803186772483313,0.07542040199041367,-0.13675372302532196,-0.09516420960426329
1676469335.6959841,2320,1676469335,684283584,base_link,0.001532923106024827,-0.004376712242861396,0.001398031220089954,-0.045335590839385986,-0.16837665438652039,-0.04436908662319181
1676469335.7270546,2321,1676469335,724283584,base_link,0.01313777998808359,-0.00587920209685017,0.003986339056418611,0.048845209181308746,-0.09027934819459915,0.015340590849518786
1676469335.7596807,2322,1676469335,754283584,base_link,0.020735391858374978,-0.005910820213883828,0.005921452747793817,0.006982939783483744,0.09242504090070724,0.02373944967985152
1676469335.7945378,2323,1676469335,784285632,base_link,0.024072892371466842,-0.006452937122371681,0.002237715253827199,0.15961001813411713,0.15561330318450928,-0.036516230553388616
1676469335.8268657,2324,1676469335,824285632,base_link,0.018560360590141267,-0.007662349299162406,0.010523719756530237,-0.2653651833534241,0.028437307104468356,0.09641966968774796
1676469335.859569,2325,1676469335,854285632,base_link,0.016886869284105308,-0.005767553421608042,0.013166205015355151,0.21819953620433807,0.10016614198684692,-0.007994160056114209
1676469335.8926783,2326,1676469335,884287424,base_link,0.014623022063225766,-0.006050185462451862,0.01218139592732347,-0.0734100416302681,0.029723027721047405,0.016045473515987393
1676469335.9260988,2327,1676469335,914287424,base_link,0.014375349801947785,-0.008534737064279627,0.011111447409095424,0.2375916987657547,0.09997343271970749,0.027571452781558023
1676469335.9585247,2328,1676469335,954287424,base_link,0.015747768999261984,-0.01277952124195993,0.005754894681790836,-0.052142973989248276,0.007085436023771762,-0.008706998080015184
1676469335.99532,2329,1676469335,984289472,base_link,0.03293908277981047,-0.028186796287991,0.023696524375516503,-0.0025199793744832277,0.0344390645623207,-0.05238741636276246
1676469336.027943,2330,1676469336,24289472,base_link,0.15147136817870716,-0.21184468710018894,0.21905638637475414,3.315798044204712,2.6395349502563477,-0.004902677610516872
1676469336.061318,2331,1676469336,54289472,base_link,0.12390124433344508,-0.15119392065751786,0.6493564317212065,2.1258814334869385,2.190725803375244,0.002058470621704787
1676469336.0923936,2332,1676469336,84291520,base_link,0.10364308937839141,-0.18796216592267453,1.1506401801823796,0.9981536269187927,1.0289266109466553,-0.16035442054271712
1676469336.1277204,2333,1676469336,124291520,base_link,0.14510400404350146,-0.25455594888651606,1.6759760134680806,0.13479772210121155,0.10244131833314894,-0.10436799377202989
1676469336.161653,2334,1676469336,154291520,base_link,0.2073995215086018,-0.33868189887449873,1.8184718863737037,-0.9795872569084167,-0.4064280390739441,-0.05728126317262645
1676469336.1944988,2335,1676469336,183293568,base_link,0.2685655235874454,-0.44990710357556096,1.757151031917736,-1.6885079145431519,-0.9469299912452698,-0.057267632335424305
1676469336.2268283,2336,1676469336,223293568,base_link,0.38404707191761234,-0.6191831927267801,1.4998238272070095,-1.847112774848938,-1.257615089416504,0.08041091263294235
1676469336.2609956,2337,1676469336,254293568,base_link,0.4785711979930895,-0.7516039360277047,1.240246088107067,-1.7921217679977417,-1.2679115533828735,-0.013447975739836537
1676469336.296026,2338,1676469336,283295616,base_link,0.5271792683607437,-0.8074323502479634,1.0288725394572937,-1.6776469945907593,-1.2257251739501953,0.009151510894298704
1676469336.3275487,2339,1676469336,323295616,base_link,0.5795074140812336,-0.8675106043153229,0.7762542808302015,-1.3192994594573975,-1.139183759689331,-0.12480215728282915
1676469336.3601525,2340,1676469336,354295616,base_link,0.6041484522414218,-0.890145673982522,0.6288738071840145,-1.2680412530899048,-0.8959869742393494,-0.03392037749290455
1676469336.3928616,2341,1676469336,383297664,base_link,0.5902853627998111,-0.8942825387483023,0.5630795452999595,-1.1313616037368774,-0.8665292263031006,-0.047515675425529376
1676469336.4274135,2342,1676469336,423297664,base_link,0.5873232308591385,-0.8789762343260235,0.5226839378103237,-1.0504759550094604,-0.8085376620292664,-0.08066008239984503
1676469336.4615083,2343,1676469336,453297664,base_link,0.5740331235889232,-0.8582128133108853,0.5088909824159432,-0.9210869669914246,-0.5517038702964783,0.0508240498602391
1676469336.4942458,2344,1676469336,483299200,base_link,0.5510939381222508,-0.8123786189301166,0.5238715096365781,-0.7867117524147034,-0.4069637954235077,-0.06571370363235468
1676469336.5277355,2345,1676469336,523299200,base_link,0.5105892204407628,-0.7690439471209547,0.5261810399020908,-0.5202609896659851,-0.2130047082901001,-0.07997321337461469
1676469336.5602167,2346,1676469336,553299200,base_link,0.4796619918935939,-0.7219960925573679,0.5132880629609338,-0.2836638391017914,-0.04355925694108009,0.006744981743395334
1676469336.5934196,2347,1676469336,583301248,base_link,0.43697985642539594,-0.6717481122666118,0.49904810196478216,-0.041149891912937164,0.12116935104131699,-0.022777808830142035
1676469336.6264405,2348,1676469336,623301248,base_link,0.38837446143670074,-0.5878594883847452,0.4671376109305859,0.01827375218272209,0.11757306009531021,0.03220261633396147
1676469336.6589882,2349,1676469336,653301248,base_link,0.3472997665046684,-0.5339111959690387,0.4406882681552329,0.10571454465389252,0.18889087438583374,-0.03055789135396483
1676469336.6925857,2350,1676469336,683303296,base_link,0.30922156222869657,-0.47994127840503975,0.42170440498187156,0.24038787186145782,0.28925296664237976,0.03956769406795498
1676469336.7275808,2351,1676469336,723303296,base_link,0.26559030588582294,-0.38970042555983114,0.414532434316671,0.18387861549854279,0.2653162479400635,0.0918900445103645
1676469336.760981,2352,1676469336,753303296,base_link,0.22683780001871115,-0.33965851457212687,0.4135425493529625,0.30089083313941956,0.28875765204429626,0.028106056153774227
1676469336.7936034,2353,1676469336,783305344,base_link,0.1960042380551828,-0.2810477023609961,0.41492611442935057,0.5068164467811584,0.3619445562362671,0.07306403666734691
1676469336.82667,2354,1676469336,823305344,base_link,0.1507987822719393,-0.21996123370828785,0.4250106385803622,0.5309246778488159,0.3943653106689453,-0.03110266104340558
1676469336.860095,2355,1676469336,853305344,base_link,0.125330159410381,-0.16477626123154823,0.430456599983556,0.5463786721229553,0.4022846221923828,0.022617675364017438
1676469336.8937855,2356,1676469336,883307392,base_link,0.10906743285076323,-0.12358659562524271,0.43201758696580256,0.5773418545722961,0.455110102891922,0.04061590507626528
1676469336.9254906,2357,1676469336,923307392,base_link,0.07358774725409556,-0.06919745056620194,0.4305288850824105,0.5978771448135376,0.4175749719142914,0.024093080312013574
1676469336.9593403,2358,1676469336,953307392,base_link,0.06047634886562524,-0.02788158422397996,0.4204564884362846,0.5516809821128845,0.2976139187812805,0.063553474843502
1676469336.9926453,2359,1676469336,983309440,base_link,0.05528563772062863,-0.0033930286478090132,0.4076767928995574,0.6558105945587158,0.3598844110965729,-0.016841288655996368
1676469337.0283706,2360,1676469337,23309440,base_link,0.037312746447045096,0.039556805164649045,0.3823553806876498,0.6020467281341553,0.3054431974887848,0.04621583223342892
1676469337.061456,2361,1676469337,53309440,base_link,0.03344943895545926,0.06062029922704334,0.36437962691247616,0.5531924366950989,0.23616795241832733,0.03603813424706456
1676469337.0954916,2362,1676469337,83311488,base_link,0.03137720317225762,0.0683946092662092,0.35106197154766094,0.5430468320846558,0.18979981541633606,0.07949554175138471
1676469337.1269758,2363,1676469337,123311488,base_link,0.026341395094182936,0.08130109632117061,0.3330785099342221,0.4844967722892761,0.11255991458892822,0.04024667292833327
1676469337.159654,2364,1676469337,153311488,base_link,0.030931019633271453,0.08824239192247585,0.31921856246806063,0.37939101457595825,0.062112793326377876,0.02840274386107921
1676469337.1925716,2365,1676469337,183314304,base_link,0.034814995851252896,0.08427642601073375,0.3105179983867757,0.35543590784072876,0.04236757755279542,0.035291370004415505
1676469337.2260466,2366,1676469337,223314304,base_link,0.03796578781803893,0.07993443856883686,0.30429623339201595,0.30256080627441406,-0.006209456827491522,0.003325873753055931
1676469337.2584758,2367,1676469337,253314304,base_link,0.042497123750852434,0.07693735808684878,0.2956336324743007,0.2713812291622162,-0.04984046891331672,0.05334576219320298
1676469337.2918255,2368,1676469337,283315840,base_link,0.045832616496942834,0.06964385200916252,0.28330916646423016,0.22043700516223907,-0.0623014159500599,-0.08332721889019011
1676469337.3261662,2369,1676469337,323315840,base_link,0.05048008734699067,0.05213531783953492,0.26546990523236697,0.08010409027338028,-0.13217699527740479,0.08209082484245302
1676469337.3590798,2370,1676469337,353315840,base_link,0.05285740936228298,0.04041466667675803,0.2500841658602342,0.09702356159687042,-0.09986571967601776,-0.014376942999660957
1676469337.3926878,2371,1676469337,382318912,base_link,0.05603711821329115,0.029046425023905458,0.23845019966218867,0.03314903751015663,-0.11038821935653687,-0.004691037815064178
1676469337.4277413,2372,1676469337,423318912,base_link,0.05553584643682738,0.005954302291767165,0.22729779015414853,-0.03910958766937256,-0.06165566295385361,-0.013241091743111603
1676469337.4584036,2373,1676469337,453318912,base_link,0.0559202464821599,-0.009507751630440583,0.2192063943390624,-0.07766540348529816,-0.08128581196069717,-0.004181942902505388
1676469337.4932497,2374,1676469337,482321216,base_link,0.05486450924393859,-0.022081099676357834,0.21485051624580803,-0.16990189254283905,-0.1152719110250473,0.04299460351467134
1676469337.5263202,2375,1676469337,522321216,base_link,0.05308204450359407,-0.036937765763426084,0.21080190982035138,-0.16937966644763947,-0.07165232300758362,-0.0035206009633839044
1676469337.560939,2376,1676469337,552321216,base_link,0.05279020898452362,-0.04989024385300786,0.20981910125358752,-0.11331704258918762,-0.07626180350780487,-0.019756749272346486
1676469337.595135,2377,1676469337,582323520,base_link,0.050073792076353034,-0.062442381512079655,0.20567629404244853,-0.24285589158535004,-0.10634688287973404,0.049781311303377165
1676469337.6272492,2378,1676469337,622323520,base_link,0.04549512006062938,-0.07645614930522678,0.19314185608850323,-0.22007596492767334,-0.0981612280011177,-0.029297558590769757
1676469337.6598115,2379,1676469337,652323520,base_link,0.045375756248407284,-0.08662258737619169,0.18187012090471272,-0.2410212755203247,-0.09021700173616409,0.013866343535482894
1676469337.692887,2380,1676469337,682326592,base_link,0.03938164181917637,-0.09424896157170715,0.170784596408313,-0.1999301314353943,-0.03903380036354065,-0.013516675680875773
1676469337.7259123,2381,1676469337,722326592,base_link,0.03604206744127458,-0.08731164973795716,0.15309171610505332,-0.17759288847446442,-0.06976618617773057,-0.0716816559433937
1676469337.7587073,2382,1676469337,752326592,base_link,0.02968001198271859,-0.09215421864461192,0.14555426735731325,-0.21213127672672272,-0.0439799353480339,0.038291085511446006
1676469337.7922137,2383,1676469337,782328896,base_link,0.0256545418636336,-0.0889317080661782,0.1400326968782329,-0.16798673570156097,-0.030844978988170624,-0.0066505828872323
1676469337.8274853,2384,1676469337,822328896,base_link,0.018585593442627404,-0.08733975960755616,0.12956017510305862,-0.153655007481575,-0.04153460264205932,0.04935790598392487
1676469337.8611171,2385,1676469337,852328896,base_link,0.010549905250378792,-0.0854898996186359,0.12212585223307548,-0.12322365492582321,-0.056861519813537605,-0.032189182937145226
1676469337.894188,2386,1676469337,882331456,base_link,0.007373640734899423,-0.07509679023745074,0.11562809205711325,-0.08025708794593811,-0.002173592802137135,0.012015252374112606
1676469337.9278865,2387,1676469337,922331456,base_link,0.0004964359120207185,-0.07999803032996343,0.112150120570564,-0.22263723611831665,0.00135134323500098,0.09707953035831451
1676469337.9596784,2388,1676469337,952331456,base_link,-0.00746741330561313,-0.07105419788580747,0.1059255907461239,-0.062333185225725174,0.018715761601924886,-0.07807441800832748
1676469337.9948452,2389,1676469337,982332736,base_link,-0.007344840818092896,-0.05730755007070289,0.10093131025797648,-0.11175135523080826,0.07271315902471542,0.029052216559648503
1676469338.0270376,2390,1676469338,22332736,base_link,-0.013497187152875675,-0.05971804371221726,0.09794346485009803,-0.15780331194400787,0.05535915866494179,0.016656156629323952
1676469338.0603712,2391,1676469338,52332736,base_link,-0.016034909427652184,-0.046681606364718575,0.09314108554857616,-0.04923010617494583,-0.01823915727436543,-0.033137813210487366
1676469338.0941381,2392,1676469338,82335552,base_link,-0.015980224793446178,-0.043331809278557,0.0893704025771061,-0.04799552634358406,0.011918935924768444,-0.03392774611711502
1676469338.1265783,2393,1676469338,122335552,base_link,-0.015077369605278477,-0.021132106727580518,0.0857919872551774,0.09262446314096451,0.05801755934953688,-0.08861977607011796
1676469338.158523,2394,1676469338,152335552,base_link,-0.015257583348538174,-0.01631355880752508,0.08347087263059604,-0.04616675525903702,0.0091569870710373,0.06316917389631271
1676469338.1944711,2395,1676469338,182337600,base_link,-0.02047124715435238,-0.014690158405684847,0.08232166800799799,0.0747641995549202,-0.012653028592467312,-0.028747577220201492
1676469338.2258666,2396,1676469338,222337600,base_link,-0.025118092847988605,0.0010162160132912584,0.07186115318211879,0.10156963020563126,0.006317551247775553,-0.012682742439210415
1676469338.2586982,2397,1676469338,247337600,base_link,-0.025310256231786753,0.007274267612650595,0.06752385871646754,-0.023916687816381454,-4.986347630619603e-05,0.0326695442199707
1676469338.2924838,2398,1676469338,287339904,base_link,-0.03735278428855579,0.011094786217682577,0.05903133793297768,-0.06893773376941681,0.007182847708463677,0.06501627713441849
1676469338.3275456,2399,1676469338,317339904,base_link,-0.0394139953045117,0.01790387576341474,0.053719964410651695,0.0547143891453743,-0.008511712774634365,-0.03366156294941902
1676469338.3616648,2400,1676469338,357339904,base_link,-0.040221135968437745,0.023199337954783104,0.04926481501361848,0.09484991431236267,0.06192688643932342,-0.03919148445129395
1676469338.3958557,2401,1676469338,387342208,base_link,-0.04096642514679509,0.03071091256495565,0.04442274293715625,0.0720968097448349,0.0364069938659668,0.02297130227088928
1676469338.4264796,2402,1676469338,417342208,base_link,-0.044490899265245895,0.028679809676706,0.0422170418472635,0.0027874342631548643,0.03215023875236511,0.025339385494589802
1676469338.4598305,2403,1676469338,457342208,base_link,-0.04644009119457839,0.0384482735844293,0.03620742915122386,0.1425716131925583,0.0044277152046561154,-0.06857519596815109
1676469338.4944375,2404,1676469338,487344768,base_link,-0.04608392233573433,0.038577682682066926,0.02934461551379595,0.04084724560379982,0.02169474586844444,-0.020240098237991336
1676469338.526363,2405,1676469338,517344768,base_link,-0.050253860293393814,0.034398619514557034,0.023333196306766807,0.011064962483942509,0.048647381365299225,0.008070742711424822
1676469338.5603023,2406,1676469338,557344768,base_link,-0.04811304986566058,0.04868505041743872,0.017423932442824006,0.06977682560682297,0.018460921943187714,0.004671608097851274
1676469338.5938387,2407,1676469338,587346816,base_link,-0.048743740985939754,0.04060666786357587,0.012067085807742463,0.08033304661512375,0.022126233205199235,-0.04636912792921066
1676469338.6261308,2408,1676469338,617346816,base_link,-0.05361670851751101,0.03821905904980247,0.008659667726603128,0.08587835729122162,-0.009040035307407374,0.042563412338495255
1676469338.6595237,2409,1676469338,656346816,base_link,-0.04950210222660683,0.04303139194792697,0.0033294606175954407,0.041932884603738785,0.0054159816354513125,-0.03304065763950348
1676469338.694458,2410,1676469338,687349120,base_link,-0.047844136315702016,0.0405238171736129,0.0037134554121036776,0.018798355013132095,0.05463113263249397,-0.00450315140187741
1676469338.7264977,2411,1676469338,716349120,base_link,-0.04860485960639211,0.04058730633812723,0.0034734975389588744,-0.03405405953526497,0.015065117739140993,0.03707423806190491
1676469338.759984,2412,1676469338,756349120,base_link,-0.04608806881134521,0.044241469030416807,5.094595912216445e-05,0.04756983369588852,0.005811410956084727,-0.008407710120081902
1676469338.7944074,2413,1676469338,786351424,base_link,-0.044102712232233054,0.03971935136763851,-8.354162246363503e-05,0.07807251811027527,-0.017313867807388306,0.0027608741074800513
1676469338.826824,2414,1676469338,816351424,base_link,-0.04174047057967127,0.03893708021812699,-0.0018737487944733117,0.052506573498249054,-0.027551809325814247,-0.014030396007001397
1676469338.8593667,2415,1676469338,856351424,base_link,-0.038115120995092275,0.03753932794236424,-0.009652481853400244,-0.020717691630125046,-0.04799453914165497,-0.003879957366734737
1676469338.8952415,2416,1676469338,886354240,base_link,-0.0357554619744729,0.033487492789001816,-0.01172747695875051,0.05273260921239853,0.01676994003355503,0.013073012232780455
1676469338.9261382,2417,1676469338,916354240,base_link,-0.03508056982965845,0.029985778377436312,-0.014008193979117315,-0.053661786019802094,-0.0671067088842392,0.04764953628182412
1676469338.9594018,2418,1676469338,956354240,base_link,-0.03357670134399425,0.037837668425987826,-0.019503868658415916,-0.029460178688168526,-0.055830683559179306,-0.0008534318185411325
1676469338.9930232,2419,1676469338,986356544,base_link,-0.031080503808084824,0.033748160347692145,-0.01983643392854712,-0.11029230803251266,-0.037689153105020516,0.05683289840817452
1676469339.027623,2420,1676469339,16356544,base_link,-0.03079192590672928,0.026067374308786948,-0.019620902397761195,0.002860737731680274,-0.03480138257145881,0.03393882885575295
1676469339.0607266,2421,1676469339,56356544,base_link,-0.03141247346599927,0.02998435325370999,-0.019870184167947714,0.018592705950140953,0.002979537472128871,0.0231274776160717
1676469339.0949852,2422,1676469339,86358848,base_link,-0.0294802851035958,0.029829644748245704,-0.018461118237217085,-0.023794328793883324,0.026218168437480923,-0.037177059799432755
1676469339.127447,2423,1676469339,116358848,base_link,-0.028520723869098902,0.025138923815250208,-0.017475947713236867,-0.04895415157079697,-0.043074298650026314,0.06819471716880798
1676469339.1605437,2424,1676469339,156358848,base_link,-0.03502058640976987,0.018562305339568742,-0.02050083275652624,-0.08045179396867752,-0.034249447286129,0.027470054104924205
1676469339.1931014,2425,1676469339,186361408,base_link,-0.03375715018208973,0.023036132430492847,-0.023099704361376153,-0.08750524371862411,-0.04408124834299087,0.04023511707782746
1676469339.2264805,2426,1676469339,216361408,base_link,-0.03066749245378147,0.022673759982510748,-0.02246987509640168,-0.05614191293716431,0.038931407034397125,-0.021050510928034786
1676469339.2603753,2427,1676469339,256361408,base_link,-0.03538347350904641,0.018943862234125627,-0.021008502826839724,-0.08639168739318848,-0.026911625638604157,0.0653359442949295
1676469339.2927046,2428,1676469339,286363712,base_link,-0.035405023585770974,0.01753974451655568,-0.02130768402272728,-0.010643276385962963,-0.029246341437101364,-0.012589839287102219
1676469339.3275208,2429,1676469339,316363712,base_link,-0.03463818814322768,0.01828871131888461,-0.022620530699907722,-0.006935451179742813,0.053901925683021545,-0.017881877720355994
1676469339.3589287,2430,1676469339,356363712,base_link,-0.032917877172924215,0.025307708219076644,-0.023779707386671674,-0.07437220215797424,-0.0031823036260902834,0.03973172605037689
1676469339.3926497,2431,1676469339,386366016,base_link,-0.03239945113890853,0.024125644202847754,-0.020380362448989577,-0.056075870990753174,0.02204773761332035,0.011741393245756623
1676469339.427614,2432,1676469339,416366016,base_link,-0.031667061113924644,0.02520850540250449,-0.01427376170487288,-0.026861410588026047,0.0028802535962313422,0.006422477308660746
1676469339.4609501,2433,1676469339,456366016,base_link,-0.03380116130021948,0.042967750366894555,-0.01546175491038287,0.06341404467821121,0.027441451326012615,0.027793597429990765
1676469339.4939587,2434,1676469339,486368576,base_link,-0.033197183356880995,0.0475394458119285,-0.019342463195701234,0.09216364473104477,0.04430176317691802,-0.07688981294631958
1676469339.526784,2435,1676469339,516368576,base_link,-0.03151310311257725,0.048438902160181214,-0.026691658829575016,0.005319678224623203,-0.0014642170863225941,0.09370633214712143
1676469339.5619788,2436,1676469339,556368576,base_link,-0.03370355205766967,0.044077922933229305,-0.04012726419460942,0.1004396378993988,0.026316957548260682,-0.06688117980957031
1676469339.5938988,2437,1676469339,586370624,base_link,-0.0336805307099004,0.05084609154374787,-0.04962294943576623,-0.0007469230331480503,0.015986714512109763,0.06580392271280289
1676469339.6276975,2438,1676469339,616370624,base_link,-0.033055092940042254,0.05644690481618534,-0.05478517835789244,0.07737976312637329,-0.000981469405815012,-0.05477254465222359
1676469339.6602545,2439,1676469339,656370624,base_link,-0.02340599115726551,0.06084106587775069,-0.04972155878093493,0.09310606867074966,0.02004255726933479,-0.014677061699330808
1676469339.6956615,2440,1676469339,686372672,base_link,-0.023398925520093435,0.06187900088939833,-0.04679626174745658,0.12723897397518158,-0.005439476110041145,-0.024837005883455276
1676469339.727538,2441,1676469339,716372672,base_link,-0.0240518876020986,0.062165192781391626,-0.040931644526286906,0.06685231626033783,-0.06410413235425949,0.011596668511629113
1676469339.7599506,2442,1676469339,756372672,base_link,-0.021523841135594572,0.05952188499812906,-0.027822338985326298,0.07506652921438217,-0.029824038967490196,0.010201241821050647
1676469339.7935052,2443,1676469339,786374976,base_link,-0.022034237507417728,0.05806961411201086,-0.021801828779526116,0.05498068034648895,-0.03007227927446365,0.02999828010797501
1676469339.8287342,2444,1676469339,825374976,base_link,-0.021600152988968724,0.06789913853666116,-0.022417321559693868,0.03132164105772972,-0.027261700481176373,0.029514929279685024
1676469339.8585267,2445,1676469339,856374976,base_link,-0.021058035625463253,0.06680145703065506,-0.023001092064878957,0.09222757816314697,-0.00014446419663727094,0.015578135848045349
1676469339.892623,2446,1676469339,885377280,base_link,-0.021396718567582393,0.06589427047988733,-0.022486047790070674,0.11039863526821136,-0.015184884890913963,0.0035912701860070246
1676469339.9287448,2447,1676469339,926377280,base_link,-0.024903763590834065,0.05327886901033453,-0.02561904314276287,0.13369141519069672,0.010192067362368102,-0.04516647011041641
1676469339.9592988,2448,1676469339,955377280,base_link,-0.024122375838253673,0.050056315406904014,-0.02999230647218387,0.024699173867702484,-0.034267012029886246,-0.0016569287981837947
1676469339.9929242,2449,1676469339,985379584,base_link,-0.02277206893171533,0.046394344574774045,-0.035106749427543806,0.05020471662282944,-0.0015691235894337396,-0.08165305107831955
1676469340.028151,2450,1676469340,25379584,base_link,-0.023432951024743662,0.04653357321024382,-0.041456196099574294,0.05107302963733673,0.008466010913252837,0.06023862957954407
1676469340.0624356,2451,1676469340,55379584,base_link,-0.022365553814248762,0.04248140699911567,-0.04336750531370752,0.08871698379516602,0.00802148599177598,-0.07130575180053711
1676469340.0954003,2452,1676469340,85381632,base_link,-0.02155974262514612,0.035691410159905915,-0.04156677162317601,0.07406295835971832,-0.049973282963037484,0.041048135608434684
1676469340.128526,2453,1676469340,125381632,base_link,-0.018202409115655696,0.030816761575296173,-0.030282124285986343,-0.026680804789066315,-0.004405178595334285,0.04653408005833626
1676469340.1614647,2454,1676469340,155381632,base_link,-0.017179073763296655,0.022427564370844786,-0.018123015493054506,-0.015719976276159286,0.021449774503707886,0.004941337276250121
1676469340.1941013,2455,1676469340,185383680,base_link,-0.01657828971191272,0.018002811062190354,-0.01028709026466458,0.008849607780575752,0.015682358294725418,0.007244026754051445
1676469340.2272527,2456,1676469340,215383680,base_link,-0.01557837225454195,0.01542671820453091,-0.008765282408230234,-0.06374876201152802,0.019939377903938293,0.013585297390818594
1676469340.2594807,2457,1676469340,255383680,base_link,-0.014232570096036708,-0.0013960490758941685,-0.006551273984893429,-0.021856246516108513,0.015756499022245407,0.013139511458575724
1676469340.2937465,2458,1676469340,285385728,base_link,-0.011572137484257342,-0.006860621326098228,-0.011018511035482882,-0.08307314664125443,-0.003862055018544195,0.018851647153496742
1676469340.327916,2459,1676469340,325385728,base_link,-0.014450387833877722,0.0017233781577036297,-0.019541494736060993,-0.1380361020565033,-0.023351544514298442,-0.023666912689805027
1676469340.3610346,2460,1676469340,355385728,base_link,-0.010218822434772755,0.0003420071099797384,-0.02562700902405681,-0.06046387925744057,-0.008064812980592249,0.011499657295644285
1676469340.3943453,2461,1676469340,385387776,base_link,-0.007299986154614753,-0.0032465256718262427,-0.02936208155020039,-0.1489381641149521,-0.018534515053033822,0.06147592514753342
1676469340.4278584,2462,1676469340,425387776,base_link,-0.010422621068816034,-0.011816901089055776,-0.030152352536941797,-0.0832817405462265,-0.013419885188341148,-0.0611567348241806
1676469340.461106,2463,1676469340,455387776,base_link,-0.00837087848343215,-0.011518578648693597,-0.02927960947128425,-0.1484464704990387,-0.02912285923957824,0.056451659649610526
1676469340.4937756,2464,1676469340,485390080,base_link,-0.007180571108919804,-0.011058577004685868,-0.02495615319056796,-0.09373894333839417,0.033981923013925545,-0.04250783845782281
1676469340.5278256,2465,1676469340,525390080,base_link,-0.010004126862863448,-0.011410437432520399,-0.02108156883866859,-0.05740239471197128,0.0164993405342102,-0.027155935764312748
1676469340.5620575,2466,1676469340,555390080,base_link,-0.0076916437601491985,-0.008733691196918565,-0.019993122882267327,-0.031420785933732986,0.0512433759868145,-0.0038272731471806825
1676469340.5941503,2467,1676469340,585391360,base_link,-0.006737353122196881,-0.005246859508441809,-0.016631855634627053,-0.059932127594947815,0.03164321929216385,-0.015651276335120205
1676469340.6257045,2468,1676469340,615391360,base_link,-0.0059971283062032225,-0.00248956124449315,-0.012906111642806488,-0.04292628541588783,-0.003086781594902282,-0.04095189645886421
1676469340.6585839,2469,1676469340,655391360,base_link,-0.0019629726434726015,-0.008838758218906903,-0.005781701472932957,0.06493715196847916,-0.012358604930341247,-0.024256229400634766
1676469340.6945198,2470,1676469340,685392384,base_link,-0.0017353746413814129,-0.006261963439735611,-0.007609793694387959,-0.022181207314133644,-0.010780903510749349,-0.07650438696146011
1676469340.726426,2471,1676469340,715392384,base_link,-0.0019919734682757304,-0.00465514456487408,-0.010627846877770226,0.056487325578927994,-0.02785171009600163,-0.01834170892834663
1676469340.7595441,2472,1676469340,755392384,base_link,-0.003076866455473352,-0.001110150940978944,-0.018696039136003425,-0.07746173441410065,-0.03005100786685943,0.05069608613848687
1676469340.7928216,2473,1676469340,785393408,base_link,-0.0018744993445826915,0.003444136629036445,-0.021109185355445193,0.0037560381460934877,-0.032632678747177124,-0.005697370041161771
1676469340.8277185,2474,1676469340,825393408,base_link,-8.212161642073514e-05,0.004886804946946062,-0.010288464725540738,0.006597612053155899,0.04621903970837593,0.012045387178659434
1676469340.8587391,2475,1676469340,854393408,base_link,-0.0012684885044947595,0.00738304448369986,-0.006488298618415146,-0.07876476645469666,0.0014391866279766042,0.06316212564706802
1676469340.8921332,2476,1676469340,884395200,base_link,-0.0029640101376802236,0.010326214365092606,-0.006943619485835381,0.12318187206983566,0.02617412433028221,0.005137277767062184
1676469340.9281278,2477,1676469340,925395200,base_link,0.0004899843912751809,0.026138292573015087,-0.006998384467394548,-0.06975270807743073,-0.05938876792788504,0.09215786308050157
1676469340.9622483,2478,1676469340,955395200,base_link,0.002040030864233119,0.02296106433310917,-0.0065967570610750035,0.07086089998483658,0.0042015654034912525,-0.047886922955513
1676469340.9940922,2479,1676469340,984397248,base_link,-0.0007656338856629009,0.021535873692450858,-0.0025198756529347345,0.11075328290462494,0.04469988122582436,0.040020093321800225
1676469341.0278132,2480,1676469341,24397248,base_link,-0.0014110772037920407,0.03585606361320594,-0.002155189331176001,0.019019851461052895,0.011849972419440752,0.04108528047800064
1676469341.060451,2481,1676469341,54397248,base_link,0.002151202543865151,0.03586204348645803,-0.0025672104070996495,0.10123836994171143,0.03480923548340796,-0.09212004393339157
1676469341.0926394,2482,1676469341,84399296,base_link,0.0026822579292175284,0.031196977978633987,-0.0034028043406075337,0.029365401715040207,0.015968116000294692,0.04699140787124634
1676469341.1262271,2483,1676469341,114399296,base_link,0.0004494483533260635,0.02670423167910804,-0.008236152253779598,0.16947978734970093,-0.0035716597922146433,-0.09325574338436127
1676469341.1588612,2484,1676469341,154399296,base_link,-0.004755434707592789,0.01883015550087732,-0.018264958206479765,0.008042597211897373,-0.027078725397586816,0.0507410503923893
1676469341.1933432,2485,1676469341,184400832,base_link,-0.004410491083123092,0.020662617683905503,-0.019624916356532882,-0.004087712615728378,0.0037114564329385775,0.01573868654668331
1676469341.226506,2486,1676469341,214400832,base_link,-0.002722829237790425,0.020792212688389742,-0.01744386147953894,-0.06306304782629013,0.041905440390110016,0.014106597751379008
1676469341.2586107,2487,1676469341,254400832,base_link,0.0014424472097722088,0.012949511506921583,-0.008552407773761699,0.0533277653157711,0.059139613062143326,0.008578944951295846
1676469341.292604,2488,1676469341,284403136,base_link,0.0022210297701138436,0.01080949491998414,-0.0028404487486174946,-0.045032694935798645,0.05526215210556984,-0.022523628547787673
1676469341.327612,2489,1676469341,324403136,base_link,0.00045579436629269494,0.0016680477879070696,0.0007642376017683209,0.023593340069055557,0.028407599776983258,-0.027835033833980564
1676469341.3615477,2490,1676469341,354403136,base_link,0.0032736516253293727,0.0023285247357658525,4.148476522076438e-05,-0.005696333944797516,0.04714375734329223,-0.055467206984758384
1676469341.394307,2491,1676469341,384405440,base_link,0.0037988934239323586,0.0024840727419907067,-0.002713264038108518,-0.056657932698726654,0.021055802702903744,-0.015254037454724314
1676469341.4272447,2492,1676469341,424405440,base_link,0.012180340596419866,0.001562824479678113,-0.0020360372059440787,-0.05586527660489082,-0.03127025067806243,0.04729051142930985
1676469341.4611962,2493,1676469341,454405440,base_link,0.013246537075380631,-0.0021127267813676747,-0.0023830782554519715,0.0035823581274598837,-0.026350053027272228,-0.021417438983917233
1676469341.4934726,2494,1676469341,484407488,base_link,0.012850227139711512,-0.006765593845484097,-0.0006402185303692129,-0.05548008531332016,-0.06949201226234436,-0.012982742860913268
1676469341.5266035,2495,1676469341,514407488,base_link,0.010604524884475944,-0.00883610212753674,0.0006849984561762863,0.01218461710959673,-0.034603599458932884,-0.05630986019968986
1676469341.5588295,2496,1676469341,554407488,base_link,0.014011213238382333,0.0035832845298354172,-0.001612764572530277,-0.09762756526470184,-0.04934011772274971,-0.010841894894838328
1676469341.5927293,2497,1676469341,584409792,base_link,0.016259188292832686,-0.0007258558065024112,-0.0013834672940707814,-0.009403510950505733,-0.03386378288269044,-0.06566383689641953
1676469341.627704,2498,1676469341,624409792,base_link,0.010308485962675046,0.002625275925603314,0.0010636937340017276,0.031162552535533905,-0.005272090435028077,-0.008267831057310104
1676469341.6622448,2499,1676469341,654409792,base_link,0.011519457403404243,0.005936402207717326,0.0021010366496188294,-0.0296982042491436,-0.015989314764738086,-0.018247164785861966
1676469341.6950314,2500,1676469341,684412096,base_link,0.013386584381377938,0.005863914305354979,-0.001116089603165966,-0.060816891491413116,-0.01628127135336398,0.09303534030914307
1676469341.727142,2501,1676469341,724412096,base_link,0.00830268366904472,-0.0022229586243848205,-0.0021700278828003542,0.06847890466451645,0.00632210541516542,-0.03800586238503456
1676469341.7614012,2502,1676469341,754412096,base_link,0.007111812028165459,-2.6124638768788816e-06,-0.004073001332294109,-0.01936706341803074,-0.0015349815366789718,-0.015774060040712357
1676469341.7920668,2503,1676469341,784414656,base_link,0.008958070419530211,0.0016049931911516404,-0.002688343012082648,0.0029296099673956633,0.001604228862561288,0.02052176743745804
1676469341.8281016,2504,1676469341,824414656,base_link,0.00888153947017217,-0.001216292118905712,-0.0011993598306404838,-0.0262465663254261,0.03218093514442444,0.007469473406672473
1676469341.8619254,2505,1676469341,854414656,base_link,0.00616838274564546,-0.004778209114263409,0.0032755551010586865,-0.026335157454013824,-0.0050424784421920785,-0.004272134043276309
1676469341.895323,2506,1676469341,884416960,base_link,0.0038865222621565876,-0.00432735448194557,0.007892085405821642,0.056314680725336075,0.02261432446539402,0.010327720083296296
1676469341.926997,2507,1676469341,924416960,base_link,0.010377146821024325,0.002594006943590638,0.007099198152908209,-0.12299464643001556,-0.02536074258387088,0.04958139732480049
1676469341.960783,2508,1676469341,954416960,base_link,0.00890989554043027,-0.0029434539413356444,0.008535445209836488,-0.0486498661339283,0.011182205751538282,0.04392561316490173
1676469341.9932027,2509,1676469341,984419264,base_link,0.004362279134301801,-0.00427668980271037,0.008694306993926173,0.041844259947538376,-0.004970390349626541,-0.00034227181458845675
1676469342.0268147,2510,1676469342,24419264,base_link,0.009280577516253758,0.000637912878398084,0.0072281931792171975,-0.006225785706192255,0.014829901978373526,-0.016863159835338596
1676469342.0599627,2511,1676469342,54419264,base_link,0.008890755994486941,-0.003104624537203729,0.009517292950192104,0.012280862778425217,0.027563350275158882,0.002757559064775702
1676469342.092802,2512,1676469342,83421568,base_link,0.006878255674957506,-0.0003616930883771232,0.012804111250418021,-0.013904283754527569,0.0321798101067543,-0.007146092131733899
1676469342.1264129,2513,1676469342,123421568,base_link,0.006921780094882485,0.00598223238529144,0.01566250861140468,0.017684783786535263,-0.013661859557032585,-0.0006295292987488194
1676469342.158832,2514,1676469342,154421568,base_link,0.00520220008819528,0.005820791449986551,0.01650963848191991,0.022617828100919724,0.0016303969314321843,-0.026720164343714714
1676469342.1918943,2515,1676469342,183423872,base_link,0.005841122808768465,0.011496780058122495,0.015023694046231498,0.07855731248855591,0.036344584077596664,0.020193487405776974
1676469342.2275696,2516,1676469342,223423872,base_link,0.005059888399129911,0.0002671787853732778,0.012054863609315358,0.05950060486793518,0.029751226305961602,-0.06975063681602478
1676469342.2593677,2517,1676469342,253423872,base_link,0.0027133440478061092,0.004518733182844598,0.00818778492829445,0.009641425684094429,-0.012247004546225062,0.0682976245880127
1676469342.2915864,2518,1676469342,283426176,base_link,0.006655940214431836,0.010803120862778019,0.005042026660940769,-0.007565176580101252,0.01450963877141476,0.024585841223597523
1676469342.3275461,2519,1676469342,323426176,base_link,0.007972752506047573,0.004154650251002667,0.008692873285134729,0.06586141139268875,0.062344226986169815,-0.023485800251364715
1676469342.358444,2520,1676469342,353426176,base_link,0.007536060107512722,0.008583616806275509,0.008618271754373553,-0.04211030155420303,-0.025669135153293603,0.04422837868332863
1676469342.392683,2521,1676469342,383428736,base_link,0.009756317460919546,0.01063599729058527,0.007313381925182373,0.06668126583099365,-0.012232780456542976,-0.05795393884181976
1676469342.4264114,2522,1676469342,423428736,base_link,0.013254372954039409,0.0042004821184255395,0.011526401472256354,-0.009888594970107079,-0.009924846701323983,0.023648463189601898
1676469342.4587343,2523,1676469342,453428736,base_link,0.015167262039023214,0.0077012189315618295,0.007919156550783468,-0.020366191864013672,-0.008571762591600415,0.02634109929203987
1676469342.4932365,2524,1676469342,483431040,base_link,0.017566586136920276,0.007158458512793158,0.005247314516478213,0.041821207851171494,-0.022419434040784843,-0.06430093944072723
1676469342.5275788,2525,1676469342,523431040,base_link,0.0067225656574943895,0.010807700621993412,0.0023959402553236308,0.011431016027927399,-0.023914445191621777,0.03922993317246437
1676469342.5598319,2526,1676469342,553431040,base_link,-0.005038573133028941,0.014435018683967788,0.009517051841260933,-0.12871341407299042,-0.41117045283317566,0.055185668170452166
1676469342.5929327,2527,1676469342,583433344,base_link,0.021282603646165462,0.013379714295814034,0.05045536780987187,-0.11783625185489655,-0.09480961412191391,0.03549959883093835
1676469342.626236,2528,1676469342,623433344,base_link,0.1353081625445425,0.013535832691992185,0.11006102316438408,-0.048810768872499466,2.6579294204711914,0.12425598502159087
1676469342.6586637,2529,1676469342,653433344,base_link,0.20276308610079813,0.03681000942398375,0.12457819635472063,-0.7451749444007874,4.990333080291748,0.09047302603721558
1676469342.692307,2530,1676469342,683435648,base_link,0.2875827679315072,0.08918183780751023,0.20039662138468287,-1.5964436531066895,5.2280778884887695,0.20636343955993589
1676469342.7287586,2531,1676469342,723435648,base_link,0.37774917137927816,0.14097348195744422,0.4611070432886361,-3.5396411418914795,3.9476773738861084,0.25466209650039623
1676469342.7613513,2532,1676469342,753435648,base_link,0.4597378539565274,0.1308001800903769,0.8024149082593991,-4.245514392852783,2.8714990615844727,0.528520047664642
1676469342.7940114,2533,1676469342,783437696,base_link,0.5992718342232581,0.13484390830687937,1.131852946794612,-3.9554080963134766,2.7718660831451416,0.5194801688194272
1676469342.8268754,2534,1676469342,823437696,base_link,0.7076444288021881,0.05153504091743155,1.6040052072442486,-2.795147657394409,1.7710700035095215,0.39634373784065224
1676469342.8596694,2535,1676469342,853437696,base_link,0.8213338481369539,-0.004655362689135715,1.9420621362355226,-0.8405118584632874,0.1587654650211335,0.6988019943237305
1676469342.8938875,2536,1676469342,883439488,base_link,1.0125537569824825,0.05674782131748436,2.2789831127015368,-0.06349097192287445,-0.614313781261444,0.8176317214965821
1676469342.9264953,2537,1676469342,923439488,base_link,1.368758576234881,0.16520458948871414,2.7468175993599857,-0.16129791736602783,-0.7452723383903503,0.44798579812049877
1676469342.95953,2538,1676469342,953439488,base_link,1.6375190645155997,0.21058146631577726,3.03339388246134,-0.20674069225788116,-0.4551385045051574,0.2513659596443177
1676469342.9933925,2539,1676469342,983441792,base_link,1.8490006478098695,0.2848032091878896,3.269760729390655,0.4755815863609314,-0.7273576855659485,0.07940826565027245
1676469343.0262604,2540,1676469343,23441792,base_link,2.2205508953926083,0.5203989500824326,3.4512181178325836,2.041853427886963,-1.8183956146240234,-0.029269631952047126
1676469343.0589812,2541,1676469343,53441792,base_link,2.677999870382981,0.9200132210757909,3.336055128700958,3.2242538928985596,-3.0560691356658936,-0.22010131180286371
1676469343.0922706,2542,1676469343,83444096,base_link,3.0123145945352965,1.1977750687444184,3.2254404973768183,3.6148035526275635,-3.7316598892211914,-0.29889962077140764
1676469343.1276896,2543,1676469343,123444096,base_link,3.57880858922929,1.7316489642210227,2.502564506672732,3.6986446380615234,-5.046170234680176,-0.5867058038711541
1676469343.1614027,2544,1676469343,153444096,base_link,3.9931705519983214,2.1072969272496858,1.3374335946718452,3.213376522064209,-7.094109058380127,-0.6022287607192984
1676469343.195235,2545,1676469343,183446400,base_link,4.062287111136044,2.214156248633415,0.6330078172865502,2.3638458251953125,-8.177066802978516,-0.6120460629463186
1676469343.2269328,2546,1676469343,223446400,base_link,3.8947445246262555,2.206513469062572,-0.8494595067936271,1.9021530151367188,-8.300567626953125,-0.3338110148906698
1676469343.2605557,2547,1676469343,252446400,base_link,3.3285833371505418,1.9916604987488282,-2.01961599099204,3.1652815341949463,-6.329430103302002,-0.14482587575912398
1676469343.2925162,2548,1676469343,283448704,base_link,2.879471959258633,1.725112059355049,-2.409473771162218,3.7819201946258545,-5.531670570373535,-0.12583041191101008
1676469343.325881,2549,1676469343,322448704,base_link,2.120764315818194,1.0631367314333295,-2.987490217633332,4.763742923736572,-3.574045181274414,-0.1731849908828731
1676469343.3586383,2550,1676469343,352448704,base_link,1.6129150266475565,0.41493592393669315,-3.106057162441355,3.523622751235962,-1.4854183197021484,-0.06772647798061353
1676469343.3919969,2551,1676469343,382450752,base_link,1.3373769711306727,0.09363685601252969,-2.914887958098551,2.6029038429260254,-0.5304490923881531,0.028603691607713765
1676469343.4252312,2552,1676469343,422450752,base_link,1.105338450606541,-0.33372612268851165,-2.498450971052468,1.3906426429748535,1.2218934297561646,-0.2209609150886537
1676469343.4607544,2553,1676469343,452450752,base_link,1.0818894860803008,-0.5736582396055211,-2.0255334174757316,0.6661944389343262,2.1411499977111816,-0.45811781287193326
1676469343.4948168,2554,1676469343,482453056,base_link,0.9344048911585761,-0.7473634305703915,-1.6166796685028855,0.5812381505966187,2.1040146350860596,-0.5468113422393801
1676469343.5274887,2555,1676469343,522453056,base_link,0.8425395000585233,-0.977188978869412,-1.02703622001889,0.3301960825920105,2.3132450580596924,-0.9030868411064151
1676469343.559577,2556,1676469343,552453056,base_link,0.7646226426849283,-1.1239803885462953,-0.5662144864031984,-0.010314208455383778,2.332796812057495,-1.1276516914367678
1676469343.5943658,2557,1676469343,582455104,base_link,0.6483540829913732,-1.2920592137147089,-0.137701670389669,-0.09150894731283188,2.336275100708008,-1.1704123020172121
1676469343.6265976,2558,1676469343,622455104,base_link,0.4883006147449437,-1.5261066879154561,0.41147604743935484,0.13301591575145721,1.9691202640533445,-1.2031198740005495
1676469343.6585186,2559,1676469343,652455104,base_link,0.387391965074346,-1.6726672035695298,0.6929930477425056,-0.7066841721534729,2.1032915115356445,-1.1983976364135744
1676469343.6917636,2560,1676469343,682457152,base_link,0.27810393042328063,-1.8175224354002777,0.8051748968454888,-1.838028907775879,2.4039337635040283,-1.119526267051697
1676469343.727843,2561,1676469343,717457152,base_link,0.15514923289812238,-2.0323538793756426,0.6649264315823931,-4.734807968139648,2.021665334701538,-1.304277539253235
1676469343.7615356,2562,1676469343,757457152,base_link,0.07494829994987358,-2.278616887999618,0.3321332629316995,-6.097341537475586,0.9489498138427733,-1.157214164733887
1676469343.7951274,2563,1676469343,787459456,base_link,0.0011660356399540847,-2.365585118902047,0.16948419313480298,-6.250049114227295,0.5213640332221984,-0.9839143753051759
1676469343.826926,2564,1676469343,817459456,base_link,-0.03267907419976364,-2.372363363448589,-0.2751701565688059,-6.886301517486572,-0.8781353235244752,-0.8015050888061522
1676469343.860877,2565,1676469343,857459456,base_link,-0.14276293093594858,-2.191421429943622,-0.6479776565391745,-6.394235134124756,-1.0841177701950073,-0.44638794660568226
1676469343.8938105,2566,1676469343,887461504,base_link,-0.2641739183629583,-2.0471117140094734,-0.5693739582863641,-6.198005676269531,-1.0704182386398315,-0.3907713294029235
1676469343.9267168,2567,1676469343,917461504,base_link,-0.3983934681656773,-1.7249164418317011,-0.7425313101538312,-5.867528438568115,-0.9293726086616516,-0.1875990033149718
1676469343.960875,2568,1676469343,957461504,base_link,-0.5921583160821766,-1.3606738888346948,-0.5542070411753098,-5.666931629180908,-0.6748669147491455,-0.15291939675807945
1676469343.9943976,2569,1676469343,987463808,base_link,-0.7527809471375907,-1.104721090535261,-0.33119051594684273,-5.335089683532715,-0.5396482944488525,-0.2009462267160415
1676469344.027948,2570,1676469344,17463808,base_link,-0.9160786089139409,-0.8678361119320892,-0.19071296553080236,-3.7468514442443848,-1.1912823915481567,-0.10936266183853134
1676469344.0585601,2571,1676469344,47463808,base_link,-1.0642529274305756,-0.6996638109704442,0.04639835065358151,-0.9846937656402588,-0.6573479771614075,-0.2291356772184371
1676469344.0941403,2572,1676469344,87465600,base_link,-1.2672389570586469,-0.4764415547697749,0.46053024784390134,0.41274285316467285,-0.35821101069450384,-0.2910717129707336
1676469344.12693,2573,1676469344,117465600,base_link,-1.4251605262869032,-0.2877114222716147,0.8373127964171191,1.6477487087249756,-0.31820142269134527,-0.24896541237831113
1676469344.16106,2574,1676469344,157465600,base_link,-1.6388418484095877,0.007724427817973164,1.3537140004974566,2.5443994998931885,-0.14514428377151492,-0.16917324066162107
1676469344.1944435,2575,1676469344,187467648,base_link,-1.8036888859347577,0.23604277963312395,1.7626566783016406,2.443821430206299,-0.16758149862289434,-0.3444358706474304
1676469344.2259357,2576,1676469344,217467648,base_link,-1.9600690809807872,0.5740723259117759,2.121591533597933,2.329324245452881,-0.019097886979579967,-0.3352293372154236
1676469344.258953,2577,1676469344,247467648,base_link,-2.1438401307406325,0.8771045647595559,2.355502879601198,2.7857158184051514,0.7726410031318665,-0.2503691911697389
1676469344.2926311,2578,1676469344,287469696,base_link,-2.4027919245973757,1.2099462563574517,2.5494789918189507,3.235652208328247,1.4981387853622437,-0.36470347642898576
1676469344.3260956,2579,1676469344,317469696,base_link,-2.72572818254235,1.611572481430596,2.341996341609546,4.508524417877197,2.4722511768341064,-0.1881498545408252
1676469344.3604069,2580,1676469344,357469696,base_link,-3.122110493143211,2.0900618248986444,1.7559930727319373,5.790677070617676,3.780869722366333,-0.15159086883068132
1676469344.392867,2581,1676469344,387471744,base_link,-3.29273644329193,2.2959327256460473,1.2638470672434028,6.1982574462890625,4.673283100128174,-0.09436248242855129
1676469344.426202,2582,1676469344,417471744,base_link,-3.428075894309295,2.4228878430344163,0.003401803676110068,5.672021865844727,6.389479637145996,-0.2837927937507637
1676469344.4590304,2583,1676469344,457471744,base_link,-3.188902518820579,2.2685120986367866,-1.1339350854613974,3.861985206604004,7.656855583190918,-0.3234784305095682
1676469344.491575,2584,1676469344,487473792,base_link,-2.79120618124787,2.0182038122855466,-1.8772985880015398,3.533698797225952,7.667849063873291,-0.3295451998710642
1676469344.5256286,2585,1676469344,516473792,base_link,-2.12387764263758,1.6110030349122082,-2.6369957082062307,3.2027831077575684,6.2487335205078125,-0.7989145517349251
1676469344.559502,2586,1676469344,556473792,base_link,-1.4665903578856456,1.0564395096852055,-2.9734194182634153,2.8609819412231445,2.66538667678833,-1.2304348945617678
1676469344.592488,2587,1676469344,586475840,base_link,-1.1366522872760636,0.7516581736029045,-2.893004245013238,2.108633279800415,1.5022265911102293,-1.2267526388168337
1676469344.6265686,2588,1676469344,616475840,base_link,-0.8460891273520698,0.5101716709475907,-2.6933292735426453,0.3105885088443756,0.2756741940975188,-1.1157416105270386
1676469344.659139,2589,1676469344,656475840,base_link,-0.6145443601028707,0.4162498930216214,-2.282803377378976,-0.8557877540588379,-1.1861230134963991,-0.9609989523887633
1676469344.6916842,2590,1676469344,686477632,base_link,-0.5017480391297795,0.41046861200317275,-1.934357645093516,-1.3920118808746338,-2.154919147491455,-0.8001751899719236
1676469344.7279024,2591,1676469344,716477632,base_link,-0.4417046614873776,0.4336823832393432,-1.492019558206223,-1.6538127660751343,-2.2487850189208984,-0.047637473791837415
1676469344.7589028,2592,1676469344,756477632,base_link,-0.30441784949934025,0.40966242165917194,-0.9709781132698522,-0.9884872436523438,-2.6507625579833984,0.3997857272624973
1676469344.7926164,2593,1676469344,786479424,base_link,-0.21765380040767643,0.40409915225698356,-0.6582648805623358,-1.2451213598251343,-3.0661661624908447,0.6729923486709598
1676469344.8280141,2594,1676469344,816479424,base_link,-0.15756787267233224,0.4257323828286155,-0.37035220031952537,-2.370485305786133,-4.3475117683410645,0.7576477527618414
1676469344.8608994,2595,1676469344,856479424,base_link,-0.05096663217041352,0.4316634009555349,0.0017645337162991237,-3.2600111961364746,-4.460180282592773,0.9080947041511541
1676469344.894149,2596,1676469344,886481472,base_link,0.03323086354029301,0.4044550317633694,0.22655037206302467,-3.2579281330108643,-4.331140041351318,0.8629742264747625
1676469344.9270127,2597,1676469344,916481472,base_link,0.11314728680685487,0.3395523295077861,0.3918319905959602,-1.6997184753417969,-5.256637096405029,0.6327137351036078
1676469344.959783,2598,1676469344,956481472,base_link,0.18895137522878316,0.28871762943878837,0.35271387780634317,0.5962361097335815,-6.078050136566162,0.43881270289421154
1676469344.992825,2599,1676469344,986483520,base_link,0.2155373671650301,0.2919991138219082,0.2895762226728438,1.087568759918213,-5.402052402496338,0.4169257879257209
1676469345.0261905,2600,1676469345,16483520,base_link,0.24098505216036303,0.31203391279685705,0.26623454106230776,1.056556224822998,-2.3935601711273193,0.057205505669117265
1676469345.058888,2601,1676469345,56483520,base_link,0.1735098915645684,0.3059498985927124,0.29058782995619753,1.020256757736206,-0.07953388243913649,0.11117117851972581
1676469345.091618,2602,1676469345,86485568,base_link,0.06139174655174849,0.2911116181224457,0.2275569377803297,0.8182024955749512,-0.010165612213313555,0.20068299770355225
1676469345.1276891,2603,1676469345,116485568,base_link,-0.03460452240409166,0.2749124021682879,0.12407843870287183,0.633553147315979,-0.18629521131515503,0.011515455320477508
1676469345.1619585,2604,1676469345,156485568,base_link,-0.17466134975229353,0.23969052339280053,0.001957075919789704,0.19332991540431976,-0.21334826946258545,0.08171425014734271
1676469345.19452,2605,1676469345,186487616,base_link,-0.26598779023813984,0.2113116340608955,-0.05814193464778649,-0.08471449464559555,-0.06754298508167265,0.13133485615253448
1676469345.2274964,2606,1676469345,216487616,base_link,-0.3789398737029245,0.1757055409096182,-0.07070714801173424,-0.21018043160438538,-0.17392535507678986,0.07968789339065555
1676469345.2610517,2607,1676469345,256487616,base_link,-0.5057571664597416,0.13258066927288847,-0.013970260623635818,-0.24139046669006348,-0.16637390851974487,0.044474612921476385
1676469345.2935956,2608,1676469345,286489664,base_link,-0.6034640141921688,0.10035047789673034,0.06951483450369374,-0.43520569801330566,-0.1171044185757637,0.05620942264795305
1676469345.3256555,2609,1676469345,316489664,base_link,-0.7068468557551052,0.058145692093950346,0.17614277054820715,-0.39940643310546875,-0.029469449073076238,0.09709514677524567
1676469345.359609,2610,1676469345,356489664,base_link,-0.8414277542258233,0.014726691350997807,0.32020217370232584,-0.4720306396484375,0.01492977328598499,-0.029668822884559635
1676469345.3930156,2611,1676469345,386491712,base_link,-0.9354655823893997,-0.00010207820808268923,0.4179817279069681,-0.41797786951065063,0.14852930605411532,0.14258839190006253
1676469345.4263196,2612,1676469345,416491712,base_link,-1.011441715665686,-0.029007777721067367,0.4729632165840651,-0.4818514287471771,1.2210458517074585,0.17983165383338914
1676469345.4587603,2613,1676469345,456491712,base_link,-1.1308607392788064,-0.05710966578481057,0.47623716644364933,-0.3956961929798126,2.0954554080963135,0.1767695695161817
1676469345.4914742,2614,1676469345,486493760,base_link,-1.2169268576995216,-0.06985961952986863,0.4362960474364361,-0.3277817964553833,2.3004238605499268,0.11390047520399066
1676469345.5275376,2615,1676469345,516493760,base_link,-1.2952701025379283,-0.07288038814465089,0.33517713251745335,-0.3853345513343811,2.543494939804077,0.11082382500171631
1676469345.5617015,2616,1676469345,556493760,base_link,-1.3494924815184002,-0.04994407796134375,0.17846999715205725,-0.28755173087120056,2.5085766315460205,0.11961233615875214
1676469345.5951233,2617,1676469345,586495808,base_link,-1.3593771164158763,-0.04283211312133017,0.1005256337905823,-0.3601835072040558,2.4498825073242188,0.22766654193401306
1676469345.6261313,2618,1676469345,616495808,base_link,-1.3521482499959985,-0.03292233492611322,-0.019256306995892102,-0.16121535003185272,2.2480075359344482,0.2554685175418851
1676469345.6614084,2619,1676469345,656495808,base_link,-1.3083809790666632,-0.020388805597293586,-0.12799978161138692,-0.036897290498018265,1.9681974649429321,0.11729365587234473
1676469345.6949527,2620,1676469345,685497856,base_link,-1.247753984120075,-0.0038658964117588178,-0.17895300348519766,0.010768757201731205,1.8170312643051147,0.17846909165382363
1676469345.7266057,2621,1676469345,715497856,base_link,-1.1696088691184932,0.014701481544734836,-0.2482154611130113,0.03448888659477234,1.5472354888916016,0.09072065353393535
1676469345.7589211,2622,1676469345,756497856,base_link,-1.0743087373583649,0.029322845458615843,-0.28653420686708486,0.06592273712158203,1.1626427173614502,0.05510047450661645
1676469345.7926288,2623,1676469345,786499904,base_link,-0.9838394659879582,0.0394573500167399,-0.2970060012047475,0.1932220160961151,0.9205383062362671,0.07660289108753193
1676469345.826631,2624,1676469345,815499904,base_link,-0.8845167588529587,0.05119791378832503,-0.2995439467393089,0.2346213310956955,0.5211517810821533,0.08460772782564156
1676469345.8588557,2625,1676469345,856499904,base_link,-0.769863932385804,0.06250228502820766,-0.2784068177891173,0.2198738306760788,0.16997471451759338,0.06306611746549605
1676469345.8947775,2626,1676469345,885501952,base_link,-0.6788550335252129,0.06902138522970977,-0.2500842420968506,0.2790333330631256,0.024264913052320484,0.014409257099032399
1676469345.9268625,2627,1676469345,915501952,base_link,-0.5931556550880716,0.07432708288828432,-0.21771219231826885,0.3836144506931305,-0.2793276011943817,-0.0022464680951088324
