Time,header.seq,header.stamp.secs,header.stamp.nsecs,header.frame_id,x,y,z,r,buttons
1676469335.1242537,879,1676469335,23333356,,0.0,0.0,0.0,0.0,12288
1676469335.2213311,880,1676469335,220718660,,0.0,0.0,0.0,0.0,12288
1676469335.4229915,881,1676469335,422583822,,0.0,0.0,0.0,0.0,12288
1676469335.624305,882,1676469335,623450332,,0.0,0.0,0.0,0.0,12288
1676469335.8231514,883,1676469335,822625775,,0.0,0.0,0.0,0.0,12288
1676469336.0256395,884,1676469336,23474786,,0.0,0.0,0.0,0.0,12288
1676469336.2232738,885,1676469336,222609030,,0.0,0.0,0.0,0.0,12288
1676469336.4232085,886,1676469336,422594872,,0.0,0.0,0.0,0.0,12288
1676469336.6227052,887,1676469336,621627266,,0.0,0.0,0.0,0.0,12288
1676469336.8234754,888,1676469336,822563594,,0.0,0.0,0.0,0.0,12288
1676469337.0257738,889,1676469337,24369112,,0.0,0.0,0.0,0.0,12288
1676469337.2227569,890,1676469337,221490039,,0.0,0.0,0.0,0.0,12288
1676469337.4231524,891,1676469337,422651460,,0.0,0.0,0.0,0.0,12288
1676469337.6232426,892,1676469337,622616732,,0.0,0.0,0.0,0.0,12288
1676469337.8247855,893,1676469337,823666654,,0.0,0.0,0.08699999749660492,0.0,12288
1676469338.0233934,894,1676469338,22775940,,0.0,0.0,0.0949999988079071,0.0,12288
1676469338.2226226,895,1676469338,221476050,,0.0,0.0,0.09399999678134918,0.0,12288
1676469338.422633,896,1676469338,421826302,,0.0,0.0,0.09399999678134918,0.0,12288
1676469338.7150562,897,1676469338,713627581,,0.0,0.0,0.09399999678134918,0.0,12288
1676469338.8456402,898,1676469338,845118182,,0.0,0.0,0.09399999678134918,0.0,12288
1676469339.0255,899,1676469339,23541935,,0.0,0.0,0.09399999678134918,0.0,12288
1676469339.222576,900,1676469339,221490690,,0.0,0.0,0.09399999678134918,0.0,12288
1676469339.424772,901,1676469339,423525086,,0.0,0.0,0.09399999678134918,0.0,12288
1676469339.6245646,902,1676469339,622683323,,0.0,0.0,0.09399999678134918,0.0,12288
1676469339.8213806,903,1676469339,820667947,,0.0,0.0,0.09399999678134918,0.0,12288
1676469340.0218775,904,1676469340,20820539,,0.0,0.0,0.09399999678134918,0.0,12288
1676469340.2236006,905,1676469340,222500110,,0.0,0.0,0.09399999678134918,0.0,12288
1676469340.4252377,906,1676469340,423738948,,0.0,0.0,0.09399999678134918,0.0,12288
1676469340.6216698,907,1676469340,621112770,,0.0,0.0,0.09399999678134918,0.0,12288
1676469340.8221486,908,1676469340,821116868,,0.0,0.0,0.09399999678134918,0.0,12288
1676469341.0235658,909,1676469341,22736700,,0.0,0.0,0.09399999678134918,0.0,12288
1676469341.2223008,910,1676469341,221686446,,0.0,0.0,0.09399999678134918,0.0,12288
1676469341.4233215,911,1676469341,422804715,,0.0,0.0,0.09399999678134918,0.0,12288
1676469341.6212752,912,1676469341,620886085,,0.0,0.0,0.09399999678134918,0.0,12288
1676469341.8262136,913,1676469341,823916251,,0.0,0.0,0.09399999678134918,0.0,12288
1676469342.0238066,914,1676469342,22540743,,0.0,0.0,0.09399999678134918,0.0,12288
1676469342.2216291,915,1676469342,220988796,,0.0,0.0,0.09399999678134918,0.0,12288
1676469342.4225137,916,1676469342,421851924,,0.0,0.0,0.09399999678134918,0.0,12288
1676469342.622787,917,1676469342,621882861,,0.0,0.0,0.09399999678134918,0.0,12288
1676469342.8233323,918,1676469342,822758969,,0.0,0.0,0.09399999678134918,0.0,12288
1676469343.023098,919,1676469343,22037677,,0.0,0.0,0.09399999678134918,0.0,12288
1676469343.2234554,920,1676469343,222844827,,0.0,0.0,0.09399999678134918,0.0,12288
1676469343.5231714,921,1676469343,522655602,,0.0,0.0,0.09399999678134918,0.0,12288
1676469343.8301048,922,1676469343,829658044,,0.0,0.0,0.09399999678134918,0.0,12288
1676469344.135645,923,1676469344,134903738,,0.0,0.0,0.09399999678134918,0.0,12288
1676469344.335904,924,1676469344,334964088,,0.0,0.0,0.09399999678134918,0.0,12288
1676469344.601772,925,1676469344,601218728,,0.0,0.0,0.09399999678134918,0.0,12288
1676469344.8065407,926,1676469344,806011895,,0.0,0.0,0.09399999678134918,0.0,12288
1676469344.935205,927,1676469344,934565461,,0.0,0.0,0.09399999678134918,0.0,12288
1676469345.1361704,928,1676469345,135773017,,0.0,0.0,0.09399999678134918,0.0,12288
1676469345.4314227,929,1676469345,430765837,,0.0,0.0,0.09399999678134918,0.0,12288
1676469345.5361369,930,1676469345,535607635,,0.0,0.0,0.09399999678134918,0.0,12288
1676469345.8180892,931,1676469345,817607670,,0.0,0.0,0.09399999678134918,0.0,12288
1676469346.1280549,932,1676469346,125627830,,0.0,0.0,0.09399999678134918,0.0,12288
1676469346.4350228,933,1676469346,434591071,,0.0,0.0,0.09399999678134918,0.0,12288
1676469346.742874,934,1676469346,741809858,,0.0,0.0,0.09399999678134918,0.0,12288
1676469347.006976,935,1676469347,6269274,,0.0,0.0,0.09399999678134918,0.0,12288
1676469347.1454115,936,1676469347,144691307,,0.0,0.0,0.10599999874830246,0.0,12288
1676469347.3426464,937,1676469347,341791173,,0.0,0.0860000029206276,0.11500000208616257,0.0,12288
1676469347.5444188,938,1676469347,543272139,,0.0,0.18700000643730164,0.19699999690055847,0.0,12288
1676469347.7443774,939,1676469347,743189074,,0.0,0.14399999380111694,0.2409999966621399,0.0,12288
1676469347.9451096,940,1676469347,944093438,,0.0,0.0430000014603138,0.1889999955892563,0.0,12288
1676469348.1423256,941,1676469348,141760501,,0.0,-0.01600000075995922,0.1860000044107437,0.0,12288
1676469348.3442862,942,1676469348,343179138,,0.0,-0.07000000029802322,0.1420000046491623,0.0,12288
1676469348.546042,943,1676469348,545116748,,0.0,-0.13899999856948853,0.13500000536441803,0.0,12288
1676469348.7444031,944,1676469348,743113474,,0.0,-0.1509999930858612,0.13500000536441803,0.0,12288
1676469348.9429688,945,1676469348,941644524,,0.0,-0.13699999451637268,0.1459999978542328,0.0,12288
1676469349.1429086,946,1676469349,141631555,,0.0,-0.11500000208616257,0.1459999978542328,0.0,12288
1676469349.3446848,947,1676469349,343086897,,0.0,-0.08699999749660492,0.19200000166893005,0.0,12288
1676469349.5461116,948,1676469349,545432689,,0.0,-0.08500000089406967,0.19900000095367432,0.0,12288
1676469349.744285,949,1676469349,743119848,,0.0,-0.04899999871850014,0.15299999713897705,0.0,12288
1676469349.9454417,950,1676469349,944282510,,-0.01600000075995922,-0.052000001072883606,0.18799999356269836,0.0,12288
1676469350.1427147,951,1676469350,141645008,,0.0,-0.06800000369548798,0.19300000369548798,0.0,12288
1676469350.3461928,952,1676469350,344129968,,0.0,-0.0729999989271164,0.16500000655651093,0.0,12288
1676469350.545321,953,1676469350,543297754,,0.0,-0.07500000298023224,0.15399999916553497,0.0,12288
1676469350.745884,954,1676469350,744289662,,0.0,-0.0560000017285347,0.15399999916553497,0.0,12288
1676469350.9429026,955,1676469350,941947268,,-0.061000000685453415,-0.05400000140070915,0.15399999916553497,0.0,12288
1676469351.1452055,956,1676469351,144456247,,0.0,-0.05400000140070915,0.1469999998807907,0.0,12288
1676469351.3455126,957,1676469351,345106051,,0.0,-0.061000000685453415,0.15600000321865082,0.0,12288
1676469351.5444157,958,1676469351,543744478,,0.0,-0.061000000685453415,0.17900000512599945,0.0,12288
1676469351.7438648,959,1676469351,743167912,,0.0,-0.06300000101327896,0.17000000178813934,0.0,12288
1676469351.9453816,960,1676469351,944235450,,0.0,-0.04399999976158142,0.17000000178813934,0.0,12288
1676469352.1449842,961,1676469352,144175248,,0.0,-0.02800000086426735,0.164000004529953,0.0,12288
1676469352.3426387,962,1676469352,341712231,,0.0,0.0,0.14900000393390656,0.0,12288
1676469352.5452392,963,1676469352,544391451,,0.0,-0.014000000432133675,0.14900000393390656,0.0,12288
1676469352.74375,964,1676469352,742686293,,0.0,-0.041999999433755875,0.15000000596046448,0.0,12288
1676469352.9438536,965,1676469352,943347785,,0.0,-0.04399999976158142,0.14900000393390656,0.0,12288
1676469353.1439636,966,1676469353,143091606,,0.0,-0.02800000086426735,0.10100000351667404,0.0,12288
1676469353.3451264,967,1676469353,343305514,,0.0,-0.03999999910593033,0.0,0.0,12288
1676469353.5459673,968,1676469353,545374486,,0.0,0.0,0.0,0.0,12288
1676469353.7455478,969,1676469353,745121957,,0.0,0.0,0.0,0.0,12288
1676469353.9425037,970,1676469353,941763363,,0.0,0.0,0.0,0.0,12288
1676469354.142692,971,1676469354,141681277,,0.0,0.0,0.0,0.0,12288
1676469354.4348276,972,1676469354,433798710,,0.0,0.0,0.0,0.0,12288
1676469354.5557897,973,1676469354,554640593,,0.0,0.0,0.0,0.0,12288
1676469354.7443426,974,1676469354,743274104,,0.0,0.0,0.0,0.0,12288
1676469354.942604,975,1676469354,941753170,,0.0,0.0,0.0,0.0,12288
1676469355.144368,976,1676469355,143121212,,0.0,0.0,0.0,0.0,12288
1676469355.345664,977,1676469355,344369053,,0.0,0.0,0.0,0.0,12288
