Time,header.seq,header.stamp.secs,header.stamp.nsecs,header.frame_id,pose.position.x,pose.position.y,pose.position.z,pose.orientation.x,pose.orientation.y,pose.orientation.z,pose.orientation.w
1676469335.1199846,16085,1676469334,683332284,world,-1.3298165798187256,-0.5838907361030579,0.1246461570262909,-0.02175002731382847,0.046846576035022736,-0.0016002500196918845,-0.9986640810966492
1676469335.12,16086,1676469334,683504152,world,-1.329815149307251,-0.5838744640350342,0.12465249001979828,-0.021491551771759987,0.04709066450595856,-0.0017292761476710439,-0.9986578822135925
1676469335.120089,16087,1676469334,683562429,world,-1.3298224210739136,-0.5838822722434998,0.12463162839412689,-0.021956784650683403,0.04677936062216759,-0.0016127713024616241,-0.9986626505851746
1676469335.1200979,16088,1676469334,693321316,world,-1.3298149108886719,-0.5838858485221863,0.12464074790477753,-0.021847505122423172,0.04702615737915039,-0.0016858108574524522,-0.9986532926559448
1676469335.1202052,16089,1676469334,693480165,world,-1.3298277854919434,-0.5838792324066162,0.12463831156492233,-0.021954650059342384,0.04678628593683243,-0.0015589658869430423,-0.9986624717712402
1676469335.1202364,16090,1676469334,703825043,world,-1.32981276512146,-0.5838860869407654,0.12462486326694489,-0.02171030081808567,0.04691538214683533,-0.0016738824779167771,-0.9986615180969238
1676469335.120245,16091,1676469334,704311999,world,-1.329820156097412,-0.5838809609413147,0.12463030964136124,-0.021641209721565247,0.04693499207496643,-0.0016775148687884212,-0.9986621737480164
1676469335.1202984,16092,1676469334,704419923,world,-1.3298554420471191,-0.5838439464569092,0.12474464625120163,-0.01903371699154377,0.0470132976770401,-0.0011398270726203918,-0.9987123012542725
1676469335.12034,16093,1676469334,713352156,world,-1.329861044883728,-0.5838407278060913,0.12474427372217178,-0.019235922023653984,0.04690086096525192,-0.0010605832794681191,-0.9987138509750366
1676469335.1203508,16094,1676469334,713434599,world,-1.3298580646514893,-0.5838505029678345,0.12473592162132263,-0.019131409004330635,0.04688010364770889,-0.0010688460897654295,-0.9987167119979858
1676469335.1204038,16095,1676469334,723333725,world,-1.3298612833023071,-0.5838502049446106,0.12474081665277481,-0.019451025873422623,0.04668421298265457,-0.0010802048491314054,-0.9987197518348694
1676469335.1204128,16096,1676469334,723437094,world,-1.3298581838607788,-0.5838422775268555,0.1247468963265419,-0.01907913200557232,0.046955522149801254,-0.000981035060249269,-0.9987143278121948
1676469335.1204429,16097,1676469334,733332590,world,-1.3298633098602295,-0.5838429927825928,0.12474612891674042,-0.019189342856407166,0.0468723401427269,-0.0010967255802825093,-0.9987159371376038
1676469335.1204515,16098,1676469334,733429496,world,-1.3298627138137817,-0.5838420987129211,0.12475427240133286,-0.01898655854165554,0.04707445949316025,-0.0010671892669051886,-0.9987103939056396
1676469335.1204798,16099,1676469334,743344751,world,-1.3298660516738892,-0.583844780921936,0.12473761290311813,-0.019211838021874428,0.04691838473081589,-0.0010430520633235574,-0.9987134337425232
1676469335.1205072,16100,1676469334,743439138,world,-1.3298604488372803,-0.5838524103164673,0.12474190443754196,-0.019024914130568504,0.04689186438918114,-0.0010275300592184067,-0.9987183213233948
1676469335.1205475,16101,1676469334,743588543,world,-1.329865574836731,-0.5838444232940674,0.12474601715803146,-0.019032776355743408,0.04690307378768921,-0.000977017916738987,-0.9987176060676575
1676469335.1205566,16102,1676469334,753328190,world,-1.32986319065094,-0.5838517546653748,0.12474308907985687,-0.01928887702524662,0.04678037390112877,-0.0009540326427668333,-0.9987185001373291
1676469335.120594,16103,1676469334,753795072,world,-1.3298567533493042,-0.5838468074798584,0.12474017590284348,-0.01920544169843197,0.046901900321245193,-0.000998790143057704,-0.9987143874168396
1676469335.1206086,16104,1676469334,763396498,world,-1.3298149108886719,-0.5838782787322998,0.1246257796883583,-0.021987441927194595,0.04693066328763962,-0.0016691116616129875,-0.9986547231674194
1676469335.1206806,16106,1676469334,763570532,world,-1.329819679260254,-0.5838766098022461,0.1246342733502388,-0.022097360342741013,0.046800948679447174,-0.0016285571036860347,-0.9986584782600403
1676469335.1207163,16107,1676469334,773324401,world,-1.3298155069351196,-0.583881676197052,0.1246357411146164,-0.02162069082260132,0.0470275916159153,-0.001678125699982047,-0.9986581802368164
1676469335.1207533,16108,1676469334,773482158,world,-1.329815149307251,-0.583879828453064,0.12464043498039246,-0.021669572219252586,0.046899307519197464,-0.001698201522231102,-0.9986631870269775
1676469335.1208246,16109,1676469334,783322581,world,-1.3298090696334839,-0.5838815569877625,0.12462674081325531,-0.021831711754202843,0.04686608165502548,-0.0016659303801134229,-0.9986612796783447
1676469335.1208556,16110,1676469334,783488412,world,-1.329864740371704,-0.583846926689148,0.12474838644266129,-0.01899149641394615,0.04699587821960449,-0.0010405821958556771,-0.9987139701843262
1676469335.1209235,16111,1676469334,783540281,world,-1.3298643827438354,-0.5838430523872375,0.12474454939365387,-0.01903429441154003,0.047024134546518326,-0.0010381973115727305,-0.9987119436264038
1676469335.1209495,16112,1676469334,793341945,world,-1.3298615217208862,-0.5838488340377808,0.12474928051233292,-0.018873941153287888,0.04700205847620964,-0.0010817379225045443,-0.998715877532959
1676469335.1210005,16113,1676469334,793520183,world,-1.3298600912094116,-0.5838454365730286,0.12473859637975693,-0.01930484175682068,0.04686146602034569,-0.001046699471771717,-0.9987143278121948
1676469335.1210573,16114,1676469334,803325959,world,-1.3298693895339966,-0.5838413834571838,0.12475067377090454,-0.019157255068421364,0.04695462808012962,-0.0010878141038119793,-0.9987127780914307
1676469335.1210673,16115,1676469334,803806340,world,-1.329859972000122,-0.5838513970375061,0.12474505603313446,-0.01923864148557186,0.046900492161512375,-0.0009672713349573314,-0.9987139105796814
1676469335.121103,16116,1676469334,813328064,world,-1.329861044883728,-0.5838503241539001,0.12474609166383743,-0.019004708155989647,0.04700388386845589,-0.0010627992451190948,-0.9987133145332336
1676469335.1211503,16117,1676469334,813488969,world,-1.3298521041870117,-0.5838487148284912,0.12473157793283463,-0.019343772903084755,0.04679490253329277,-0.0010480618802830577,-0.9987166523933411
1676469335.1211772,16118,1676469334,813539654,world,-1.3298636674880981,-0.5838415026664734,0.12474697828292847,-0.019137388095259666,0.04689867049455643,-0.0010477795731276274,-0.9987158179283142
1676469335.1212125,16119,1676469334,823320966,world,-1.3298578262329102,-0.5838449001312256,0.12474416941404343,-0.01929061859846115,0.04698909819126129,-0.0011142801959067583,-0.9987085461616516
1676469335.1212442,16120,1676469334,823467297,world,-1.329870343208313,-0.5838493704795837,0.12475776672363281,-0.018942667171359062,0.04704273119568825,-0.0010169943561777472,-0.9987127780914307
1676469335.1212773,16121,1676469334,833354145,world,-1.3298555612564087,-0.5838406682014465,0.12474414706230164,-0.01901995576918125,0.047000620514154434,-0.0010889251716434956,-0.9987132549285889
1676469335.1213179,16122,1676469334,833921470,world,-1.3298187255859375,-0.5838773846626282,0.12463944405317307,-0.021775774657726288,0.04693517088890076,-0.0016193195478990674,-0.9986592531204224
1676469335.121354,16123,1676469334,834302038,world,-1.3298169374465942,-0.5838780403137207,0.12463000416755676,-0.021818842738866806,0.04687689244747162,-0.00169196049682796,-0.9986609220504761
1676469335.1213682,16124,1676469334,843331566,world,-1.3298207521438599,-0.5838819742202759,0.12463844567537308,-0.021850408986210823,0.046895597130060196,-0.0016648811288177967,-0.9986593723297119
1676469335.1213999,16125,1676469334,843418843,world,-1.3298187255859375,-0.5838811993598938,0.12462788820266724,-0.0219308789819479,0.04681936651468277,-0.0016746589681133628,-0.9986612200737
1676469335.1214097,16126,1676469334,853333690,world,-1.3298155069351196,-0.5838773250579834,0.12463008612394333,-0.02189357578754425,0.046824902296066284,-0.0015890478389337659,-0.9986619353294373
1676469335.1214325,16127,1676469334,853415022,world,-1.3298604488372803,-0.5838403701782227,0.12474481761455536,-0.01913563720881939,0.046892158687114716,-0.0010278304107487202,-0.9987161755561829
1676469335.1214614,16128,1676469334,863326370,world,-1.3298656940460205,-0.583843469619751,0.12473846226930618,-0.01945403218269348,0.04673559218645096,-0.0010880777845159173,-0.9987173080444336
1676469335.1214712,16130,1676469334,863465109,world,-1.329860806465149,-0.5838468074798584,0.1247376799583435,-0.01909620501101017,0.04680773988366127,-0.0009631167049519718,-0.9987209439277649
1676469335.1214893,16131,1676469334,873368030,world,-1.329858422279358,-0.5838497877120972,0.12474001944065094,-0.019073866307735443,0.046989452093839645,-0.0010622853878885508,-0.9987127780914307
1676469335.121517,16132,1676469334,873464122,world,-1.3298650979995728,-0.58383709192276,0.12475161254405975,-0.019270259886980057,0.046998172998428345,-0.0010995015036314726,-0.9987085461616516
1676469335.1215813,16133,1676469334,883408802,world,-1.3298625946044922,-0.583853006362915,0.124737948179245,-0.019186154007911682,0.04682686924934387,-0.0010032696882262826,-0.9987183213233948
1676469335.1215909,16135,1676469334,883543744,world,-1.329857349395752,-0.5838437676429749,0.1247398778796196,-0.01921527273952961,0.046818509697914124,-0.0010484857484698296,-0.9987180233001709
1676469335.1216063,16136,1676469334,893336038,world,-1.329862356185913,-0.5838438272476196,0.1247476190328598,-0.01930919662117958,0.04691212624311447,-0.0010271338978782296,-0.9987119436264038
1676469335.1216507,16137,1676469334,893568276,world,-1.3298618793487549,-0.5838459134101868,0.12473993748426437,-0.019132491201162338,0.046900082379579544,-0.0010325382463634014,-0.9987158179283142
1676469335.1216621,16138,1676469334,903341162,world,-1.3298524618148804,-0.5838450789451599,0.1247393861413002,-0.019201671704649925,0.04687337204813957,-0.0010777770075947046,-0.9987156987190247
1676469335.1216958,16139,1676469334,903511530,world,-1.3298141956329346,-0.5838760733604431,0.12464042007923126,-0.021487517282366753,0.04701736569404602,-0.001642592716962099,-0.9986616373062134
1676469335.1217973,16140,1676469334,913344935,world,-1.3298122882843018,-0.5838814377784729,0.12462737411260605,-0.02204323746263981,0.04689633101224899,-0.0017195226391777396,-0.9986550211906433
1676469335.1218157,16141,1676469334,913523747,world,-1.3298118114471436,-0.5838798880577087,0.12463812530040741,-0.02181393839418888,0.04688938334584236,-0.0016764503670856357,-0.9986605048179626
1676469335.121874,16142,1676469334,913581209,world,-1.3298157453536987,-0.5838859677314758,0.1246366798877716,-0.021634584292769432,0.04690534621477127,-0.0016224606661126018,-0.9986637234687805
1676469335.1219077,16143,1676469334,923335448,world,-1.3298124074935913,-0.5838767290115356,0.1246282085776329,-0.0219251811504364,0.0468718595802784,-0.0016938889166340232,-0.9986588358879089
1676469335.1219468,16144,1676469334,923501797,world,-1.3298149108886719,-0.583881139755249,0.1246449425816536,-0.02168843150138855,0.04702415689826012,-0.0016839024610817432,-0.9986568689346313
1676469335.1219783,16145,1676469334,933372145,world,-1.32981276512146,-0.5838813185691833,0.1246296763420105,-0.021874329075217247,0.046882420778274536,-0.0016269814223051071,-0.998659610748291
1676469335.1220536,16147,1676469334,933535550,world,-1.329811692237854,-0.5838783383369446,0.1246342808008194,-0.021994123235344887,0.04689650610089302,-0.0017287045484408736,-0.998656153678894
1676469335.124674,16148,1676469334,944120980,world,-1.3298187255859375,-0.5838802456855774,0.124640554189682,-0.02180047705769539,0.04685879498720169,-0.0015696276677772403,-0.9986624121665955
1676469335.1247237,16149,1676469334,944275478,world,-1.329815149307251,-0.5838792324066162,0.12464644014835358,-0.02155681513249874,0.046954549849033356,-0.001595260575413704,-0.9986631274223328
1676469335.1247478,16150,1676469334,953329024,world,-1.3298143148422241,-0.5838836431503296,0.1246219277381897,-0.022205382585525513,0.04669470712542534,-0.0016337379347532988,-0.9986610412597656
1676469335.1248076,16151,1676469334,953424374,world,-1.3298166990280151,-0.5838823318481445,0.12463945895433426,-0.021654831245541573,0.04703827574849129,-0.0017465720884501934,-0.9986568093299866
1676469335.1248314,16152,1676469334,963352555,world,-1.3298112154006958,-0.5838808417320251,0.12462522834539413,-0.022036777809262276,0.0468173585832119,-0.0016463124193251133,-0.998659074306488
1676469335.12484,16153,1676469334,963446239,world,-1.32982337474823,-0.5838844776153564,0.12464196234941483,-0.021691208705306053,0.04689531400799751,-0.0015634190058335662,-0.9986631274223328
1676469335.1248677,16154,1676469334,973356327,world,-1.3298128843307495,-0.5838826894760132,0.12462607771158218,-0.0218826811760664,0.046816349029541016,-0.0016112943412736058,-0.998662531375885
1676469335.124876,16155,1676469334,973536917,world,-1.3298132419586182,-0.5838794112205505,0.12462916970252991,-0.022047672420740128,0.04679478704929352,-0.0017119046533480287,-0.9986597299575806
1676469335.1249032,16156,1676469334,973596453,world,-1.329817771911621,-0.5838855504989624,0.124640554189682,-0.021796396002173424,0.0469319187104702,-0.0016999096842482686,-0.9986588358879089
1676469335.1249623,16157,1676469334,983318341,world,-1.329815149307251,-0.5838809013366699,0.12464394420385361,-0.021753797307610512,0.046985309571027756,-0.0017595002427697182,-0.9986571669578552
1676469335.124987,16158,1676469334,983476598,world,-1.3298137187957764,-0.5838868021965027,0.12463225424289703,-0.021948114037513733,0.04678233712911606,-0.0015748789301142097,-0.9986627101898193
1676469335.1250148,16159,1676469334,983530023,world,-1.3298109769821167,-0.5838866829872131,0.12463749200105667,-0.02173457108438015,0.046954765915870667,-0.0016093970043584704,-0.9986593127250671
1676469335.1250448,16160,1676469334,993336002,world,-1.3298137187957764,-0.5838816165924072,0.1246393620967865,-0.021803760901093483,0.046850770711898804,-0.001608675462193787,-0.9986626505851746
1676469335.125063,16161,1676469334,993523925,world,-1.3298190832138062,-0.5838841795921326,0.12464099377393723,-0.021740242838859558,0.04690331965684891,-0.001608431339263916,-0.9986615777015686
1676469335.1250813,16162,1676469335,3329330,world,-1.329816222190857,-0.5838797092437744,0.12462674081325531,-0.022170638665556908,0.04675569385290146,-0.0016970743890851736,-0.9986588954925537
1676469335.125116,16163,1676469335,3900099,world,-1.3298165798187256,-0.5838858485221863,0.12463190406560898,-0.02171984314918518,0.04677465185523033,-0.0016353302635252476,-0.9986679553985596
1676469335.1251535,16164,1676469335,13374601,world,-1.3298187255859375,-0.5838803052902222,0.12463633716106415,-0.02173451893031597,0.04697728529572487,-0.0016591909807175398,-0.9986581206321716
1676469335.125166,16165,1676469335,13549228,world,-1.3298149108886719,-0.5838758945465088,0.12463242560625076,-0.021872352808713913,0.046805210411548615,-0.0016582129755988717,-0.9986631870269775
1676469335.1251833,16166,1676469335,13607579,world,-1.3298213481903076,-0.5838785171508789,0.12464436143636703,-0.02168308012187481,0.04696163162589073,-0.0016770856454968452,-0.9986599683761597
1676469335.1251948,16167,1676469335,23321171,world,-1.3298226594924927,-0.5838835835456848,0.12464217841625214,-0.021768832579255104,0.046809177845716476,-0.0015727782156318426,-0.9986653923988342
1676469335.1252024,16168,1676469335,23409392,world,-1.3298115730285645,-0.5838877558708191,0.12462405115365982,-0.02186751365661621,0.04675913229584694,-0.0015488369390368462,-0.9986656904220581
1676469335.1252146,16169,1676469335,34145986,world,-1.3298149108886719,-0.5838741660118103,0.12464035302400589,-0.02166285738348961,0.04695424810051918,-0.0017108659958466887,-0.998660683631897
1676469335.125242,16170,1676469335,34347669,world,-1.3298109769821167,-0.5838840007781982,0.12463472783565521,-0.02167617529630661,0.04697286710143089,-0.0016610539751127362,-0.998659610748291
1676469335.1252506,16171,1676469335,34423741,world,-1.3298180103302002,-0.5838924646377563,0.1246313750743866,-0.02180248312652111,0.04692934826016426,-0.001556852483190596,-0.9986590147018433
1676469335.1252599,16172,1676469335,43379030,world,-1.3298137187957764,-0.5838797688484192,0.12463536113500595,-0.021711120381951332,0.046823546290397644,-0.0015865566674619913,-0.9986659288406372
1676469335.1252687,16173,1676469335,43598749,world,-1.3298124074935913,-0.583889365196228,0.12462642788887024,-0.021933401003479958,0.04687012732028961,-0.0016242816345766187,-0.9986588358879089
1676469335.1252944,16174,1676469335,53365691,world,-1.3298102617263794,-0.5838735699653625,0.12462928891181946,-0.022060003131628036,0.04694540798664093,-0.0017023230902850628,-0.998652458190918
1676469335.125309,16175,1676469335,53473616,world,-1.3298171758651733,-0.5838856101036072,0.12463926523923874,-0.021824423223733902,0.04696628451347351,-0.001664535142481327,-0.9986566305160522
1676469335.1253219,16176,1676469335,63399130,world,-1.3298075199127197,-0.5838788151741028,0.12464354187250137,-0.021626947447657585,0.04704614356160164,-0.0017789278645068407,-0.9986569881439209
1676469335.1253386,16177,1676469335,63903382,world,-1.329810619354248,-0.5838760733604431,0.12463788688182831,-0.02180624008178711,0.04697684571146965,-0.0017372539732605219,-0.9986564517021179
1676469335.1253474,16178,1676469335,64008176,world,-1.3298166990280151,-0.5838795304298401,0.1246522068977356,-0.0215883981436491,0.047040749341249466,-0.0017436373746022582,-0.9986581206321716
1676469335.125371,16179,1676469335,73318533,world,-1.3298182487487793,-0.5838797092437744,0.12463190406560898,-0.02197122946381569,0.046890754252672195,-0.0016248364700004458,-0.9986571073532104
1676469335.125384,16180,1676469335,73482290,world,-1.3298158645629883,-0.583885133266449,0.12463389337062836,-0.021739622578024864,0.046862632036209106,-0.0017014462500810623,-0.9986633658409119
1676469335.1253943,16181,1676469335,83318621,world,-1.3298105001449585,-0.5838750004768372,0.12463118135929108,-0.02179296500980854,0.0469575896859169,-0.0016773655079305172,-0.998657763004303
1676469335.12543,16182,1676469335,83479470,world,-1.3298176527023315,-0.583878755569458,0.12463603913784027,-0.02195560559630394,0.0467405691742897,-0.0016311886720359325,-0.9986644387245178
1676469335.1254435,16183,1676469335,83529340,world,-1.3298193216323853,-0.5838820338249207,0.12463890016078949,-0.02178814448416233,0.04685739055275917,-0.0016568859573453665,-0.9986625909805298
1676469335.1255407,16184,1676469335,93338263,world,-1.3298170566558838,-0.5838819146156311,0.12463898956775665,-0.021762847900390625,0.04681484028697014,-0.0015704208053648472,-0.9986652731895447
1676469335.125671,16185,1676469335,93516020,world,-1.3298107385635376,-0.5838898420333862,0.12462848424911499,-0.02182181179523468,0.046861231327056885,-0.001640652772039175,-0.9986617565155029
1676469335.125839,16186,1676469335,103339850,world,-1.329815149307251,-0.5838797688484192,0.12464462965726852,-0.021661458536982536,0.046956319361925125,-0.001672377111390233,-0.9986606240272522
1676469335.1259055,16187,1676469335,103877990,world,-1.3298200368881226,-0.5838784575462341,0.12462738901376724,-0.022045422345399857,0.04686571657657623,-0.0017093438655138016,-0.9986564517021179
1676469335.1260133,16188,1676469335,104321113,world,-1.3298139572143555,-0.5838820338249207,0.12463776767253876,-0.021758368238806725,0.04685244709253311,-0.001657824614085257,-0.9986634850502014
1676469335.1264307,16189,1676469335,113347493,world,-1.3298158645629883,-0.5838780999183655,0.12464278191328049,-0.021682092919945717,0.04690900444984436,-0.0016509024426341057,-0.9986624717712402
1676469335.1264653,16190,1676469335,113449288,world,-1.3298134803771973,-0.5838823914527893,0.12463513761758804,-0.021800830960273743,0.04679185524582863,-0.001595219480805099,-0.998665452003479
1676469335.1265075,16191,1676469335,123391283,world,-1.3298182487487793,-0.5838768482208252,0.12464754283428192,-0.02167585678398609,0.04698190838098526,-0.0016592786414548755,-0.9986591935157776
1676469335.1265857,16192,1676469335,123478004,world,-1.3298152685165405,-0.5838816165924072,0.12463563680648804,-0.021848855540156364,0.046915240585803986,-0.0016566833946853876,-0.9986585378646851
1676469335.1375403,16193,1676469335,133516536,world,-1.3298132419586182,-0.5838809013366699,0.12463341653347015,-0.021790362894535065,0.046791113913059235,-0.0015862886793911457,-0.9986657500267029
1676469335.1459258,16195,1676469335,133658496,world,-1.3298215866088867,-0.5838863849639893,0.12463410943746567,-0.021762434393167496,0.0468011349439621,-0.001580991898663342,-0.9986659288406372
1676469335.148888,16196,1676469335,143325866,world,-1.3298124074935913,-0.5838772654533386,0.1246383786201477,-0.021578457206487656,0.04696713387966156,-0.0017650282243266702,-0.9986618161201477
1676469335.1490476,16197,1676469335,143418069,world,-1.3298137187957764,-0.5838809609413147,0.12463221698999405,-0.021696629002690315,0.046868693083524704,-0.0016034503933042288,-0.9986642003059387
1676469335.1542199,16198,1676469335,153329639,world,-1.3298121690750122,-0.5838881731033325,0.12463817745447159,-0.021778251975774765,0.0469106025993824,-0.0016164679545909166,-0.9986603260040283
1676469335.1542523,16200,1676469335,153472007,world,-1.3298070430755615,-0.5838803648948669,0.12463000416755676,-0.021953247487545013,0.04675733298063278,-0.0016092559089884162,-0.9986637830734253
1676469335.1641176,16201,1676469335,163309245,world,-1.3298207521438599,-0.5838868021965027,0.12463896721601486,-0.021737972274422646,0.046900518238544464,-0.0016619379166513681,-0.9986616373062134
1676469335.1742017,16202,1676469335,173309610,world,-1.329813003540039,-0.583884060382843,0.12463518977165222,-0.021622881293296814,0.046918515115976334,-0.0016366736963391304,-0.9986633658409119
1676469335.174516,16203,1676469335,173448015,world,-1.329816460609436,-0.5838809609413147,0.12463601678609848,-0.021838048473000526,0.04690452665090561,-0.0016476695891469717,-0.9986593723297119
1676469335.1745312,16204,1676469335,173497440,world,-1.32981538772583,-0.5838813781738281,0.1246180385351181,-0.021999485790729523,0.04680290073156357,-0.001620011287741363,-0.9986605644226074
1676469335.1843324,16205,1676469335,183300272,world,-1.32981538772583,-0.5838897824287415,0.12461923062801361,-0.02214229665696621,0.046701911836862564,-0.001634773681871593,-0.9986621737480164
1676469335.1843488,16206,1676469335,183446325,world,-1.3298040628433228,-0.583888828754425,0.12462034821510315,-0.02200230211019516,0.04681878909468651,-0.0015979515155777335,-0.9986598491668701
1676469335.1843576,16207,1676469335,183493694,world,-1.3298187255859375,-0.5838751196861267,0.12462776899337769,-0.02190495654940605,0.046804070472717285,-0.0016516707837581635,-0.998662531375885
1676469335.193804,16208,1676469335,193296137,world,-1.3298159837722778,-0.5838863253593445,0.12463463097810745,-0.021755367517471313,0.0469345822930336,-0.0015598878962919116,-0.9986597895622253
1676469335.1941257,16209,1676469335,193441894,world,-1.329811692237854,-0.5838780999183655,0.12463540583848953,-0.021803325042128563,0.04689833149313927,-0.0017380083445459604,-0.9986602067947388
1676469335.2046328,16210,1676469335,203858363,world,-1.329813003540039,-0.5838868618011475,0.12462610006332397,-0.021885359659790993,0.04691657796502113,-0.0016236936207860708,-0.998657763004303
1676469335.2059417,16211,1676469335,204060934,world,-1.3298118114471436,-0.583882749080658,0.12462879717350006,-0.021802159026265144,0.04694034159183502,-0.0016237376257777214,-0.9986584782600403
1676469335.2064416,16212,1676469335,204265746,world,-1.3298141956329346,-0.5838733911514282,0.12462466210126877,-0.022007498890161514,0.046768806874752045,-0.0017127740429714322,-0.9986618161201477
1676469335.2139838,16213,1676469335,213339292,world,-1.3298143148422241,-0.5838837027549744,0.1246403381228447,-0.02165473997592926,0.04690559580922127,-0.0016780506120994687,-0.9986632466316223
1676469335.2153046,16214,1676469335,213505623,world,-1.3298089504241943,-0.5838804841041565,0.12462718784809113,-0.021972350776195526,0.04680824652314186,-0.0016792851965874434,-0.9986608028411865
1676469335.2243886,16215,1676469335,223332768,world,-1.3298183679580688,-0.5838821530342102,0.1246369481086731,-0.021558791399002075,0.04688071832060814,-0.0016983896493911743,-0.9986664056777954
1676469335.2244291,16216,1676469335,223514154,world,-1.3298146724700928,-0.583882212638855,0.1246320977807045,-0.02171979658305645,0.04697548970580101,-0.001702514011412859,-0.9986584782600403
1676469335.234527,16217,1676469335,233348744,world,-1.3298184871673584,-0.5838721990585327,0.12464594841003418,-0.02175402268767357,0.047005362808704376,-0.001717103528790176,-0.9986563324928284
1676469335.2345407,16219,1676469335,233507334,world,-1.3298131227493286,-0.5838786959648132,0.12462718784809113,-0.021907679736614227,0.046865370124578476,-0.0017085701692849398,-0.9986594915390015
1676469335.2440772,16220,1676469335,243339572,world,-1.3298205137252808,-0.5838720798492432,0.12463950365781784,-0.021678294986486435,0.04693393409252167,-0.0017583516892045736,-0.9986612200737
1676469335.2442544,16221,1676469335,243521162,world,-1.329817295074463,-0.5838767886161804,0.12463465332984924,-0.021814249455928802,0.04690956324338913,-0.0016374561237171292,-0.9986596703529358
1676469335.2545013,16222,1676469335,253341882,world,-1.3298124074935913,-0.583877444267273,0.12462429702281952,-0.02170391194522381,0.04687073454260826,-0.001724342117086053,-0.9986636638641357
1676469335.2545469,16223,1676469335,253447436,world,-1.3298166990280151,-0.5838784575462341,0.12463361024856567,-0.02169101871550083,0.046965450048446655,-0.001716664875857532,-0.9986594915390015
1676469335.2545626,16224,1676469335,253572526,world,-1.329816460609436,-0.5838855504989624,0.12462478131055832,-0.021826108917593956,0.04686862975358963,-0.001585281454026699,-0.9986613988876343
1676469335.2663653,16225,1676469335,263350395,world,-1.3298085927963257,-0.5838749408721924,0.12464411556720734,-0.021709589287638664,0.04705856367945671,-0.0017689577070996165,-0.9986546635627747
1676469335.2749927,16226,1676469335,273623071,world,-1.3298091888427734,-0.583866536617279,0.12465052306652069,-0.02182822860777378,0.04695703834295273,-0.001700822846032679,-0.9986569881439209
1676469335.275028,16227,1676469335,274201710,world,-1.32981276512146,-0.5838800668716431,0.1246357262134552,-0.022035088390111923,0.04670910909771919,-0.001640566624701023,-0.9986642003059387
1676469335.2750468,16228,1676469335,274318412,world,-1.32981276512146,-0.5838863849639893,0.12464132905006409,-0.021983308717608452,0.046943679451942444,-0.0016179922968149185,-0.998654305934906
1676469335.2838986,16229,1676469335,283313755,world,-1.3298263549804688,-0.5838879346847534,0.12463366985321045,-0.02203519456088543,0.047089267522096634,-0.0013567464193329215,-0.9986467361450195
1676469335.2841837,16230,1676469335,283473475,world,-1.3297852277755737,-0.5838990211486816,0.12464287877082825,-0.02180178463459015,0.046820517629384995,-0.0013494184240698814,-0.9986644983291626
1676469335.2841997,16231,1676469335,283524400,world,-1.329822301864624,-0.5838914513587952,0.12463721632957458,-0.021816682070493698,0.04681352898478508,-0.0015361488331109285,-0.9986642599105835
1676469335.2957103,16232,1676469335,293349860,world,-1.3298513889312744,-0.5838846564292908,0.12461549043655396,-0.022100461646914482,0.047012269496917725,-0.0016646755393594503,-0.998648464679718
1676469335.295755,16233,1676469335,293452988,world,-1.329833745956421,-0.5838811993598938,0.12461865693330765,-0.021894972771406174,0.046764642000198364,-0.001616811496205628,-0.9986646771430969
1676469335.3039808,16234,1676469335,303336448,world,-1.329798936843872,-0.5838817358016968,0.12462399899959564,-0.02176406979560852,0.04695240035653114,-0.0017520751571282744,-0.9986584782600403
1676469335.3049986,16235,1676469335,303509556,world,-1.3297933340072632,-0.5839009881019592,0.12462084740400314,-0.02196207456290722,0.046495191752910614,-0.0016972179291769862,-0.9986757040023804
1676469335.3140984,16236,1676469335,313383275,world,-1.3298248052597046,-0.5838775634765625,0.12460760027170181,-0.021902285516262054,0.0468771867454052,-0.0016065624076873064,-0.9986592531204224
1676469335.3141344,16238,1676469335,313541421,world,-1.3298133611679077,-0.5838798880577087,0.12461730092763901,-0.021891389042139053,0.046769946813583374,-0.0018053852254524827,-0.998664140701294
1676469335.32459,16239,1676469335,323374048,world,-1.3298202753067017,-0.5838931202888489,0.1246131956577301,-0.021997669711709023,0.04675745218992233,-0.001842952799052,-0.9986624121665955
1676469335.324644,16240,1676469335,323581434,world,-1.329828143119812,-0.5838969945907593,0.124630406498909,-0.021934421733021736,0.04686497896909714,-0.0019189529120922089,-0.9986585378646851
1676469335.334494,16241,1676469335,333448134,world,-1.3298368453979492,-0.5838931202888489,0.12463288009166718,-0.021704042330384254,0.04696139320731163,-0.0017469923477619886,-0.9986593723297119
1676469335.3345168,16242,1676469335,333553780,world,-1.3298416137695312,-0.5839205980300903,0.1246621161699295,-0.022141147404909134,0.0470011830329895,-0.0017932611517608166,-0.9986478686332703
1676469335.3437912,16243,1676469335,343319482,world,-1.3298519849777222,-0.5839324593544006,0.12467993050813675,-0.021523743867874146,0.04732893407344818,-0.0017744713695719838,-0.9986458420753479
1676469335.3441954,16244,1676469335,343499146,world,-1.3298646211624146,-0.5839492678642273,0.12465878576040268,-0.02187357097864151,0.04718513414263725,-0.001633472740650177,-0.9986453056335449
1676469335.344226,16245,1676469335,343552775,world,-1.3298728466033936,-0.5839720964431763,0.12464912235736847,-0.022157510742545128,0.04726216569542885,-0.0016446878435090184,-0.998635470867157
1676469335.3540752,16246,1676469335,353353199,world,-1.329905390739441,-0.5839757919311523,0.12465734779834747,-0.022285331040620804,0.047137536108493805,-0.0017383821541443467,-0.9986383318901062
1676469335.3546977,16247,1676469335,353538789,world,-1.3299243450164795,-0.5840010046958923,0.12465249747037888,-0.022370759397745132,0.04726419970393181,-0.0016791346715763211,-0.9986304640769958
1676469335.3547144,16248,1676469335,353614602,world,-1.3299471139907837,-0.5840206742286682,0.12464635819196701,-0.02231699600815773,0.047538015991449356,-0.0019045784138143063,-0.9986183643341064
1676469335.364125,16249,1676469335,363412711,world,-1.3299543857574463,-0.5840426087379456,0.12463635951280594,-0.022262705489993095,0.047588050365448,-0.001927694771438837,-0.9986170530319214
1676469335.3647327,16250,1676469335,363942981,world,-1.3300180435180664,-0.5840248465538025,0.12476245313882828,-0.019835183396935463,0.04753502458333969,-0.001197109930217266,-0.9986719489097595
1676469335.3740423,16251,1676469335,373342003,world,-1.3300338983535767,-0.5840396881103516,0.12477917224168777,-0.01963641308248043,0.04776846989989281,-0.0012049522483721375,-0.9986647367477417
1676469335.3741236,16252,1676469335,373512686,world,-1.3300458192825317,-0.5840631127357483,0.1247597187757492,-0.019873177632689476,0.047623150050640106,-0.0008431511814706028,-0.9986673593521118
1676469335.3838577,16253,1676469335,383341683,world,-1.3300561904907227,-0.5841007232666016,0.12479345500469208,-0.02001897618174553,0.04787002503871918,-0.0008167527266778052,-0.9986526966094971
1676469335.384238,16254,1676469335,383545754,world,-1.3300526142120361,-0.5841324925422668,0.12480367720127106,-0.01999865658581257,0.04788510128855705,-0.0007959228823892772,-0.9986523389816284
1676469335.3842533,16255,1676469335,383608772,world,-1.3300379514694214,-0.5841676592826843,0.1248202696442604,-0.01982950232923031,0.04810221120715141,-0.0006190428975969553,-0.9986453652381897
1676469335.3943684,16256,1676469335,393344196,world,-1.3300203084945679,-0.5841848850250244,0.12482953071594238,-0.01995333656668663,0.047842223197221756,-0.0006138219614513218,-0.9986554980278015
1676469335.3943846,16257,1676469335,393442084,world,-1.3299789428710938,-0.5842487812042236,0.12483425438404083,-0.02060152217745781,0.047752391546964645,-0.0006449083448387682,-0.9986464977264404
1676469335.4048228,16258,1676469335,403345598,world,-1.3299367427825928,-0.5842943787574768,0.12487208098173141,-0.02037462405860424,0.04787817969918251,-0.0009255953482352197,-0.9986449480056763
1676469335.4049563,16259,1676469335,403591076,world,-1.3298622369766235,-0.5843344330787659,0.1248759776353836,-0.020299376919865608,0.047439150512218475,-0.0008247755467891693,-0.9986675977706909
1676469335.4050293,16260,1676469335,403656927,world,-1.3297584056854248,-0.5843878984451294,0.1249317154288292,-0.019702864810824394,0.047521449625492096,-0.0011133773950859904,-0.9986752867698669
1676469335.4140368,16261,1676469335,413360352,world,-1.3296270370483398,-0.5844586491584778,0.12499609589576721,-0.019668670371174812,0.047043345868587494,-0.0010232307249680161,-0.9986987113952637
1676469335.4143686,16262,1676469335,413564664,world,-1.3294717073440552,-0.5845196843147278,0.12505854666233063,-0.019886281341314316,0.04632267728447914,-0.001335800625383854,-0.9987276792526245
1676469335.4243898,16263,1676469335,423371328,world,-1.3292641639709473,-0.584595263004303,0.12511464953422546,-0.019512927159667015,0.04587393254041672,-0.0016746652545407414,-0.9987553358078003
1676469335.424431,16264,1676469335,423524881,world,-1.328980565071106,-0.5846933126449585,0.1251528412103653,-0.0201663039624691,0.04458194971084595,-0.00209570350125432,-0.9987999796867371
1676469335.4343662,16265,1676469335,433452025,world,-1.3286771774291992,-0.5847795605659485,0.12517869472503662,-0.021330708637833595,0.04284590482711792,-0.002280410612002015,-0.9988514184951782
1676469335.4343977,16267,1676469335,433640411,world,-1.327895998954773,-0.584981381893158,0.12525488436222076,-0.02442937158048153,0.03805772215127945,-0.0023639986757189035,-0.998974084854126
1676469335.4443972,16268,1676469335,443504352,world,-1.3273954391479492,-0.5850442051887512,0.12531600892543793,-0.024868866428732872,0.03528834134340286,-0.00239161541685462,-0.9990648031234741
1676469335.444434,16269,1676469335,443650480,world,-1.3268969058990479,-0.5851311087608337,0.12536239624023438,-0.024958014488220215,0.03322619944810867,-0.0025109509006142616,-0.9991330504417419
1676469335.4541943,16270,1676469335,453695807,world,-1.3263241052627563,-0.585220217704773,0.12538841366767883,-0.025284452363848686,0.030503353103995323,-0.0026785624213516712,-0.9992112517356873
1676469335.454427,16271,1676469335,453920507,world,-1.325751543045044,-0.585285484790802,0.12545457482337952,-0.024716775864362717,0.028486335650086403,-0.002996585564687848,-0.9992841482162476
1676469335.4544592,16272,1676469335,453982136,world,-1.325162410736084,-0.5853351950645447,0.12557178735733032,-0.02361326664686203,0.02646416425704956,-0.003399280598387122,-0.9993650317192078
1676469335.4640946,16273,1676469335,463409936,world,-1.3245489597320557,-0.5853579044342041,0.1256687343120575,-0.02293253503739834,0.024599222466349602,-0.0035163972061127424,-0.9994282126426697
1676469335.4641123,16274,1676469335,463778967,world,-1.3238952159881592,-0.5854225754737854,0.12568894028663635,-0.023773597553372383,0.021384192630648613,-0.0035605982411652803,-0.9994823336601257
1676469335.4742174,16275,1676469335,473350561,world,-1.32318115234375,-0.5855078101158142,0.12563705444335938,-0.026324277743697166,0.018405618146061897,-0.00511917844414711,-0.9994709491729736
1676469335.474353,16276,1676469335,473461430,world,-1.3225469589233398,-0.5855531096458435,0.1256715953350067,-0.028226815164089203,0.015335039235651493,-0.004968451336026192,-0.9994715452194214
1676469335.4846818,16277,1676469335,483315112,world,-1.3218406438827515,-0.5855600237846375,0.1257699728012085,-0.028339479118585587,0.012938647530972958,-0.005416076630353928,-0.9994999170303345
1676469335.4854076,16278,1676469335,483481406,world,-1.3211700916290283,-0.5855512022972107,0.12582330405712128,-0.02781403623521328,0.010729596950113773,-0.005482831038534641,-0.9995405077934265
1676469335.4854348,16279,1676469335,483533442,world,-1.3204212188720703,-0.5855845212936401,0.12580953538417816,-0.029279762879014015,0.006620700936764479,-0.005189569666981697,-0.999535858631134
1676469335.494764,16280,1676469335,493396994,world,-1.31971275806427,-0.5856024026870728,0.12583710253238678,-0.02889307588338852,0.003072698600590229,-0.004877919796854258,-0.9995658993721008
1676469335.495255,16281,1676469335,493519011,world,-1.319015622138977,-0.5855767726898193,0.1258285641670227,-0.028724728152155876,6.049840885680169e-05,-0.0051559642888605595,-0.9995740652084351
1676469335.5038433,16282,1676469335,503320027,world,-1.318320631980896,-0.5855704545974731,0.12588052451610565,-0.0281857680529356,-0.002251208992674947,-0.005717405118048191,-0.9995838403701782
1676469335.5045457,16283,1676469335,503828575,world,-1.3175806999206543,-0.5855540633201599,0.12594687938690186,-0.027728674933314323,-0.0051762014627456665,-0.0061254543252289295,-0.9995833039283752
1676469335.504757,16284,1676469335,504217698,world,-1.316867470741272,-0.5854852795600891,0.12600861489772797,-0.027725042775273323,-0.007894088514149189,-0.006409296300262213,-0.9995639324188232
1676469335.5149958,16285,1676469335,513352725,world,-1.3161706924438477,-0.585428774356842,0.12604887783527374,-0.027348816394805908,-0.010161406360566616,-0.007057999726384878,-0.999549388885498
1676469335.5150404,16286,1676469335,513914401,world,-1.3154808282852173,-0.585364043712616,0.12609031796455383,-0.026101848110556602,-0.01248413510620594,-0.007672528736293316,-0.9995519518852234
1676469335.5242238,16287,1676469335,523329553,world,-1.3148581981658936,-0.5853167176246643,0.1261451542377472,-0.025032734498381615,-0.014892262406647205,-0.008098681457340717,-0.9995428919792175
1676469335.5242808,16288,1676469335,523501458,world,-1.3142411708831787,-0.5852892994880676,0.1261029988527298,-0.025210395455360413,-0.018084976822137833,-0.008024358190596104,-0.9994864463806152
1676469335.5347893,16289,1676469335,533332992,world,-1.3136391639709473,-0.585266649723053,0.12604129314422607,-0.02651241235435009,-0.021710148081183434,-0.007440350949764252,-0.9993851184844971
1676469335.534806,16290,1676469335,533515082,world,-1.3130395412445068,-0.5852487683296204,0.1260344684123993,-0.02601325884461403,-0.024151017889380455,-0.007028495892882347,-0.9993451833724976
1676469335.5348673,16291,1676469335,533590100,world,-1.3124464750289917,-0.5852152109146118,0.1260523945093155,-0.025394368916749954,-0.026191214099526405,-0.007333134766668081,-0.9993074536323547
1676469335.5440621,16292,1676469335,543402930,world,-1.311894416809082,-0.5851684808731079,0.126068577170372,-0.025104273110628128,-0.028296969830989838,-0.00780017813667655,-0.9992538690567017
1676469335.544093,16293,1676469335,543500207,world,-1.3113882541656494,-0.585150957107544,0.12610171735286713,-0.02444327436387539,-0.029671913012862206,-0.008469000458717346,-0.9992249608039856
1676469335.5540657,16294,1676469335,553357629,world,-1.310908555984497,-0.5851061344146729,0.12615524232387543,-0.023590628057718277,-0.030998723581433296,-0.009073648601770401,-0.9991998076438904
1676469335.555135,16295,1676469335,553926806,world,-1.3104708194732666,-0.5850797891616821,0.12619350850582123,-0.023116204887628555,-0.03252091631293297,-0.009574399329721928,-0.9991578459739685
1676469335.5645208,16296,1676469335,563334699,world,-1.3100578784942627,-0.5850675702095032,0.12620949745178223,-0.023270664736628532,-0.03420855477452278,-0.009534698911011219,-0.9990982413291931
1676469335.5645604,16297,1676469335,563516085,world,-1.309643268585205,-0.5850741863250732,0.12622688710689545,-0.023309145122766495,-0.03563455864787102,-0.00939712394028902,-0.9990488886833191
1676469335.5645735,16298,1676469335,563576362,world,-1.3093090057373047,-0.5850659608840942,0.12625940144062042,-0.02283407188951969,-0.036796003580093384,-0.009566172957420349,-0.9990161061286926
1676469335.5747683,16299,1676469335,573438007,world,-1.30902099609375,-0.5850762724876404,0.12627184391021729,-0.022346489131450653,-0.037884391844272614,-0.009633752517402172,-0.9989858269691467
1676469335.5749562,16300,1676469335,574009146,world,-1.3087416887283325,-0.5851039886474609,0.126295804977417,-0.02216017059981823,-0.03906811773777008,-0.010092250071465969,-0.9989398717880249
1676469335.5838184,16301,1676469335,583337984,world,-1.3085124492645264,-0.5851365327835083,0.126301109790802,-0.022205928340554237,-0.040086813271045685,-0.01023095566779375,-0.9988970160484314
1676469335.5842798,16302,1676469335,583507111,world,-1.3083218336105347,-0.5851587653160095,0.12629926204681396,-0.022430580109357834,-0.04119424894452095,-0.010249635204672813,-0.9988468289375305
1676469335.5842981,16303,1676469335,583565684,world,-1.3081361055374146,-0.5851996541023254,0.1263095736503601,-0.022564643993973732,-0.041933611035346985,-0.010243862867355347,-0.9988130331039429
1676469335.594419,16304,1676469335,593372756,world,-1.3079564571380615,-0.5852352976799011,0.12633149325847626,-0.022726336494088173,-0.04258529841899872,-0.01042844820767641,-0.9987799525260925
1676469335.5944595,16305,1676469335,593556994,world,-1.3078181743621826,-0.5852705836296082,0.1263418048620224,-0.0224583949893713,-0.04311614856123924,-0.010450008325278759,-0.9987629652023315
1676469335.6038694,16306,1676469335,603327714,world,-1.307685136795044,-0.5853331685066223,0.12634050846099854,-0.022885534912347794,-0.04369627311825752,-0.010401994921267033,-0.9987285733222961
1676469335.6048994,16307,1676469335,603498490,world,-1.3075745105743408,-0.5853864550590515,0.12635326385498047,-0.023132428526878357,-0.04419461265206337,-0.010175107978284359,-0.9987033009529114
1676469335.6140878,16308,1676469335,613452967,world,-1.3074843883514404,-0.5854335427284241,0.12636074423789978,-0.02366369031369686,-0.04469260200858116,-0.010040933266282082,-0.9986700415611267
1676469335.6143858,16309,1676469335,613646815,world,-1.3074218034744263,-0.5854974985122681,0.12636013329029083,-0.024329058825969696,-0.04511779174208641,-0.009722950868308544,-0.9986380338668823
1676469335.614402,16310,1676469335,613764295,world,-1.3073596954345703,-0.5855503678321838,0.12638385593891144,-0.02459310181438923,-0.04518359154462814,-0.009675303474068642,-0.9986290335655212
1676469335.6243958,16311,1676469335,623324908,world,-1.307318925857544,-0.5856167674064636,0.126370370388031,-0.024968793615698814,-0.04547649249434471,-0.009401921182870865,-0.9986090660095215
1676469335.6244102,16312,1676469335,623421128,world,-1.3073136806488037,-0.5856549739837646,0.12639649212360382,-0.024974746629595757,-0.045325830578804016,-0.009197327308356762,-0.9986176490783691
1676469335.6348593,16313,1676469335,633403346,world,-1.307313323020935,-0.5857000350952148,0.12640120089054108,-0.025375910103321075,-0.04537414014339447,-0.009006863459944725,-0.9986071586608887
1676469335.6348767,16315,1676469335,633562473,world,-1.3073580265045166,-0.5857779383659363,0.12642547488212585,-0.02559504471719265,-0.045128121972084045,-0.00880203302949667,-0.998614490032196
1676469335.6438193,16316,1676469335,643328323,world,-1.3074064254760742,-0.585804283618927,0.12642642855644226,-0.02556574158370495,-0.044949010014534,-0.008762543089687824,-0.9986236691474915
1676469335.644114,16317,1676469335,643499505,world,-1.3074405193328857,-0.5858367085456848,0.12642918527126312,-0.02621934562921524,-0.04486577957868576,-0.008419880643486977,-0.9986134171485901
1676469335.654662,16318,1676469335,653330317,world,-1.3074886798858643,-0.5858489274978638,0.12645095586776733,-0.025961970910429955,-0.04438621178269386,-0.008481106720864773,-0.9986411333084106
1676469335.6548097,16319,1676469335,653628406,world,-1.3075648546218872,-0.5858632922172546,0.1264503300189972,-0.02583898976445198,-0.04400530084967613,-0.008396187797188759,-0.9986618757247925
1676469335.6549513,16320,1676469335,653913234,world,-1.3076419830322266,-0.5858815312385559,0.12645922601222992,-0.025994913652539253,-0.04358145594596863,-0.008525758050382137,-0.9986752867698669
1676469335.6639616,16321,1676469335,663342293,world,-1.3077012300491333,-0.5858819484710693,0.12646417319774628,-0.025902438908815384,-0.04315279424190521,-0.008312557823956013,-0.9986980557441711
1676469335.6646168,16322,1676469335,663861748,world,-1.307790994644165,-0.5858904123306274,0.1264471858739853,-0.025986164808273315,-0.04299766197800636,-0.00814192183315754,-0.9987040162086487
1676469335.674173,16323,1676469335,673358825,world,-1.3078608512878418,-0.5859140157699585,0.12645207345485687,-0.026072463020682335,-0.0426316075026989,-0.008122085593640804,-0.9987176656723022
1676469335.67463,16324,1676469335,673465879,world,-1.3079415559768677,-0.585919976234436,0.1264735758304596,-0.02579251490533352,-0.04216228425502777,-0.00829802080988884,-0.9987434148788452
1676469335.6837728,16325,1676469335,683322468,world,-1.3080177307128906,-0.5859053134918213,0.1264583170413971,-0.025691017508506775,-0.04198027029633522,-0.00812553334981203,-0.9987550973892212
1676469335.6842248,16326,1676469335,683497984,world,-1.3080933094024658,-0.585929274559021,0.1264457404613495,-0.026148207485675812,-0.041911981999874115,-0.007997400127351284,-0.9987471699714661
1676469335.6842546,16327,1676469335,683556187,world,-1.3081542253494263,-0.5859248638153076,0.12645940482616425,-0.0261587742716074,-0.04138375446200371,-0.008146691136062145,-0.9987676739692688
1676469335.695437,16328,1676469335,693399221,world,-1.3082321882247925,-0.5859264731407166,0.12647782266139984,-0.026108400896191597,-0.04112132638692856,-0.008185467682778835,-0.9987795352935791
1676469335.695472,16329,1676469335,693509331,world,-1.308272123336792,-0.5859179496765137,0.1264626383781433,-0.026091519743204117,-0.04068310558795929,-0.008124211803078651,-0.9987983703613281
1676469335.7044673,16330,1676469335,703348124,world,-1.308326005935669,-0.5859220623970032,0.12647518515586853,-0.026067495346069336,-0.040382035076618195,-0.008071521297097206,-0.9988116025924683
1676469335.704513,16331,1676469335,703526584,world,-1.3083677291870117,-0.5859155058860779,0.12648290395736694,-0.02597985416650772,-0.04008530452847481,-0.008213690482079983,-0.9988247752189636
1676469335.7143474,16332,1676469335,713333693,world,-1.3084203004837036,-0.5859233140945435,0.1264777034521103,-0.025947261601686478,-0.039918478578329086,-0.008018113672733307,-0.9988337755203247
1676469335.7145288,16334,1676469335,713503987,world,-1.308470606803894,-0.5859178900718689,0.12646903097629547,-0.02626788802444935,-0.039924588054418564,-0.007976407185196877,-0.9988256096839905
1676469335.723845,16335,1676469335,723346373,world,-1.3085052967071533,-0.5859383940696716,0.12646490335464478,-0.02629711851477623,-0.03971542790532112,-0.007887822575867176,-0.9988338351249695
1676469335.7243876,16336,1676469335,723532573,world,-1.3085285425186157,-0.5859593749046326,0.1264769285917282,-0.02593611180782318,-0.0394054539501667,-0.007850449532270432,-0.9988558888435364
1676469335.733974,16337,1676469335,733364108,world,-1.3085252046585083,-0.5859503149986267,0.12646879255771637,-0.026003830134868622,-0.039310529828071594,-0.00785805843770504,-0.9988577365875244
1676469335.7342215,16338,1676469335,733534124,world,-1.3085298538208008,-0.5859833359718323,0.12646397948265076,-0.026384767144918442,-0.03958428278565407,-0.007779044099152088,-0.9988375902175903
1676469335.7343407,16339,1676469335,733681566,world,-1.3085345029830933,-0.5860161185264587,0.12646785378456116,-0.026738803833723068,-0.03948798030614853,-0.007698604837059975,-0.9988325834274292
1676469335.7438445,16340,1676469335,743329936,world,-1.3085352182388306,-0.586031973361969,0.1264771670103073,-0.026721319183707237,-0.0396096371114254,-0.007669457700103521,-0.9988284707069397
1676469335.7443395,16341,1676469335,743501860,world,-1.3084995746612549,-0.5860567092895508,0.12648272514343262,-0.026545953005552292,-0.039593178778886795,-0.007685035467147827,-0.9988337159156799
1676469335.7549577,16342,1676469335,754090808,world,-1.3084886074066162,-0.5860878825187683,0.1265174299478531,-0.026548022404313087,-0.039499033242464066,-0.007719479035586119,-0.9988370537757874
1676469335.7551308,16344,1676469335,754257287,world,-1.3084475994110107,-0.5861064195632935,0.12649692595005035,-0.026679644361138344,-0.03973211348056793,-0.00775163946673274,-0.9988241195678711
1676469335.7641172,16345,1676469335,763341981,world,-1.3084063529968262,-0.5861514806747437,0.12650896608829498,-0.026897866278886795,-0.03990408778190613,-0.007727759890258312,-0.9988115429878235
1676469335.7647688,16346,1676469335,763904102,world,-1.3083696365356445,-0.5861887335777283,0.1265518069267273,-0.027152327820658684,-0.04004427045583725,-0.007677757181227207,-0.9987995028495789
1676469335.7741492,16347,1676469335,773344513,world,-1.3083491325378418,-0.5861946940422058,0.12655028700828552,-0.026991672813892365,-0.040057629346847534,-0.007798393256962299,-0.9988023638725281
1676469335.774301,16348,1676469335,773446178,world,-1.3082984685897827,-0.5862039923667908,0.12652643024921417,-0.026584146544337273,-0.040205568075180054,-0.007753079757094383,-0.9988076686859131
1676469335.7840555,16349,1676469335,783326230,world,-1.3082342147827148,-0.5862640738487244,0.12652157247066498,-0.027429772540926933,-0.040632035583257675,-0.007556515745818615,-0.9987691044807434
1676469335.784434,16350,1676469335,783493413,world,-1.3081729412078857,-0.5863410234451294,0.12655575573444366,-0.028357701376080513,-0.04068402573466301,-0.007714948151260614,-0.9987398386001587
1676469335.7844515,16351,1676469335,783550764,world,-1.3081485033035278,-0.5863072276115417,0.12655332684516907,-0.027491958811879158,-0.04091481864452362,-0.007614143192768097,-0.9987553954124451
1676469335.794798,16352,1676469335,793347558,world,-1.308066725730896,-0.5863196849822998,0.1265045702457428,-0.027811862528324127,-0.04113578423857689,-0.008072255179286003,-0.9987338781356812
1676469335.7948153,16353,1676469335,793907327,world,-1.3080157041549683,-0.5863704681396484,0.12656252086162567,-0.02782600000500679,-0.04143209755420685,-0.007599934469908476,-0.9987249374389648
1676469335.8038988,16354,1676469335,803352923,world,-1.3079673051834106,-0.5864598751068115,0.1265651285648346,-0.029366405680775642,-0.041908156126737595,-0.007479872554540634,-0.9986618161201477
1676469335.804242,16355,1676469335,803539975,world,-1.3079246282577515,-0.5864394307136536,0.12655071914196014,-0.028593525290489197,-0.041979677975177765,-0.007636113557964563,-0.9986801147460938
1676469335.804259,16356,1676469335,803604085,world,-1.3078566789627075,-0.5864632725715637,0.12651754915714264,-0.028704289346933365,-0.04234759882092476,-0.007622722536325455,-0.998661458492279
1676469335.8140213,16357,1676469335,813311566,world,-1.3077943325042725,-0.5865415930747986,0.12653933465480804,-0.02950359880924225,-0.04256874695420265,-0.007608929183334112,-0.9986289143562317
1676469335.8145804,16358,1676469335,813473712,world,-1.3077605962753296,-0.586578905582428,0.12657050788402557,-0.02982969768345356,-0.0428633876144886,-0.007373737171292305,-0.998608410358429
1676469335.824094,16359,1676469335,823332190,world,-1.3077175617218018,-0.5865477323532104,0.12653465569019318,-0.029162157326936722,-0.04300570487976074,-0.0074793994426727295,-0.9986211061477661
1676469335.8241293,16360,1676469335,823429985,world,-1.3076651096343994,-0.5865800976753235,0.126503124833107,-0.029338601976633072,-0.043561603873968124,-0.007508669048547745,-0.9985917210578918
1676469335.834302,16361,1676469335,833385480,world,-1.3076024055480957,-0.5866355895996094,0.12654080986976624,-0.03001769445836544,-0.043822742998600006,-0.007518374361097813,-0.9985599517822266
1676469335.8343236,16363,1676469335,833564903,world,-1.3075127601623535,-0.5866401791572571,0.12653905153274536,-0.029540803283452988,-0.04398364573717117,-0.007221876177936792,-0.9985693097114563
1676469335.8440747,16364,1676469335,843318587,world,-1.3074522018432617,-0.5866856575012207,0.1265210211277008,-0.030199233442544937,-0.04453545808792114,-0.007158514577895403,-0.9985256791114807
1676469335.8441424,16365,1676469335,843494344,world,-1.307415246963501,-0.5867144465446472,0.12656354904174805,-0.030049210414290428,-0.04466182366013527,-0.007263100706040859,-0.9985237121582031
1676469335.854137,16366,1676469335,853343267,world,-1.307386040687561,-0.58670973777771,0.12656916677951813,-0.03014335036277771,-0.04486819729208946,-0.0072068823501467705,-0.9985120296478271
1676469335.8541684,16367,1676469335,853442339,world,-1.307339072227478,-0.5867220163345337,0.12653467059135437,-0.030050568282604218,-0.04493087902665138,-0.007169803138822317,-0.9985122680664062
1676469335.8641152,16368,1676469335,863415038,world,-1.3072773218154907,-0.5867917537689209,0.12653648853302002,-0.03043256141245365,-0.0452394038438797,-0.006950982380658388,-0.9984883666038513
1676469335.8644016,16369,1676469335,863614572,world,-1.307260274887085,-0.5868211984634399,0.12658336758613586,-0.030462874099612236,-0.04551853984594345,-0.007083930540829897,-0.9984738230705261
1676469335.864453,16370,1676469335,863703367,world,-1.3072259426116943,-0.586785614490509,0.1265493631362915,-0.03023124299943447,-0.04548738896846771,-0.007150747813284397,-0.998481810092926
1676469335.873996,16371,1676469335,873317219,world,-1.3071714639663696,-0.5868210196495056,0.12653864920139313,-0.03016717918217182,-0.045477401465177536,-0.007064018398523331,-0.9984848499298096
1676469335.8746223,16372,1676469335,873427940,world,-1.3071396350860596,-0.5868943333625793,0.12657420337200165,-0.0301041379570961,-0.04584074392914772,-0.007146948482841253,-0.9984694719314575
1676469335.8838415,16373,1676469335,883323973,world,-1.3071101903915405,-0.5869054794311523,0.1265854686498642,-0.030830595642328262,-0.045758381485939026,-0.006974044721573591,-0.9984523057937622
1676469335.8841407,16374,1676469335,883510452,world,-1.307091236114502,-0.586894154548645,0.12655559182167053,-0.03032480925321579,-0.04593612253665924,-0.007004531566053629,-0.9984594583511353
1676469335.8841593,16375,1676469335,883580043,world,-1.3070387840270996,-0.5869220495223999,0.12652355432510376,-0.030398622155189514,-0.04613887518644333,-0.007111455779522657,-0.9984471201896667
1676469335.8947294,16376,1676469335,893664333,world,-1.3070082664489746,-0.5869812965393066,0.1265769749879837,-0.03082779236137867,-0.046548403799533844,-0.007232035975903273,-0.9984140396118164
1676469335.8947718,16377,1676469335,893822053,world,-1.3069931268692017,-0.5869742631912231,0.12658783793449402,-0.031092466786503792,-0.04645616188645363,-0.007080883253365755,-0.9984112977981567
1676469335.9039779,16378,1676469335,903326407,world,-1.3069671392440796,-0.587003767490387,0.12658365070819855,-0.0303215142339468,-0.04639242962002754,-0.0069640823639929295,-0.9984387755393982
1676469335.9042716,16379,1676469335,903497849,world,-1.306910514831543,-0.5870211720466614,0.12654592096805573,-0.030715713277459145,-0.046704716980457306,-0.0070467558689415455,-0.9984115958213806
1676469335.914782,16380,1676469335,913380049,world,-1.3068963289260864,-0.5870898962020874,0.12660670280456543,-0.031086087226867676,-0.046746134757995605,-0.007413070648908615,-0.9983954429626465
1676469335.9148157,16381,1676469335,913567750,world,-1.3068768978118896,-0.5870798230171204,0.12659691274166107,-0.03088635765016079,-0.04663785547018051,-0.007475958205759525,-0.9984062910079956
1676469335.9148302,16382,1676469335,913644989,world,-1.3068634271621704,-0.5870965719223022,0.1265925168991089,-0.029822152107954025,-0.046653490513563156,-0.007553929928690195,-0.9984373450279236
1676469335.9240417,16383,1676469335,923344877,world,-1.3068196773529053,-0.5871520638465881,0.12659186124801636,-0.030456986278295517,-0.04681733623147011,-0.00788600742816925,-0.9984079599380493
1676469335.9243176,16384,1676469335,923525912,world,-1.3068065643310547,-0.5871976613998413,0.12663884460926056,-0.030706224963068962,-0.046889953315258026,-0.007758657447993755,-0.9983978867530823
1676469335.9339585,16385,1676469335,933316280,world,-1.3067922592163086,-0.5872111320495605,0.12662529945373535,-0.03027685359120369,-0.04692066088318825,-0.007631414104253054,-0.9984105229377747
1676469335.9353352,16386,1676469335,934747758,world,-1.3067599534988403,-0.5872247219085693,0.12661053240299225,-0.030253132805228233,-0.04705693945288658,-0.007687765173614025,-0.9984044432640076
1676469335.9354565,16387,1676469335,934939162,world,-1.3067355155944824,-0.587295651435852,0.1266234815120697,-0.030986731871962547,-0.047065865248441696,-0.007871869951486588,-0.9983800649642944
1676469335.9440281,16388,1676469335,943355663,world,-1.3067246675491333,-0.5873377919197083,0.1266525387763977,-0.03129624202847481,-0.047203097492456436,-0.007822887971997261,-0.998364269733429
1676469335.9441655,16389,1676469335,943507994,world,-1.306696891784668,-0.5873392224311829,0.12666450440883636,-0.029940729960799217,-0.04685458168387413,-0.008122186176478863,-0.9984199404716492
1676469335.9540644,16390,1676469335,953327380,world,-1.306673288345337,-0.5873961448669434,0.12663209438323975,-0.0306555088609457,-0.047232735902071,-0.007956438697874546,-0.9983817338943481
1676469335.9540994,16391,1676469335,953425749,world,-1.306647777557373,-0.5874671936035156,0.1266653835773468,-0.03091273084282875,-0.047178201377391815,-0.007989118807017803,-0.9983760714530945
1676469335.96472,16392,1676469335,963365097,world,-1.3066354990005493,-0.5874807238578796,0.12668205797672272,-0.03090815804898739,-0.04723823815584183,-0.007834822870790958,-0.9983747005462646
1676469335.9647465,16394,1676469335,963629537,world,-1.3065935373306274,-0.5875682830810547,0.1266566962003708,-0.03082476370036602,-0.047261111438274384,-0.008073498494923115,-0.9983742833137512
1676469335.9743779,16395,1676469335,973336240,world,-1.3065913915634155,-0.5876228213310242,0.12669508159160614,-0.03121715970337391,-0.04730662330985069,-0.008066106587648392,-0.9983599781990051
1676469335.974396,16396,1676469335,973433849,world,-1.3065838813781738,-0.5876297950744629,0.1266976147890091,-0.030706064775586128,-0.04718221724033356,-0.008215038105845451,-0.9983804821968079
1676469335.9838028,16397,1676469335,983306142,world,-1.306575059890747,-0.5876668691635132,0.12669579684734344,-0.0306142196059227,-0.04689483344554901,-0.00813494436442852,-0.9983974695205688
1676469335.9842193,16398,1676469335,983457566,world,-1.3065612316131592,-0.5877206325531006,0.12670442461967468,-0.03135313838720322,-0.047157444059848785,-0.007714318577200174,-0.9983655214309692
1676469335.9842908,16399,1676469335,983508232,world,-1.3064590692520142,-0.5878034234046936,0.12678571045398712,-0.031777460128068924,-0.04724651947617531,-0.006796480156481266,-0.9983546137809753
1676469335.994136,16400,1676469335,993326452,world,-1.3063230514526367,-0.5879009366035461,0.1268620640039444,-0.03200298920273781,-0.04747142642736435,-0.005570068024098873,-0.9983442425727844
1676469335.9943876,16401,1676469335,993420524,world,-1.3061004877090454,-0.588101863861084,0.12700746953487396,-0.03258976340293884,-0.04760906100273132,-0.004328423645347357,-0.9983248710632324
1676469336.0043209,16402,1676469336,3344724,world,-1.3058327436447144,-0.5884540677070618,0.12720248103141785,-0.03558569774031639,-0.04941532015800476,-0.003287340048700571,-0.9981388449668884
