Time,header.seq,header.stamp.secs,header.stamp.nsecs,header.frame_id,vector.x,vector.y,vector.z
1676469259.8309605,1,0,0,,0.42672851704638454,0.42672851704638454,0.2
1676469259.839255,2,0,0,,0.4267314968429134,0.4267314968429134,0.2
1676469259.8416712,3,0,0,,0.4267330468020961,0.4267330468020961,0.2
1676469259.852519,4,0,0,,0.4267293346498534,0.4267293346498534,0.2
1676469259.8588274,5,0,0,,0.4267111619815231,0.4267111619815231,0.2
1676469259.8716671,6,0,0,,0.42671023200601343,0.42671023200601343,0.2
1676469259.8811421,7,0,0,,0.4267086161735654,0.4267086161735654,0.2
1676469259.8913784,8,0,0,,0.42670228554653006,0.42670228554653006,0.2
1676469259.9043694,9,0,0,,0.42669965836571533,0.42669965836571533,0.2
1676469259.9109664,10,0,0,,0.42669828277694066,0.42669828277694066,0.2
1676469259.9255672,11,0,0,,0.4267201054860279,0.4267201054860279,0.2
1676469259.9322982,12,0,0,,0.4267173814327643,0.4267173814327643,0.2
1676469259.9472494,13,0,0,,0.4267175480533764,0.4267175480533764,0.2
1676469259.9548883,14,0,0,,0.4267310808340088,0.4267310808340088,0.2
1676469259.961909,15,0,0,,0.4267320960572735,0.4267320960572735,0.2
1676469259.9712343,16,0,0,,0.4267313133278862,0.4267313133278862,0.2
1676469259.9804394,17,0,0,,0.4267285737750307,0.4267285737750307,0.2
1676469259.9923353,18,0,0,,0.42664241519456736,0.42664241519456736,0.2
1676469260.0002193,19,0,0,,0.42663927265232426,0.42663927265232426,0.2
1676469260.0115514,20,0,0,,0.4266407102394663,0.4266407102394663,0.2
1676469260.026982,21,0,0,,0.42656927463100297,0.42656927463100297,0.2
1676469260.0330067,22,0,0,,0.4265694606261049,0.4265694606261049,0.2
1676469260.0418286,23,0,0,,0.42656846477732996,0.42656846477732996,0.2
1676469260.052426,24,0,0,,0.42664461505515505,0.42664461505515505,0.2
1676469260.0598917,25,0,0,,0.42664649825556206,0.42664649825556206,0.2
1676469260.0715432,26,0,0,,0.4266465408794396,0.4266465408794396,0.2
1676469260.080931,27,0,0,,0.4266449405465834,0.4266449405465834,0.2
1676469260.092344,28,0,0,,0.42667887210574007,0.42667887210574007,0.2
1676469260.099777,29,0,0,,0.42667796537961816,0.42667796537961816,0.2
1676469260.1103997,30,0,0,,0.42667734152104714,0.42667734152104714,0.2
1676469260.1269631,31,0,0,,0.4266815419104323,0.4266815419104323,0.2
1676469260.1306458,32,0,0,,0.4266395220011473,0.4266395220011473,0.2
1676469260.1401243,33,0,0,,0.4266395220011473,0.4266395220011473,0.2
1676469260.1516013,34,0,0,,0.42664111458420756,0.42664111458420756,0.2
1676469260.15918,35,0,0,,0.42661439120186495,0.42661439120186495,0.2
1676469260.172209,36,0,0,,0.42661029155982666,0.42661029155982666,0.2
1676469260.1861668,37,0,0,,0.4266123491306417,0.4266123491306417,0.2
1676469260.1929626,38,0,0,,0.42665306911071765,0.42665306911071765,0.2
1676469260.1995316,39,0,0,,0.426653580597248,0.426653580597248,0.2
1676469260.2121663,40,0,0,,0.4266561302801035,0.4266561302801035,0.2
1676469260.227206,41,0,0,,0.42665177432976664,0.42665177432976664,0.2
1676469260.2356093,42,0,0,,0.4266520223232359,0.4266520223232359,0.2
1676469260.244606,43,0,0,,0.4266527585538477,0.4266527585538477,0.2
1676469260.2528832,44,0,0,,0.4266547812505812,0.4266547812505812,0.2
1676469260.263153,45,0,0,,0.4266247780752741,0.4266247780752741,0.2
1676469260.272834,46,0,0,,0.42662649078017106,0.42662649078017106,0.2
1676469260.2817955,47,0,0,,0.42662585917180407,0.42662585917180407,0.2
1676469260.290826,48,0,0,,0.42661914486594504,0.42661914486594504,0.2
1676469260.302811,49,0,0,,0.42662408148594205,0.42662408148594205,0.2
1676469260.311313,50,0,0,,0.4266251897067577,0.4266251897067577,0.2
1676469260.3285313,51,0,0,,0.4266083425728697,0.4266083425728697,0.2
1676469260.3323133,52,0,0,,0.42660563401919793,0.42660563401919793,0.2
1676469260.342453,53,0,0,,0.4266101676498074,0.4266101676498074,0.2
1676469260.3525336,54,0,0,,0.42660612613123844,0.42660612613123844,0.2
1676469260.3603225,55,0,0,,0.4266003980788402,0.4266003980788402,0.2
1676469260.3722188,56,0,0,,0.426601855040472,0.426601855040472,0.2
1676469260.382951,57,0,0,,0.42659916586129,0.42659916586129,0.2
1676469260.3915558,58,0,0,,0.4265548049299093,0.4265548049299093,0.2
1676469260.4023993,59,0,0,,0.42655444068950144,0.42655444068950144,0.2
1676469260.4097834,60,0,0,,0.4265552505431744,0.4265552505431744,0.2
1676469260.4246392,61,0,0,,0.42655278998297175,0.42655278998297175,0.2
1676469260.4318209,62,0,0,,0.4264916189862229,0.4264916189862229,0.2
1676469260.4430804,63,0,0,,0.42649134774336594,0.42649134774336594,0.2
1676469260.4514327,64,0,0,,0.42648886780867357,0.42648886780867357,0.2
1676469260.4625068,65,0,0,,0.42644873560988344,0.42644873560988344,0.2
1676469260.4719553,66,0,0,,0.4264518200286571,0.4264518200286571,0.2
1676469260.4799767,67,0,0,,0.4264510954227392,0.4264510954227392,0.2
1676469260.4930491,68,0,0,,0.4264650626623864,0.4264650626623864,0.2
1676469260.499792,69,0,0,,0.4264673914760584,0.4264673914760584,0.2
1676469260.5101657,70,0,0,,0.426465004538917,0.426465004538917,0.2
1676469260.5273793,71,0,0,,0.42646257885279604,0.42646257885279604,0.2
1676469260.5320914,72,0,0,,0.4264542323835194,0.4264542323835194,0.2
1676469260.5393858,73,0,0,,0.42645896750882273,0.42645896750882273,0.2
1676469260.5524821,74,0,0,,0.426458223528415,0.426458223528415,0.2
1676469260.5608397,75,0,0,,0.4264576141018048,0.4264576141018048,0.2
1676469260.5719595,76,0,0,,0.4264586293250695,0.4264586293250695,0.2
1676469260.5825403,77,0,0,,0.4264567616242543,0.4264567616242543,0.2
1676469260.5908563,78,0,0,,0.4264855602034927,0.4264855602034927,0.2
1676469260.6009834,79,0,0,,0.4264855602034927,0.4264855602034927,0.2
1676469260.6098013,80,0,0,,0.42648719541043045,0.42648719541043045,0.2
1676469260.625712,81,0,0,,0.42648428536206484,0.42648428536206484,0.2
1676469260.632355,82,0,0,,0.4264584263912961,0.4264584263912961,0.2
1676469260.6396737,83,0,0,,0.42645510172884915,0.42645510172884915,0.2
1676469260.6534376,84,0,0,,0.42645690355639904,0.42645690355639904,0.2
1676469260.6615977,85,0,0,,0.426482103704731,0.426482103704731,0.2
1676469260.671578,86,0,0,,0.42648198358289435,0.42648198358289435,0.2
1676469260.6863983,87,0,0,,0.4264827275633021,0.4264827275633021,0.2
1676469260.6908941,88,0,0,,0.4264697189552198,0.4264697189552198,0.2
1676469260.6993837,89,0,0,,0.42646997082358695,0.42646997082358695,0.2
1676469260.7109292,90,0,0,,0.4264699088252197,0.4264699088252197,0.2
1676469260.7262452,91,0,0,,0.42646034959089946,0.42646034959089946,0.2
1676469260.7310002,92,0,0,,0.42646034959089946,0.42646034959089946,0.2
1676469260.7404475,93,0,0,,0.4264597993553896,0.4264597993553896,0.2
1676469260.7509816,94,0,0,,0.4264599349768181,0.4264599349768181,0.2
1676469260.759798,95,0,0,,0.42648645621473674,0.42648645621473674,0.2
1676469260.7719257,96,0,0,,0.42648489850575805,0.42648489850575805,0.2
1676469260.7815692,97,0,0,,0.4264853092449415,0.4264853092449415,0.2
1676469260.7923024,98,0,0,,0.4264482975667808,0.4264482975667808,0.2
1676469260.8028588,99,0,0,,0.4264498707753513,0.4264498707753513,0.2
1676469260.8094263,100,0,0,,0.42644860368371945,0.42644860368371945,0.2
1676469260.8265314,101,0,0,,0.4264132981624827,0.4264132981624827,0.2
1676469260.83206,102,0,0,,0.4264143172606454,0.4264143172606454,0.2
1676469260.8403785,103,0,0,,0.4264170219394192,0.4264170219394192,0.2
1676469260.85223,104,0,0,,0.42641382127370686,0.42641382127370686,0.2
1676469260.8604128,105,0,0,,0.4263469641991705,0.4263469641991705,0.2
1676469260.8719902,106,0,0,,0.4263500873669237,0.4263500873669237,0.2
1676469260.8813448,107,0,0,,0.42634914964161813,0.42634914964161813,0.2
1676469260.8934054,108,0,0,,0.42638324026033286,0.42638324026033286,0.2
1676469260.9025548,109,0,0,,0.4263872507797182,0.4263872507797182,0.2
1676469260.9097977,110,0,0,,0.4263883628754318,0.4263883628754318,0.2
1676469260.924451,111,0,0,,0.42642437283053064,0.42642437283053064,0.2
1676469260.9310894,112,0,0,,0.4264207730503287,0.4264207730503287,0.2
1676469260.9441912,113,0,0,,0.426425329930326,0.426425329930326,0.2
1676469260.9492764,114,0,0,,0.4264216642768588,0.4264216642768588,0.2
1676469260.9628904,115,0,0,,0.4264476026243065,0.4264476026243065,0.2
1676469260.9715574,116,0,0,,0.4264443864590023,0.4264443864590023,0.2
1676469260.9809253,117,0,0,,0.42644491732002243,0.42644491732002243,0.2
1676469260.9908674,118,0,0,,0.4264761054062983,0.4264761054062983,0.2
1676469261.0015264,119,0,0,,0.426473175983443,0.426473175983443,0.2
1676469261.0107405,120,0,0,,0.42647270324589226,0.42647270324589226,0.2
1676469261.0256119,121,0,0,,0.42647598915935964,0.42647598915935964,0.2
1676469261.0322845,122,0,0,,0.42646008332971486,0.42646008332971486,0.2
1676469261.04153,123,0,0,,0.4264606839388982,0.4264606839388982,0.2
1676469261.0511227,124,0,0,,0.42646297787848864,0.42646297787848864,0.2
1676469261.0602622,125,0,0,,0.42646660143861553,0.42646660143861553,0.2
1676469261.0715969,126,0,0,,0.4264659388310649,0.4264659388310649,0.2
1676469261.0830443,127,0,0,,0.4264655939651467,0.4264655939651467,0.2
1676469261.0911796,128,0,0,,0.4264623011927493,0.4264623011927493,0.2
1676469261.1004026,129,0,0,,0.4264628243039735,0.4264628243039735,0.2
1676469261.1104474,130,0,0,,0.42646151071356614,0.42646151071356614,0.2
1676469261.1260183,131,0,0,,0.42649904800967314,0.42649904800967314,0.2
1676469261.131891,132,0,0,,0.4265002066041623,0.4265002066041623,0.2
1676469261.1391392,133,0,0,,0.4264991991306935,0.4264991991306935,0.2
1676469261.1551847,134,0,0,,0.4264991448821221,0.4264991448821221,0.2
1676469261.1618054,135,0,0,,0.42655290653433653,0.42655290653433653,0.2
1676469261.1770153,136,0,0,,0.42655269341494895,0.42655269341494895,0.2
1676469261.1873946,137,0,0,,0.42655348776903007,0.42655348776903007,0.2
1676469261.1965194,138,0,0,,0.42658412221847103,0.42658412221847103,0.2
1676469261.1998804,139,0,0,,0.42658238626418643,0.42658238626418643,0.2
1676469261.2123404,140,0,0,,0.42658203752337026,0.42658203752337026,0.2
1676469261.2248247,141,0,0,,0.4266018485040497,0.4266018485040497,0.2
1676469261.233006,142,0,0,,0.42659988393078563,0.42659988393078563,0.2
1676469261.2394483,143,0,0,,0.4266000583011937,0.4266000583011937,0.2
1676469261.2509418,144,0,0,,0.42660402619670146,0.42660402619670146,0.2
1676469261.2596097,145,0,0,,0.4266042154180166,0.4266042154180166,0.2
1676469261.2714238,146,0,0,,0.4266058661245462,0.4266058661245462,0.2
1676469261.281587,147,0,0,,0.42660783457270823,0.42660783457270823,0.2
1676469261.291928,148,0,0,,0.42657520486538303,0.42657520486538303,0.2
1676469261.2997854,149,0,0,,0.4265731899184455,0.4265731899184455,0.2
1676469261.3105612,150,0,0,,0.42657418576722034,0.42657418576722034,0.2
1676469261.326708,151,0,0,,0.42659369914647194,0.42659369914647194,0.2
1676469261.3346908,152,0,0,,0.42659421450790025,0.42659421450790025,0.2
1676469261.3412616,153,0,0,,0.42659569859381774,0.42659569859381774,0.2
1676469261.3518767,154,0,0,,0.42659444312687966,0.42659444312687966,0.2
1676469261.3601363,155,0,0,,0.4265949194431398,0.4265949194431398,0.2
1676469261.371724,156,0,0,,0.4265964616525267,0.4265964616525267,0.2
1676469261.3823051,157,0,0,,0.42659710101068954,0.42659710101068954,0.2
1676469261.3921206,158,0,0,,0.4265811206768919,0.4265811206768919,0.2
1676469261.3998997,159,0,0,,0.4265820274030138,0.4265820274030138,0.2
1676469261.411115,160,0,0,,0.4265827985077072,0.4265827985077072,0.2
1676469261.423654,161,0,0,,0.4265838369803596,0.4265838369803596,0.2
1676469261.4324956,162,0,0,,0.42657985199430026,0.42657985199430026,0.2
1676469261.4416206,163,0,0,,0.4265827620426659,0.4265827620426659,0.2
1676469261.4598703,164,0,0,,0.4265803983549122,0.4265803983549122,0.2
1676469261.4667032,165,0,0,,0.42657110694149514,0.42657110694149514,0.2
1676469261.4717832,166,0,0,,0.42657110694149514,0.42657110694149514,0.2
1676469261.4802203,167,0,0,,0.4265722926602699,0.4265722926602699,0.2
1676469261.4924204,168,0,0,,0.4265940607485176,0.4265940607485176,0.2
1676469261.4998193,169,0,0,,0.4265928052815795,0.4265928052815795,0.2
1676469261.512072,170,0,0,,0.42658913962811235,0.42658913962811235,0.2
1676469261.5223682,171,0,0,,0.4266099084419385,0.4266099084419385,0.2
1676469261.5306814,172,0,0,,0.4266106407976524,0.4266106407976524,0.2
1676469261.5403636,173,0,0,,0.4266098193192855,0.4266098193192855,0.2
1676469261.5524852,174,0,0,,0.4266098193192855,0.4266098193192855,0.2
1676469261.5619042,175,0,0,,0.4266284007886052,0.4266284007886052,0.2
1676469261.5718527,176,0,0,,0.42663068310350183,0.42663068310350183,0.2
1676469261.583334,177,0,0,,0.42663004374533897,0.42663004374533897,0.2
1676469261.5926087,178,0,0,,0.42664018718240787,0.42664018718240787,0.2
1676469261.6038315,179,0,0,,0.4266387767195516,0.4266387767195516,0.2
1676469261.610469,180,0,0,,0.4266372693842464,0.4266372693842464,0.2
1676469261.6260128,181,0,0,,0.42663708726404237,0.42663708726404237,0.2
1676469261.6338258,182,0,0,,0.42664175968194384,0.42664175968194384,0.2
1676469261.6403542,183,0,0,,0.4266407909574546,0.4266407909574546,0.2
1676469261.6500325,184,0,0,,0.4266440536215343,0.4266440536215343,0.2
1676469261.660892,185,0,0,,0.4266404499664344,0.4266404499664344,0.2
1676469261.672373,186,0,0,,0.42664249591255565,0.42664249591255565,0.2
1676469261.6849885,187,0,0,,0.4257465465284139,0.4257465465284139,0.2
1676469261.6915333,188,0,0,,0.425737917130664,0.425737917130664,0.2
1676469261.702707,189,0,0,,0.4257384944904596,0.4257384944904596,0.2
1676469261.7124028,190,0,0,,0.42573652604229756,0.42573652604229756,0.2
1676469261.7228906,191,0,0,,0.42659447683930396,0.42659447683930396,0.2
1676469261.7302706,192,0,0,,0.42659712339460854,0.42659712339460854,0.2
1676469261.7428615,193,0,0,,0.42659712339460854,0.42659712339460854,0.2
1676469261.7516713,194,0,0,,0.42654736987261566,0.42654736987261566,0.2
1676469261.7623143,195,0,0,,0.42654834247200285,0.42654834247200285,0.2
1676469261.7703092,196,0,0,,0.42654011218874255,0.42654011218874255,0.2
1676469261.7805254,197,0,0,,0.4265401935615996,0.4265401935615996,0.2
1676469261.7914205,198,0,0,,0.426513973289819,0.426513973289819,0.2
1676469261.8008735,199,0,0,,0.42650764945635344,0.42650764945635344,0.2
1676469261.8094165,200,0,0,,0.42648109478065516,0.42648109478065516,0.2
1676469261.8248076,201,0,0,,0.424869705529213,0.424869705529213,0.2
1676469261.8303168,202,0,0,,0.4248220326596499,0.4248220326596499,0.2
1676469261.8443234,203,0,0,,0.42476749347090725,0.42476749347090725,0.2
1676469261.8507922,204,0,0,,0.4238892869994044,0.4238892869994044,0.2
1676469261.862883,205,0,0,,0.4238618992206455,0.4238618992206455,0.2
1676469261.869224,206,0,0,,0.4238618992206455,0.4238618992206455,0.2
1676469261.8881269,207,0,0,,0.423858665124476,0.423858665124476,0.2
1676469261.891082,208,0,0,,0.4238692125967145,0.4238692125967145,0.2
1676469261.9033995,209,0,0,,0.423856956294477,0.423856956294477,0.2
1676469261.9100041,210,0,0,,0.4238247946414352,0.4238247946414352,0.2
1676469261.9219816,211,0,0,,0.4244042186635733,0.4244042186635733,0.2
1676469261.9304185,212,0,0,,0.424414212025404,0.424414212025404,0.2
1676469261.9457088,213,0,0,,0.424395624139905,0.424395624139905,0.2
1676469261.9519274,214,0,0,,0.42493999830499296,0.42493999830499296,0.2
1676469261.9608655,215,0,0,,0.42493320948377256,0.42493320948377256,0.2
1676469261.9739616,216,0,0,,0.4249228867556155,0.4249228867556155,0.2
1676469261.9829185,217,0,0,,0.42490969272807244,0.42490969272807244,0.2
1676469261.992454,218,0,0,,0.4259090850231424,0.4259090850231424,0.2
1676469262.0013564,219,0,0,,0.42589663497600705,0.42589663497600705,0.2
1676469262.0112514,220,0,0,,0.4258906715080515,0.4258906715080515,0.2
1676469262.0249646,221,0,0,,0.4262925967273117,0.4262925967273117,0.2
1676469262.0322945,222,0,0,,0.4262825607416034,0.4262825607416034,0.2
1676469262.0424657,223,0,0,,0.4262861178979278,0.4262861178979278,0.2
1676469262.050298,224,0,0,,0.42660509076707065,0.42660509076707065,0.2
1676469262.0600035,225,0,0,,0.42660980651788416,0.42660980651788416,0.2
1676469262.0739148,226,0,0,,0.4266125731950254,0.4266125731950254,0.2
1676469262.0864387,227,0,0,,0.42579314662929624,0.42579314662929624,0.2
1676469262.0933833,228,0,0,,0.4257910076856241,0.4257910076856241,0.2
1676469262.103115,229,0,0,,0.4257855285799131,0.4257855285799131,0.2
1676469262.1103308,230,0,0,,0.4257855285799131,0.4257855285799131,0.2
1676469262.122234,231,0,0,,0.4257435123410076,0.4257435123410076,0.2
1676469262.1314354,232,0,0,,0.42573630503080784,0.42573630503080784,0.2
1676469262.1493404,233,0,0,,0.4257355649252981,0.4257355649252981,0.2
1676469262.1534705,234,0,0,,0.42570076976671817,0.42570076976671817,0.2
1676469262.1623535,235,0,0,,0.4257017966146768,0.4257017966146768,0.2
1676469262.1713006,236,0,0,,0.4256967204983533,0.4256967204983533,0.2
1676469262.1845772,237,0,0,,0.42568347609713675,0.42568347609713675,0.2
1676469262.1915374,238,0,0,,0.42507839895650745,0.42507839895650745,0.2
1676469262.199898,239,0,0,,0.42502657219633466,0.42502657219633466,0.2
1676469262.2138903,240,0,0,,0.42611605688733983,0.42499110138043766,0.2011249555069022
1676469262.223753,241,0,0,,0.41429969807606565,0.41211417171061043,0.20218552636545525
1676469262.2308114,242,0,0,,0.41496272641913823,0.41171860701859003,0.2032441194005482
1676469262.2425995,243,0,0,,0.4156462939221494,0.41134544728517536,0.20430084663697406
1676469262.2499747,244,0,0,,0.3494616777238332,0.3444386378973723,0.20502303982646095
1676469262.2618878,245,0,0,,0.3480516899141841,0.34231706476390367,0.20573462515028046
1676469262.2725625,246,0,0,,0.3480859908481412,0.3416431499481201,0.20644284090002105
1676469262.2825384,247,0,0,,0.34513047114747986,0.33799764203727245,0.20713282911020742
1676469262.2906506,248,0,0,,0.2100137854269855,0.20286662320077423,0.2071471622262113
1676469262.3015766,249,0,0,,0.2062927903979622,0.1991498787778616,0.2071429116201006
1676469262.3120282,250,0,0,,0.2034857131891154,0.19636099658608439,0.20712471660303103
1676469262.3239837,251,0,0,,0.10797785148899779,0.10134640287160873,0.20663144861738905
1676469262.330505,252,0,0,,0.10252450476117059,0.09641100113809108,0.2061135036230795
1676469262.3434546,253,0,0,,0.09663454904730844,0.09106571684002879,0.20556883220727967
1676469262.3516123,254,0,0,,0.039352315774404276,0.03461043141007425,0.20474188436433002
1676469262.3613474,255,0,0,,0.03282160023472235,0.028935040667057044,0.20388655956766533
1676469262.3714437,256,0,0,,0.028095404173546282,0.025083427468538283,0.203011976705008
1676469262.387974,257,0,0,,0.023412171180050834,0.021293725845813766,0.2021184453342371
1676469262.3944638,258,0,0,,0.026224616528754678,0.024981264870166775,0.20124335165858792
1676469262.4019868,259,0,0,,0.023560392799305156,0.02320103596091269,0.20035935683839248
1676469262.4094765,260,0,0,,0.017385750112878507,0.01793670972585676,0.19944904038702177
1676469262.4250612,261,0,0,,0.05126789440299795,0.05255607364773751,0.19871182075526045
1676469262.4305627,262,0,0,,0.04732301669338271,0.04936437406778335,0.19795864262559937
1676469262.443021,263,0,0,,0.041958765024381145,0.0447762411928177,0.19718252383156346
1676469262.4503093,264,0,0,,0.08388536421331688,0.08726650784254074,0.19661885637077617
1676469262.4631069,265,0,0,,0.0792736002986543,0.08323855117201806,0.19603504912663625
1676469262.4721081,266,0,0,,0.07743084655987548,0.08198586809277536,0.19544497846710013
1676469262.4880536,267,0,0,,0.072061730095952,0.07723059863567353,0.1948311314602785
1676469262.4924102,268,0,0,,0.1302961866810553,0.13578612459778788,0.19451006208326743
1676469262.5023725,269,0,0,,0.12597737969930692,0.13180827623486518,0.19416910346444174
1676469262.5109143,270,0,0,,0.12385400569404886,0.13003472858667375,0.19381927710737512
1676469262.521927,271,0,0,,0.16228794612303898,0.16862554130911828,0.19366240481392072
1676469262.53178,272,0,0,,0.15973653437786028,0.1662429149889946,0.1934936193888657
1676469262.54188,273,0,0,,0.15739247103308962,0.1640784593474865,0.19331401168560314
1676469262.5518234,274,0,0,,0.19234233492041755,0.19903315744757655,0.19330917747284102
1676469262.5613594,275,0,0,,0.1904541346315198,0.19715916135191922,0.1932949732796006
1676469262.5720768,276,0,0,,0.18928927998595166,0.19601423552870753,0.19327504445724414
1676469262.585162,277,0,0,,0.18869068386455104,0.19543844717144968,0.19325223669310138
1676469262.5910962,278,0,0,,0.19976653597787544,0.2064818898355961,0.19328464614227936
1676469262.6038008,279,0,0,,0.19762865174836444,0.20432239363789562,0.19330625811046884
1676469262.6108,280,0,0,,0.19604082928007768,0.20272096633791925,0.19331986294215844
1676469262.6231868,281,0,0,,0.19462704927937316,0.20130068292260173,0.19332636635677145
1676469262.6303177,282,0,0,,0.1924155478341334,0.19909371291279795,0.19332183492133545
1676469262.6421123,283,0,0,,0.191301219877439,0.19798943776726724,0.19331178211017178
1676469262.6538339,284,0,0,,0.18068862060116456,0.18743964028954507,0.1932489803116195
1676469262.6628916,285,0,0,,0.17944025202438163,0.18625997185349466,0.19318028017088698
1676469262.671218,286,0,0,,0.17812383089740202,0.18501845843434334,0.1931053724630587
1676469262.686622,287,0,0,,0.15825478369646595,0.16532279724717142,0.19293198644929455
1676469262.6936905,288,0,0,,0.15743676749212668,0.1646813741719723,0.1927553933201544
1676469262.7015624,289,0,0,,0.1545124440568142,0.16194731416583064,0.19256512989098357
1676469262.710018,290,0,0,,0.15291986036783384,0.1605519706237316,0.19236788974410224
1676469262.7215106,291,0,0,,0.14160711624278352,0.14949176766037942,0.19211534858240412
1676469262.7301495,292,0,0,,0.1384382415850155,0.1465899432861805,0.191848298298835
1676469262.7463226,293,0,0,,0.13820188397648858,0.14662048326134683,0.19158140071514176
1676469262.752859,294,0,0,,0.13152575086346793,0.14024313447594644,0.1912826163875215
1676469262.7613454,295,0,0,,0.13051350060804415,0.1395332181298733,0.19098028247817087
1676469262.7719345,296,0,0,,0.12877181345939562,0.13810102585196496,0.19067078760743067
1676469262.782578,297,0,0,,0.1263241925851755,0.1359735372912884,0.19035065529388712
1676469262.7900198,298,0,0,,0.13262814736084863,0.1425646687233448,0.19006347863750384
1676469262.8010745,299,0,0,,0.12958531158291625,0.13982271934866908,0.18976259223424718
1676469262.810008,300,0,0,,0.12731145287812876,0.1378595628297329,0.18945189004839585
1676469262.8218586,301,0,0,,0.13753976114817187,0.1483461403977871,0.1891936207503848
1676469262.831024,302,0,0,,0.1360451396307342,0.14711593918442728,0.18892920044630693
1676469262.841599,303,0,0,,0.1328322589898281,0.14418214780449867,0.18865011118532943
1676469262.8510833,304,0,0,,0.14961817122074295,0.16116224879145624,0.18845592242928672
1676469262.8615053,305,0,0,,0.14781522914072798,0.15956149921536447,0.18825372992536352
1676469262.8695862,306,0,0,,0.14710754217671082,0.1590585196530819,0.18804902252362893
1676469262.8850832,307,0,0,,0.14543426393508244,0.15759725513577463,0.18783700879930781
1676469262.891765,308,0,0,,0.15646561360636876,0.16878468140006067,0.1876809322063081
1676469262.9003372,309,0,0,,0.15450901100053122,0.1669931132280827,0.18751589777244854
1676469262.9101386,310,0,0,,0.15390197493555471,0.16655331061005593,0.1873486643254988
1676469262.9245949,311,0,0,,0.16299859831100033,0.17577107859253885,0.1872275197184615
1676469262.930998,312,0,0,,0.1616829886096351,0.1745825561106205,0.1871004324990146
1676469262.9432642,313,0,0,,0.1612110570152812,0.17423942737936976,0.18697162963591146
1676469262.951996,314,0,0,,0.1687359736617558,0.1818550686824322,0.1868809049793236
1676469262.9608014,315,0,0,,0.16755345496323631,0.18076870645165444,0.1867847485115819
1676469262.9707396,316,0,0,,0.16675033665801212,0.18006526183724403,0.1866850748207681
1676469262.9857762,317,0,0,,0.1659681045110278,0.17938609919428827,0.18658200531673955
1676469262.9916015,318,0,0,,0.16850902182570626,0.18201693184971812,0.18649208997598815
1676469263.0015233,319,0,0,,0.16701581124213266,0.1806206181752682,0.18639519306686447
1676469263.014136,320,0,0,,0.166233393917536,0.17993850830912592,0.18629488560841012
1676469263.0231571,321,0,0,,0.16475405837411214,0.17856634106040004,0.18618771731371211
1676469263.0312421,322,0,0,,0.16359261307365822,0.17751730921387673,0.1860753038597815
1676469263.0466082,323,0,0,,0.16277989311242627,0.17682048681855203,0.18595940629387425
1676469263.0522442,324,0,0,,0.15983651909713673,0.17400707741618157,0.18582944168095517
1676469263.0616653,325,0,0,,0.15898746240438746,0.17329156290888786,0.1856958994954996
1676469263.0719543,326,0,0,,0.1577573240077369,0.17220042240023614,0.18555690160750077
1676469263.0872676,327,0,0,,0.15556612749357748,0.17015843371748926,0.18540769377608823
1676469263.0958023,328,0,0,,0.15466739607094454,0.16941263909935952,0.18525475697158503
1676469263.1029804,329,0,0,,0.153802380557435,0.16870410307049752,0.18509827748693752
1676469263.109975,330,0,0,,0.15291277128912137,0.16797462069869043,0.18493815059043095
1676469263.1218603,331,0,0,,0.15366412534651086,0.16888156692147255,0.18478255842503832
1676469263.1312466,332,0,0,,0.15169998945015598,0.16708202092051508,0.1846179685296409
1676469263.1454613,333,0,0,,0.1508275009569578,0.16637764420628548,0.18444985675067233
1676469263.153084,334,0,0,,0.15281116772313044,0.16851871738553048,0.18429245033759997
1676469263.161255,335,0,0,,0.1516014578168683,0.16747164923310282,0.1841298085837655
1676469263.1722794,336,0,0,,0.1511077302575104,0.16714221062064172,0.1839655196368687
1676469263.18542,337,0,0,,0.15333280364670085,0.16951968558192254,0.18381311806477832
1676469263.190645,338,0,0,,0.15319563863929436,0.16953484634280205,0.18366079229649232
1676469263.2026534,339,0,0,,0.15174159995677994,0.1682396096122265,0.18350199034455345
1676469263.2130818,340,0,0,,0.15061535371178314,0.16727697847485543,0.18333837523692773
1676469263.2272284,341,0,0,,0.15620433359455393,0.17300095358967782,0.18320338000487613
1676469263.23117,342,0,0,,0.15515425082950518,0.1720904187309742,0.183063832098531
1676469263.241202,343,0,0,,0.15442655738310146,0.17150519928812982,0.18292135809497165
1676469263.2523003,344,0,0,,0.15824962132823395,0.1754510081923008,0.18279861313593315
1676469263.2626324,345,0,0,,0.1569999482479744,0.174329686678648,0.1826702615693264
1676469263.271425,346,0,0,,0.15659993601894306,0.17405937756180764,0.18254055845713543
1676469263.2831125,347,0,0,,0.15965885396343993,0.17723213483214378,0.18242671913129616
1676469263.290467,348,0,0,,0.1590063924829714,0.17669619238972664,0.18231020009324478
1676469263.3016024,349,0,0,,0.15782906213154124,0.1756406587445736,0.18218840338696765
1676469263.3131442,350,0,0,,0.15718937479571032,0.1751253446853161,0.18206403011039424
1676469263.322353,351,0,0,,0.16052884210846946,0.1785719522368908,0.18195688987157868
1676469263.3298328,352,0,0,,0.15964846259173082,0.1778025599205494,0.18184590267118142
1676469263.3427296,353,0,0,,0.15878667468002367,0.17705549453616143,0.18173118014386225
1676469263.3509064,354,0,0,,0.16021875199291635,0.1785945988547802,0.18162415313813615
1676469263.365389,355,0,0,,0.15985324220247793,0.17833740205407145,0.1815158401484065
1676469263.3718636,356,0,0,,0.15901649597077297,0.1776125928580761,0.18140390311269688
1676469263.3830905,357,0,0,,0.15996088339244652,0.17866366196990013,0.1812972214225464
1676469263.3914406,358,0,0,,0.15939722375962662,0.17820895754933358,0.18118826621029305
1676469263.4011614,359,0,0,,0.15855575921397735,0.1774800925409794,0.18107566667299796
1676469263.4129415,360,0,0,,0.1577316531747334,0.1767721258723736,0.1809595273023598
1676469263.4231262,361,0,0,,0.16038352867997216,0.17952636952996254,0.18085715915000963
1676469263.430117,362,0,0,,0.15957586220879483,0.17882458015799524,0.1807512820507996
1676469263.4470541,363,0,0,,0.15878794127723503,0.17814592957854272,0.18064201169869232
1676469263.4514565,364,0,0,,0.16050438539166378,0.17996256088852883,0.18054182450313497
1676469263.4635208,365,0,0,,0.15995499634097143,0.17951559386849403,0.18043940247247742
1676469263.4698014,366,0,0,,0.15917798649116682,0.17884436220765115,0.18033362428351568
1676469263.4874253,367,0,0,,0.15886198106774616,0.17863518087983132,0.18022680018791484
1676469263.4929414,368,0,0,,0.16095064451014923,0.1808197455942631,0.18013089891588616
1676469263.503508,369,0,0,,0.15998169701489734,0.17995104288458824,0.1800306541303091
1676469263.5126143,370,0,0,,0.15941899586179184,0.1794908872950077,0.17992810856678415
1676469263.5220654,371,0,0,,0.1600985717593007,0.1802691176044941,0.1798294541548066
1676469263.530664,372,0,0,,0.159108967361974,0.17938260020613672,0.17972636715583729
1676469263.54571,373,0,0,,0.15855621733879374,0.17893517431139946,0.1796210430273943
1676469263.5525289,374,0,0,,0.15891244664339949,0.17939443145871165,0.17951801518468785
1676469263.561427,375,0,0,,0.15815482569182443,0.17874309503197672,0.17941173065984772
1676469263.5726655,376,0,0,,0.15759588803400923,0.1782926939046383,0.17930319412937093
1676469263.5856185,377,0,0,,0.15836321920232105,0.1791642040526867,0.17919901514963435
1676469263.5916948,378,0,0,,0.15826673699659038,0.1791718625342846,0.1790948744623058
1676469263.5995858,379,0,0,,0.15728236781125593,0.17829601328253747,0.17898635452871847
1676469263.6137955,380,0,0,,0.15675182669759916,0.17787609171032906,0.1788757349872701
1676469263.618809,381,0,0,,0.15929970686978623,0.18052136505723,0.17877834181255625
1676469263.6306913,382,0,0,,0.15791804636423518,0.17924348711609842,0.17867455924813674
1676469263.6417172,383,0,0,,0.15761359322854807,0.1790438149058819,0.17856977832266618
1676469263.6521025,384,0,0,,0.15884892625871827,0.18037726162791254,0.17847166463080572
1676469263.661441,385,0,0,,0.15834517958505676,0.1799736467206478,0.17837153286440896
1676469263.6716118,386,0,0,,0.15743258576890157,0.17916522677063942,0.17826735899826218
1676469263.6839733,387,0,0,,0.1569311233098917,0.17876991473793985,0.17816120857195186
1676469263.6915214,388,0,0,,0.15817609637213872,0.1801143162190914,0.17806178015304733
1676469263.7015603,389,0,0,,0.15768153016326952,0.1797211442887783,0.1779603858744912
1676469263.7120686,390,0,0,,0.15699092434073614,0.17913486414551735,0.1778560601952188
1676469263.7224944,391,0,0,,0.1598022943594508,0.18203605389475824,0.17776624046469258
1676469263.7303019,392,0,0,,0.1591470380369537,0.18147343042016031,0.1776736076167934
1676469263.7503254,393,0,0,,0.15868411403857993,0.18110498151421547,0.17757913252436447
1676469263.7556505,394,0,0,,0.1606273465154998,0.18313255123496056,0.17749479528053927
1676469263.7655637,395,0,0,,0.16035047218403148,0.18294097204327583,0.17740950014075565
1676469263.770096,396,0,0,,0.15973022586888003,0.18240868231654167,0.17732154355233837
1676469263.7858064,397,0,0,,0.15947329146886396,0.18224054519057276,0.17723274627829122
1676469263.7924066,398,0,0,,0.16193998754248548,0.18478332464098932,0.17715666290149618
1676469263.8016524,399,0,0,,0.16082313452628183,0.18374773295998575,0.1770754015662961
1676469263.8124073,400,0,0,,0.1605696719618075,0.18357638845324517,0.17699328350856233
1676469263.82243,401,0,0,,0.16110337044889259,0.18418914123415947,0.17691422921473313
1676469263.8310897,402,0,0,,0.1606731377391331,0.18383970997452737,0.17683342776460576
1676469263.844567,403,0,0,,0.1602585571780615,0.18350759145617487,0.17675096572188664
1676469263.8520086,404,0,0,,0.1599466140931599,0.1832792521107197,0.17666736198244024
1676469263.8628716,405,0,0,,0.1593466960221343,0.18276550650715828,0.17658118951497603
1676469263.872748,406,0,0,,0.15908151126505066,0.18258738482594492,0.17649412643910575
1676469263.8880277,407,0,0,,0.1582657109196,0.18186227311491968,0.17640343780468035
1676469263.8936508,408,0,0,,0.15800540368994404,0.1816934983932972,0.17631190529664684
1676469263.9011323,409,0,0,,0.15773424625812102,0.18151476712584497,0.17621947913227606
1676469263.9123282,410,0,0,,0.1571210317924373,0.18099656981110573,0.17612446198133158
1676469263.9226604,411,0,0,,0.1579145784400039,0.1818807128942013,0.17603386554580258
1676469263.9304218,412,0,0,,0.15730283999707625,0.18136216363310814,0.17594067636396812
1676469263.9420197,413,0,0,,0.15668269309502172,0.18083782759308817,0.17584486550193357
1676469263.951048,414,0,0,,0.1579899300394528,0.1822338950622082,0.17575603497724462
1676469263.9611855,415,0,0,,0.1573933776745968,0.18172869920134546,0.17566467847325135
1676469263.9725282,416,0,0,,0.1568174924046986,0.1812465810263157,0.17557091137838293
1676469263.9863925,417,0,0,,0.15856795107853938,0.18308163154244425,0.17548631953609514
1676469263.9920745,418,0,0,,0.1579620745095484,0.18256294027209283,0.1753991342374556
1676469264.001515,419,0,0,,0.15722298529574205,0.18191427965998652,0.17530870563575554
1676469264.0123134,420,0,0,,0.15696231327804255,0.18174488322615626,0.1752174300518863
1676469264.023123,421,0,0,,0.15984918570220996,0.18470821457743647,0.1751409711247735
1676469264.0321183,422,0,0,,0.15946342140234637,0.18440044803738595,0.17506297336496043
1676469264.0416095,423,0,0,,0.15904444783224392,0.1840611686241627,0.17498327920808124
1676469264.053021,424,0,0,,0.16057044028943704,0.18565886674761772,0.17491157354181933
1676469264.0639813,425,0,0,,0.16004028967375086,0.18520270261883737,0.1748375870549135
1676469264.072593,426,0,0,,0.15968082496528552,0.18491864468693733,0.1747621802783482
1676469264.083161,427,0,0,,0.15993338128972578,0.18524497613072397,0.17468840515900183
1676469264.0913186,428,0,0,,0.15955508792173792,0.18494197289824488,0.17461311502349305
1676469264.1022015,429,0,0,,0.15920638645874785,0.1846699218261242,0.17453646463262368
1676469264.1124718,430,0,0,,0.15882546002010034,0.18436715958952904,0.1744583004305713
1676469264.122327,431,0,0,,0.15993619689858482,0.18555014573931694,0.1743860511592679
1676469264.1302361,432,0,0,,0.15915776370501444,0.18484747516989708,0.17431028853511737
1676469264.142435,433,0,0,,0.15892285401591585,0.18468911988139153,0.17423373413452434
1676469264.1520538,434,0,0,,0.15901548913732694,0.18485746766448022,0.17415802147284673
1676469264.1624,435,0,0,,0.15848390959568545,0.18440386877894402,0.17408004081674144
1676469264.1696742,436,0,0,,0.15826193082327772,0.18426058707118037,0.17400134375209736
1676469264.1824057,437,0,0,,0.15803219136652277,0.18411029613375665,0.17392189523276613
1676469264.1907244,438,0,0,,0.15766597890351938,0.1838249588763714,0.173841020027148
1676469264.2023678,439,0,0,,0.15730139813046978,0.18354266477942469,0.1737587333510451
1676469264.210105,440,0,0,,0.15709186841142103,0.1834160547864437,0.17367581362497733
1676469264.2235012,441,0,0,,0.1583350863062434,0.18473559470772744,0.17359949159851598
1676469264.231096,442,0,0,,0.1578558552400224,0.18433469019055368,0.17352116504946874
1676469264.2464142,443,0,0,,0.1573702277074032,0.18392941558003428,0.17344081212736892
1676469264.2521937,444,0,0,,0.15835878157046962,0.18499300442099573,0.17336577714947388
1676469264.2626011,445,0,0,,0.1577355262214713,0.1844475115144253,0.17328801470704602
1676469264.2726727,446,0,0,,0.15728175104679987,0.18407336949229242,0.17320838155450746
1676469264.284213,447,0,0,,0.156942942546051,0.18381548357367516,0.17312745897237586
1676469264.290658,448,0,0,,0.15919942747486754,0.18614126219153404,0.1730581652833335
1676469264.306322,449,0,0,,0.15877843150189447,0.1857913096702099,0.17298712183168458
1676469264.3107193,450,0,0,,0.15846461754126476,0.18554974697470666,0.1729148705665581
1676469264.3231835,451,0,0,,0.15966125970464273,0.18681232750058174,0.172848932204061
1676469264.3306494,452,0,0,,0.1593694892374389,0.18658761893868447,0.17278187029875444
1676469264.3472698,453,0,0,,0.15908683822423741,0.18637310241341593,0.1727137358108215
1676469264.356091,454,0,0,,0.16040217425464914,0.18774968999385835,0.1726524842607908
1676469264.3648553,455,0,0,,0.16001335108911321,0.187423748087883,0.17258960300123022
1676469264.3726869,456,0,0,,0.15971666548482702,0.18719110694885255,0.17252555853597448
1676469264.3840864,457,0,0,,0.1592519458030157,0.18679242514133454,0.17245952066168116
1676469264.3903608,458,0,0,,0.16074692535688803,0.1883456763136387,0.17240124904324935
1676469264.4008577,459,0,0,,0.16047145014823005,0.18812955333828926,0.1723418968099408
1676469264.413289,460,0,0,,0.160106755240237,0.18782572978138926,0.17228102545884774
1676469264.4232204,461,0,0,,0.1616506140732579,0.18942247623324396,0.17222813784001395
1676469264.4294934,462,0,0,,0.16121544119400905,0.18904209288954735,0.17217334830446168
1676469264.448857,463,0,0,,0.16106140979658887,0.18894334476828575,0.17211806502830312
1676469264.4555194,464,0,0,,0.16051053561388778,0.18845021948814394,0.17206031612574385
1676469264.46639,465,0,0,,0.16035402137758065,0.18835194552421572,0.1720020758533649
1676469264.476292,466,0,0,,0.16009103077167797,0.1881482138490677,0.17194281692261026
1676469264.4842892,467,0,0,,0.15975661313823983,0.1878744240951538,0.17188218904308603
1676469264.4918556,468,0,0,,0.15876743812336253,0.18695049659729004,0.17181694152607246
1676469264.5011106,469,0,0,,0.15817114211136626,0.1864220901346207,0.1717490519767456
1676469264.511859,470,0,0,,0.15810044754533098,0.1864192990732193,0.1716811484721117
1676469264.5251756,471,0,0,,0.1576086531797521,0.18599751712203028,0.17161113605772182
1676469264.5321841,472,0,0,,0.15744474595940636,0.18590408945441247,0.1715406565049939
1676469264.5445812,473,0,0,,0.15694727428038047,0.18547922166705133,0.17146805261332915
1676469264.5522199,474,0,0,,0.1571886497653775,0.18579163895726206,0.17139701080811545
1676469264.5632954,475,0,0,,0.15672983010431454,0.1854057903444767,0.17132403975983784
1676469264.5723534,476,0,0,,0.15645560755109117,0.18520554009079934,0.17125006746029184
1676469264.5860279,477,0,0,,0.15618371863355565,0.1850086081326008,0.17117511050095485
1676469264.5906103,478,0,0,,0.15810759438822494,0.18699749640524388,0.17111009798298107
1676469264.6021423,479,0,0,,0.15795423984034584,0.18690959388792516,0.1710446459524207
1676469264.6129632,480,0,0,,0.15750672920189723,0.18652943606913092,0.17097729313276633
1676469264.6221347,481,0,0,,0.15813064522306844,0.18721726576149464,0.1709133794615738
1676469264.6311395,482,0,0,,0.15789498671144472,0.1870463753730059,0.17084861133843884
1676469264.6453915,483,0,0,,0.1575640248662047,0.186781505997777,0.1707825188684277
1676469264.6528218,484,0,0,,0.1586035101869963,0.1878815834015608,0.17072192678543552
1676469264.6616035,485,0,0,,0.15823406227681563,0.18757426417052747,0.17065979810628817
1676469264.672619,486,0,0,,0.15801981405974255,0.18742290144622328,0.17059691261351928
1676469264.6826456,487,0,0,,0.15780083799971867,0.1872675874489546,0.17053325055076407
1676469264.6922772,488,0,0,,0.15928779742452578,0.18881049440175296,0.17047730302277284
1676469264.7014916,489,0,0,,0.1590280994775139,0.18860775766640903,0.17042034181110488
1676469264.7092059,490,0,0,,0.15877218645307795,0.18840979566365482,0.17036239078942314
1676469264.7218418,491,0,0,,0.1589625341662176,0.18865685908138755,0.17030567508483008
1676469264.730917,492,0,0,,0.1587797368307747,0.18853140472233296,0.17024833210844176
1676469264.743885,493,0,0,,0.15865602844567972,0.18846536948978904,0.1701906589558907
1676469264.7529583,494,0,0,,0.1587231302488111,0.18858952367454768,0.17013360657426344
1676469264.7624128,495,0,0,,0.15847037763832583,0.18839479707866907,0.17007558055965677
1676469264.771892,496,0,0,,0.1583435769536667,0.18832636457115415,0.17001721238251255
1676469264.7885816,497,0,0,,0.15814208042299824,0.18818394829899074,0.1699581321240075
1676469264.7918515,498,0,0,,0.15791520470861048,0.18801698764637115,0.16989821706223934
1676469264.800236,499,0,0,,0.15771995362406002,0.187882324937135,0.16983762868692504
1676469264.810869,500,0,0,,0.1575881354366958,0.1878114495022595,0.16977668593443634
1676469264.8190866,501,0,0,,0.1583240697299134,0.18860436198554933,0.16971970774436407
1676469264.8361628,502,0,0,,0.15818569986315295,0.188523375242576,0.16966232462057695
1676469264.8426592,503,0,0,,0.157769130771992,0.18816597627006473,0.16960315450192728
1676469264.8527567,504,0,0,,0.15825152890529084,0.18870485015260058,0.16954667875269028
1676469264.861943,505,0,0,,0.15801149232267123,0.18852220255719498,0.16948928976547625
1676469264.8722446,506,0,0,,0.15784201749334847,0.18841067435609177,0.16943134313725672
1676469264.8824427,507,0,0,,0.15761288369936796,0.1882403388677724,0.16937254483159558
1676469264.8921368,508,0,0,,0.158398017238047,0.18908007204622032,0.1693179451918267
1676469264.9036274,509,0,0,,0.15824709035583215,0.18898422404378654,0.16926286631204562
1676469264.9151611,510,0,0,,0.15808166789585276,0.18887442943662405,0.16920723845922875
1676469264.9218688,511,0,0,,0.15892794489921855,0.18977184720396997,0.1691560976952486
1676469264.9306028,512,0,0,,0.15871226684132742,0.18960812850356104,0.16910413833776639
1676469264.9419334,513,0,0,,0.1586552305170827,0.1896030767953396,0.1690521537217431
1676469264.9525676,514,0,0,,0.158930326336851,0.1899285299652815,0.16900179637156948
1676469264.9606066,515,0,0,,0.15877847828760075,0.18982754419505599,0.16895093409254477
1676469264.9722424,516,0,0,,0.15865114362524377,0.1897514522713423,0.16889969135390148
1676469264.9849048,517,0,0,,0.15877124992823977,0.18992194883018734,0.1688493010980524
1676469264.9925594,518,0,0,,0.15864146376091168,0.18984294792324305,0.16879851583766864
1676469265.0014067,519,0,0,,0.15845047796418146,0.18970344490200283,0.16874703306217864
1676469265.013336,520,0,0,,0.15836321309671628,0.1896678408303857,0.16869537226633058
1676469265.026839,521,0,0,,0.15933304909878002,0.19068425555467608,0.16864879354410395
1676469265.0316386,522,0,0,,0.15916901247755513,0.1905673820233345,0.16860163045422064
1676469265.0424278,523,0,0,,0.1590631760757707,0.1905090006184578,0.1685541754573129
1676469265.0517192,524,0,0,,0.1599495458698921,0.19143817951500416,0.16851136635488795
1676469265.0630913,525,0,0,,0.15982646477707255,0.19135830688774588,0.16846815788932668
1676469265.0716672,526,0,0,,0.15972944233279157,0.19130476064026358,0.168424681692528
1676469265.083851,527,0,0,,0.15960026653737056,0.19121948740780356,0.168380779129567
1676469265.0921912,528,0,0,,0.1596226761973344,0.19128546971917154,0.16833720647816286
1676469265.1018827,529,0,0,,0.15952859927108512,0.1912352167093754,0.16829338256170973
1676469265.1097174,530,0,0,,0.15942590790058003,0.19117664212822916,0.1682492657723509
1676469265.123525,531,0,0,,0.15961516896033212,0.1914088588935137,0.16820631006681844
1676469265.1300561,532,0,0,,0.1595245529813193,0.19136143573582173,0.16816311724549754
1676469265.1424203,533,0,0,,0.1593990123169236,0.1912794975835085,0.1681195147334151
1676469265.1534824,534,0,0,,0.15991509627741202,0.1918363995462656,0.16807869673114642
1676469265.1604624,535,0,0,,0.1598386249930732,0.19180092364370824,0.16803770134936497
1676469265.1736877,536,0,0,,0.1597628082335137,0.19176627550661565,0.16799653272689805
1676469265.1904073,537,0,0,,0.15965005861241743,0.19169505063235762,0.16795500798005983
1676469265.195184,538,0,0,,0.15956375054472313,0.19165049011409285,0.1679132604306303
1676469265.20263,539,0,0,,0.15948004264756963,0.19160873852431776,0.16787130412325188
1676469265.21249,540,0,0,,0.1594153057820581,0.19158607130229474,0.16782923447976336
1676469265.2227435,541,0,0,,0.1584266661587797,0.19064421062588693,0.16778245553289278
1676469265.2304313,542,0,0,,0.15832157041672693,0.19058618396401408,0.16773538645271285
1676469265.2398772,543,0,0,,0.15823657432171925,0.1905484456408024,0.16768812868091687
1676469265.2520354,544,0,0,,0.1580732819143556,0.19043298829197886,0.16764029362237676
1676469265.261274,545,0,0,,0.1579541382741533,0.19036203447937966,0.16759210379477366
1676469265.2714515,546,0,0,,0.1578082632345818,0.1902648352634907,0.16754342797109112
1676469265.2850113,547,0,0,,0.15773184618343936,0.1902372320520878,0.16749461413135155
1676469265.2930129,548,0,0,,0.159359224504634,0.19190508494853975,0.16745413955609426
1676469265.301645,549,0,0,,0.1592745168600522,0.19186107194423677,0.16741344491581545
1676469265.3107255,550,0,0,,0.1592097652124606,0.19183713462352753,0.1673726305889331
1676469265.32272,551,0,0,,0.16050143472450598,0.1931629891896248,0.1673384455348812
1676469265.3307776,552,0,0,,0.16045571005882844,0.19315150698900224,0.1673042030698262
1676469265.3439775,553,0,0,,0.1604045988347374,0.1931347221541405,0.16726987668059692
1676469265.3529286,554,0,0,,0.16111189952925667,0.19387265955090524,0.16723923997835144
1676469265.3623126,555,0,0,,0.1610834568796359,0.19387484268784524,0.16720861419179067
1676469265.3714182,556,0,0,,0.16105072831294762,0.1938727503693104,0.16717797794363723
1676469265.3863258,557,0,0,,0.16102733665991648,0.19387995892167093,0.16714737773824556
1676469265.392332,558,0,0,,0.16084497575873954,0.19372895325422287,0.16711602250451668
1676469265.4005618,559,0,0,,0.16082205297566282,0.19373734375238422,0.16708470922327862
1676469265.4108093,560,0,0,,0.16079708917595967,0.19374366164445878,0.1670534275315009
1676469265.4250042,561,0,0,,0.1615650258160077,0.19453890376567842,0.1670261220503293
1676469265.4327319,562,0,0,,0.16157133537830937,0.19457235157012942,0.16699898380817996
1676469265.440965,563,0,0,,0.16155355517887696,0.19458166305541993,0.16697189212345703
1676469265.4529788,564,0,0,,0.1612144794969283,0.19427123121738435,0.16694324827954396
1676469265.4628415,565,0,0,,0.16120978070463762,0.19429505713939668,0.16691472356524095
1676469265.472119,566,0,0,,0.16118770151741132,0.19430147059917452,0.16688623091823682
1676469265.4846113,567,0,0,,0.16116073577503784,0.19430298990726472,0.16685774586777313
1676469265.4908042,568,0,0,,0.15945662609948738,0.19263570172309877,0.16682092437638862
1676469265.502972,569,0,0,,0.15942550931648836,0.1926413780498505,0.16678413126663788
1676469265.5120602,570,0,0,,0.1593855143276654,0.1926381921005249,0.1667473222271405
1676469265.5202272,571,0,0,,0.1590692715704821,0.1923601486003399,0.1667091229701422
1676469265.53295,572,0,0,,0.15902774797418937,0.19235684080004695,0.16667090717414243
1676469265.5468736,573,0,0,,0.1589996360187076,0.19236689437270166,0.16663274164600594
1676469265.5516112,574,0,0,,0.16000978183035477,0.19340999023318292,0.16659979159717186
1676469265.562359,575,0,0,,0.1599936270088337,0.1934267019021511,0.1665669251066826
1676469265.5714636,576,0,0,,0.15997631648884636,0.19344218047976494,0.16653413600908146
1676469265.58632,577,0,0,,0.1599859136373542,0.19348435584902765,0.1665015577883266
1676469265.5921245,578,0,0,,0.16071178554526194,0.19423903259396555,0.1664727529512964
1676469265.6010256,579,0,0,,0.16072532554961666,0.19428116676449778,0.1664441587851189
1676469265.6106534,580,0,0,,0.16070198635696992,0.1942863955938816,0.16641559076308832
1676469265.6257203,581,0,0,,0.16085495661583765,0.19446703069925309,0.16638792591658458
1676469265.6310153,582,0,0,,0.16087481055750474,0.19451431307554246,0.1663604974819623
1676469265.642813,583,0,0,,0.16084151898871288,0.19450847911119462,0.16633303987751827
1676469265.6522553,584,0,0,,0.16074069717905745,0.19443547990202906,0.1663052172770284
1676469265.6621494,585,0,0,,0.16070731120214088,0.19442994420409204,0.16627736699804885
1676469265.671071,586,0,0,,0.16072502155541404,0.19447527816653254,0.16624974338888152
1676469265.6853607,587,0,0,,0.16070412504461629,0.19448197179675103,0.16622215324786527
1676469265.692219,588,0,0,,0.16047039148800596,0.19427685397028924,0.16619353751771673
1676469265.7019398,589,0,0,,0.16048670907499418,0.19432156373858453,0.16616514533640964
1676469265.7118495,590,0,0,,0.16046843536483274,0.1943316318690777,0.16613680349575505
1676469265.727239,591,0,0,,0.1600397740707658,0.1939333040547371,0.16610647001602874
1676469265.731459,592,0,0,,0.160023710417714,0.19394750288724902,0.16607620753046498
1676469265.7414799,593,0,0,,0.16001897050376163,0.1939728984808922,0.16604607202286942
1676469265.7542377,594,0,0,,0.16005901917360052,0.19404273348331452,0.166016285690286
1676469265.7627814,595,0,0,,0.16004405569391475,0.19405748259067537,0.1659865731032394
1676469265.7704356,596,0,0,,0.1600690495586656,0.19411191687107088,0.16595713268759474
1676469265.7829123,597,0,0,,0.16007202771935689,0.19414417416095736,0.16592785355839954
1676469265.7921412,598,0,0,,0.159641193265637,0.1937446166241169,0.1658965766415201
1676469265.8007812,599,0,0,,0.15962493853377327,0.1937595640718937,0.16586537446187957
1676469265.8119028,600,0,0,,0.1596156810639821,0.19378139960408214,0.16583428145989998
1676469265.8233807,601,0,0,,0.15956066704812275,0.19375759760022165,0.1658030694479011
1676469265.8305182,602,0,0,,0.1595486185369812,0.19377666576027872,0.16577195277670248
1676469265.846314,603,0,0,,0.1595421872185372,0.19380122830033303,0.16574095891820417
1676469265.8519232,604,0,0,,0.15858836270753965,0.19288298884510996,0.1657053738624297
1676469265.8649774,605,0,0,,0.15857089873118624,0.192901019769907,0.16566987896127924
1676469265.8725023,606,0,0,,0.1585421297159754,0.19290771219372752,0.1656344175222479
1676469265.8887513,607,0,0,,0.1585169183135174,0.19291791123509408,0.16559900707842334
1676469265.89402,608,0,0,,0.1570796344107054,0.19152301227092744,0.16555662213977798
1676469265.9024742,609,0,0,,0.1570320242390059,0.19151781303405763,0.16551421120494827
1676469265.9089715,610,0,0,,0.15697909190851672,0.1915073439836502,0.16547174792486652
1676469265.921438,611,0,0,,0.15603445408115613,0.19060965786695483,0.1654247962142013
1676469265.9303665,612,0,0,,0.15597277308076843,0.19059500185728073,0.1653777712234877
1676469265.9484181,613,0,0,,0.1559225118172668,0.19059178168535235,0.16533073013191446
1676469265.9533994,614,0,0,,0.15538026463688537,0.19009903930842878,0.1652812253284566
1676469265.9623282,615,0,0,,0.1553163987007104,0.19008474962413313,0.16523164907657728
1676469265.970867,616,0,0,,0.1552418972889237,0.19005994846999646,0.16518194881892725
1676469265.988279,617,0,0,,0.15519206458887086,0.19005981668651106,0.1651322479023598
1676469265.9912868,618,0,0,,0.15567217954888868,0.1905869966632128,0.16508518288567586
1676469266.002271,619,0,0,,0.15563557700280772,0.19059740708172324,0.1650381699210845
1676469266.0109937,620,0,0,,0.15559086899224445,0.19059970056831838,0.16499116842392608
1676469266.0237818,621,0,0,,0.15662568804230914,0.19167613892376426,0.1649495491185449
1676469266.030249,622,0,0,,0.15660263862630652,0.19169461642563346,0.16490802220067308
1676469266.0425684,623,0,0,,0.15655267829454766,0.19168622496902946,0.16486645332551822
1676469266.0516193,624,0,0,,0.1571104638586305,0.19228259754538538,0.16482786631324514
1676469266.063181,625,0,0,,0.15710008560695277,0.19231066596388818,0.1647894196430646
1676469266.0709422,626,0,0,,0.15708287949315536,0.19233180084586146,0.1647510786472939
1676469266.086358,627,0,0,,0.15708136432865488,0.19236844346404078,0.1647129208646141
1676469266.0924075,628,0,0,,0.15806783425297366,0.1933879735207558,0.16467986073221788
1676469266.1008525,629,0,0,,0.1580438460489832,0.1933970003151894,0.16464684573379382
1676469266.109795,630,0,0,,0.15804504882988557,0.19343104785680773,0.16461400097307788
1676469266.1225338,631,0,0,,0.1591896738013707,0.19460265953063965,0.16458701427073105
1676469266.1300795,632,0,0,,0.15919416260609254,0.19463397844314576,0.1645601841629468
1676469266.1425457,633,0,0,,0.15919280655834306,0.19465932576656345,0.1645334807917796
1676469266.1519532,634,0,0,,0.15978904044001327,0.19527916382908822,0.16450987661092506
1676469266.1605577,635,0,0,,0.1599112525652014,0.195424254680872,0.1644869978843294
1676469266.1719112,636,0,0,,0.15990513369938358,0.1954409311592579,0.1644642025401257
1676469266.1875992,637,0,0,,0.1590038778329037,0.19456684108734132,0.1644370367455624
1676469266.1925976,638,0,0,,0.15898886702767834,0.19457893560409548,0.1644099314235829
1676469266.2008224,639,0,0,,0.1589918668314122,0.194608890953064,0.16438297587834821
1676469266.2132697,640,0,0,,0.15905197710172164,0.1946955236053467,0.16435645349637495
1676469266.2201955,641,0,0,,0.15861005616539942,0.19428219171047212,0.1643278644549273
1676469266.2298832,642,0,0,,0.1587051674703978,0.19440527663230897,0.16429989083808885
1676469266.2424603,643,0,0,,0.15868273487431037,0.19441079008579257,0.1642719447885178
1676469266.2524438,644,0,0,,0.15783041946041212,0.1935905220615864,0.16423989739882575
1676469266.2615273,645,0,0,,0.15784739033768402,0.1936392964565754,0.16420809388110863
1676469266.2719603,646,0,0,,0.15787982496512756,0.19370321500897408,0.1641766099561535
1676469266.2837965,647,0,0,,0.15677342738678085,0.19263364918470385,0.164139778202077
1676469266.2919364,648,0,0,,0.15675478852823602,0.19265175156831743,0.1641030369599186
1676469266.301506,649,0,0,,0.15674023505699264,0.1926738289523125,0.16406640610468015
1676469266.3121545,650,0,0,,0.1567431532178961,0.19271318120718003,0.16402997201071606
1676469266.32183,651,0,0,,0.1566052896735363,0.19261225638091567,0.16399303329262063
1676469266.3296492,652,0,0,,0.15660505862989652,0.19264878143012526,0.16395627719977127
1676469266.3408995,653,0,0,,0.15660318493887113,0.19268349028766157,0.16391969465120956
1676469266.3515978,654,0,0,,0.1571502474914424,0.19326423168182374,0.1638860158096187
1676469266.3608885,655,0,0,,0.1571524401405685,0.19329992470741275,0.16385251543315577
1676469266.3717012,656,0,0,,0.15713672323208974,0.19331761970043185,0.1638191035316579
1676469266.389894,657,0,0,,0.15722278902774975,0.19343650298118592,0.16378628604656384
1676469266.3927689,658,0,0,,0.1594203405839436,0.19565577565908435,0.16376456492485925
1676469266.4005334,659,0,0,,0.1594206602463834,0.19567770678758623,0.1637429534587972
1676469266.4121006,660,0,0,,0.15949670902964996,0.19577488116502764,0.16372182786462233
1676469266.4226887,661,0,0,,0.15986995280839134,0.1961672885012627,0.16370266430712865
1676469266.4301462,662,0,0,,0.1599529281591408,0.1962689192557335,0.1636840089034073
1676469266.4427938,663,0,0,,0.16005395320633575,0.19638800428152087,0.1636659489248149
1676469266.4524095,664,0,0,,0.1602127595749669,0.19656399069666863,0.16364876887829827
1676469266.4607806,665,0,0,,0.16030920101139473,0.19667704689860346,0.16363215411279128
1676469266.4719074,666,0,0,,0.16032293785430715,0.1967072475039959,0.16361569035031126
1676469266.4834614,667,0,0,,0.16044157682486698,0.19684167808413508,0.16359989874073194
1676469266.4911716,668,0,0,,0.16011647495447923,0.19653390668034557,0.16358256827413364
1676469266.5021124,669,0,0,,0.16023894272270128,0.19667300940155985,0.16356593332114144
1676469266.5117023,670,0,0,,0.1602724263911776,0.19672287867665292,0.16354954771452473
1676469266.5217812,671,0,0,,0.1600716800960116,0.1965394352054596,0.16353224489055201
1676469266.5306575,672,0,0,,0.16015495537074137,0.1966395129156113,0.16351544245513008
1676469266.5442245,673,0,0,,0.16020212604711576,0.1967031677532196,0.16349895829389616
1676469266.5520806,674,0,0,,0.15955085357187318,0.19607153759002688,0.1634793159818463
1676469266.5618386,675,0,0,,0.15958354868090674,0.1961236146259308,0.16345993405497594
1676469266.5702245,676,0,0,,0.15957975970604943,0.19613913000106814,0.1634406297049813
1676469266.5884416,677,0,0,,0.15965400221856163,0.19623221145629885,0.1634217907622628
1676469266.5933707,678,0,0,,0.1582740656689905,0.19487788547933105,0.16339618018965946
1676469266.601335,679,0,0,,0.1582844732575886,0.19491372444570065,0.16337074881188796
1676469266.6102817,680,0,0,,0.15833498096646892,0.19498928572595123,0.1633456952405177
1676469266.625224,681,0,0,,0.1584800108571969,0.19515852300167086,0.16332148785552605
1676469266.631146,682,0,0,,0.15853397920467482,0.19523630980014803,0.1632976694045268
1676469266.642688,683,0,0,,0.1586023189381562,0.19532800948619844,0.16327430945195778
1676469266.6524742,684,0,0,,0.15877820302453563,0.19552626226127148,0.16325194076326416
1676469266.6609356,685,0,0,,0.15881776162775982,0.19558788145720962,0.1632298801705502
1676469266.67167,686,0,0,,0.15888216702361033,0.1956739172667265,0.16320824975688383
1676469266.6819866,687,0,0,,0.15897186037989486,0.19578468718707565,0.16318717319281922
1676469266.6917734,688,0,0,,0.15922745693523513,0.19605998382329942,0.16316747311193572
1676469266.7009656,689,0,0,,0.15928968353374826,0.19614150290727617,0.1631481806264721
1676469266.7104275,690,0,0,,0.15932237388870343,0.19619322712659837,0.16312914676210508
1676469266.7210386,691,0,0,,0.1588634883862339,0.1957555638051033,0.1631079245811306
1676469266.7302496,692,0,0,,0.158990140350052,0.19590270225763323,0.16308743809241877
1676469266.7421777,693,0,0,,0.15906056261034832,0.19599315872430803,0.1630674038860403
1676469266.7511141,694,0,0,,0.15890383428167626,0.1958571446722746,0.16304668960940166
1676469266.7623632,695,0,0,,0.15890410695748552,0.19587802721202374,0.1630260797454618
1676469266.7706861,696,0,0,,0.15895972809308695,0.19595387895286084,0.1630058491402261
1676469266.7850404,697,0,0,,0.15900936656047926,0.19602340041816235,0.16298596614231692
1676469266.79111,698,0,0,,0.15826653217248546,0.19530404580116273,0.16296248637132274
1676469266.80122,699,0,0,,0.15831422806632148,0.19537486735820772,0.16293936070811377
1676469266.8115737,700,0,0,,0.15834239365524874,0.19542590342998506,0.1629164902252637
1676469266.8261979,701,0,0,,0.15852179584351705,0.19562716976940633,0.16289462607411073
1676469266.8323512,702,0,0,,0.15851512535715329,0.19564228784382345,0.16287283751332984
1676469266.8408449,703,0,0,,0.1586183548098259,0.1957666838771105,0.1628516709327154
1676469266.8595488,704,0,0,,0.15945200361635015,0.19661724645137788,0.16283475716497228
1676469266.8641593,705,0,0,,0.15957654577714728,0.1967579986190796,0.16281854715806768
1676469266.870985,706,0,0,,0.15962376401695536,0.1968211113023758,0.16280265271457955
1676469266.8855176,707,0,0,,0.15963125421885774,0.19684437960624696,0.1627868746126108
1676469266.8916783,708,0,0,,0.15961060782466457,0.19683953553438188,0.1627710722902827
1676469266.9011567,709,0,0,,0.15972423988072204,0.19696832596063615,0.16275591392008587
1676469266.9115155,710,0,0,,0.15977902121558712,0.1970379177069664,0.16274110350862073
1676469266.923022,711,0,0,,0.15995830864020513,0.19723104988217355,0.1627272587580316
1676469266.930457,712,0,0,,0.16003954464859294,0.1973256576025486,0.16271388704604434
1676469266.9480586,713,0,0,,0.16008551907048152,0.19738470848202708,0.16270081058845445
1676469266.9531498,714,0,0,,0.15972210352319408,0.19703611237287524,0.16268599115031884
1676469266.9614925,715,0,0,,0.1598017596545689,0.1971301179146767,0.16267164173989224
1676469266.9725895,716,0,0,,0.15982038647118735,0.19716293008089067,0.16265745639029666
1676469266.9849672,717,0,0,,0.15997798560500964,0.1973338599151373,0.16264412568987235
1676469266.9912148,718,0,0,,0.1600540299200587,0.1974227902787924,0.16263123964126633
1676469267.0026584,719,0,0,,0.16015783851940857,0.19753890435636046,0.16261893416304812
1676469267.01319,720,0,0,,0.16016845942158625,0.19756171667516234,0.16260674274642395
1676469267.0230336,721,0,0,,0.1596532358889632,0.19706118720650675,0.16259204868245647
1676469267.0304997,722,0,0,,0.15971717583204434,0.19713942999958994,0.1625777458324544
1676469267.045825,723,0,0,,0.15972881935304925,0.19716524728417398,0.16256357206887528
1676469267.0511703,724,0,0,,0.15970006763425396,0.19715074185609818,0.16254932577815578
1676469267.0634944,725,0,0,,0.15970854021150396,0.19717334769487382,0.16253519251663015
1676469267.07259,726,0,0,,0.1597649243419938,0.1972435142540932,0.1625214100879006
1676469267.0814807,727,0,0,,0.1598341748463802,0.19732613408803942,0.1625080407583408
