Time,header.seq,header.stamp.secs,header.stamp.nsecs,header.frame_id,twist.linear.x,twist.linear.y,twist.linear.z,twist.angular.x,twist.angular.y,twist.angular.z
1676469259.7124276,1,1676469259,708689689,odom,-0.003655552864074707,-0.15715014934539795,1.1325586816102267,0.0,0.0,0.0
1676469259.7299073,2,1676469259,720355987,odom,-0.0036516189575195312,-0.15715885162353516,1.1325439957469703,0.0,0.0,0.0
1676469259.7319055,3,1676469259,727251291,odom,-0.003641486167907715,-0.15714919567108154,1.1325628471255302,0.0,0.0,0.0
1676469259.7395592,4,1676469259,736931324,odom,-0.0036416053771972656,-0.1571493148803711,1.1325581778734923,0.0,0.0,0.0
1676469259.7486246,5,1676469259,745994329,odom,-0.0036568641662597656,-0.15715909004211426,1.1325326422959567,0.0,0.0,0.0
1676469259.7579596,6,1676469259,756323575,odom,-0.0036585330963134766,-0.15715980529785156,1.1325577710092067,0.0,0.0,0.0
1676469259.7706099,7,1676469259,766256332,odom,-0.003652334213256836,-0.15713822841644287,1.1325614134132864,0.0,0.0,0.0
1676469259.7799711,8,1676469259,777961254,odom,-0.0036449432373046875,-0.15715467929840088,1.1325574610173703,0.0,0.0,0.0
1676469259.7899542,9,1676469259,788441658,odom,-0.003659367561340332,-0.15715909004211426,1.1325368078112603,0.0,0.0,0.0
1676469259.7993183,10,1676469259,797005891,odom,-0.0036516189575195312,-0.15716373920440674,1.1325549810826778,0.0,0.0,0.0
1676469259.8165965,11,1676469259,808217525,odom,-0.003647923469543457,-0.15715789794921875,1.1325620721459388,0.0,0.0,0.0
1676469259.8278549,12,1676469259,820642232,odom,-0.0036357641220092773,-0.15716445446014404,1.132534928485751,0.0,0.0,0.0
1676469259.8345969,13,1676469259,832107067,odom,-0.003647923469543457,-0.1571446657180786,1.1325498274683954,0.0,0.0,0.0
1676469259.8405976,14,1676469259,839437246,odom,-0.00363922119140625,-0.15715157985687256,1.132557577264309,0.0,0.0,0.0
1676469259.8494997,15,1676469259,847398042,odom,-0.003641963005065918,-0.15714776515960693,1.1325390165030955,0.0,0.0,0.0
1676469259.8588076,16,1676469259,856405735,odom,-0.0036600828170776367,-0.15714967250823975,1.1325596309602262,0.0,0.0,0.0
1676469259.869422,17,1676469259,866322994,odom,-0.003667473793029785,-0.15714788436889648,1.1325549810826778,0.0,0.0,0.0
1676469259.8800507,18,1676469259,878829479,odom,-0.0036575794219970703,-0.1571638584136963,1.132546901920438,0.0,0.0,0.0
1676469259.8896923,19,1676469259,888357877,odom,-0.0036618709564208984,-0.15715813636779785,1.1325562404245137,0.0,0.0,0.0
1676469259.9031088,20,1676469259,896544694,odom,-0.0036498308181762695,-0.15715622901916504,1.1325431045204402,0.0,0.0,0.0
1676469259.9096003,21,1676469259,907858133,odom,-0.0036516189575195312,-0.1571638584136963,1.1325362265765668,0.0,0.0,0.0
1676469259.9231398,22,1676469259,918632030,odom,-0.0036562681198120117,-0.15715038776397705,1.1325650751918555,0.0,0.0,0.0
1676469259.9310908,23,1676469259,927870035,odom,-0.003639817237854004,-0.15715932846069336,1.132551454925537,0.0,0.0,0.0
1676469259.940846,24,1676469259,936460494,odom,-0.00365293025970459,-0.15716218948364258,1.1325522880285979,0.0,0.0,0.0
1676469259.9530387,25,1676469259,951354265,odom,-0.0036429166793823242,-0.15713632106781006,1.132549943715334,0.0,0.0,0.0
1676469259.9601796,26,1676469259,957118272,odom,-0.003660440444946289,-0.15714895725250244,1.1325550198316576,0.0,0.0,0.0
1676469259.9705915,27,1676469259,968246459,odom,-0.0036520957946777344,-0.15715384483337402,1.132551106184721,0.0,0.0,0.0
1676469259.9789605,28,1676469259,977102518,odom,-0.0036585330963134766,-0.15717065334320068,1.1325374084204436,0.0,0.0,0.0
1676469259.989931,29,1676469259,987668752,odom,-0.0036618709564208984,-0.15714848041534424,1.1325518230408431,0.0,0.0,0.0
1676469259.9988754,30,1676469259,997327089,odom,-0.003638148307800293,-0.15715813636779785,1.1325361103296279,0.0,0.0,0.0
1676469260.0103934,31,1676469260,6615400,odom,-0.0036439895629882812,-0.15715241432189941,1.132543298265338,0.0,0.0,0.0
1676469260.026816,32,1676469260,18305540,odom,-0.0036646127700805664,-0.1571342945098877,1.1325539154857398,0.0,0.0,0.0
1676469260.032494,33,1676469260,28783559,odom,-0.003661036491394043,-0.1571505069732666,1.1325548454612495,0.0,0.0,0.0
1676469260.0405009,34,1676469260,36861658,odom,-0.0036623477935791016,-0.15715384483337402,1.1325498662173747,0.0,0.0,0.0
1676469260.0516758,35,1676469260,50196886,odom,-0.003650665283203125,-0.15715324878692627,1.1325443251132965,0.0,0.0,0.0
1676469260.058763,36,1676469260,56900024,odom,-0.0036509037017822266,-0.1571512222290039,1.1325537411153317,0.0,0.0,0.0
1676469260.0702732,37,1676469260,66611051,odom,-0.0036388635635375977,-0.15715265274047852,1.1325539542347194,0.0,0.0,0.0
1676469260.0792685,38,1676469260,76507568,odom,-0.003654956817626953,-0.15714681148529053,1.1325459525704384,0.0,0.0,0.0
1676469260.090661,39,1676469260,89353322,odom,-0.0036545991897583008,-0.1571512222290039,1.1325449450969698,0.0,0.0,0.0
1676469260.099019,40,1676469260,96487283,odom,-0.003665924072265625,-0.15716373920440674,1.1325404114663602,0.0,0.0,0.0
1676469260.1090958,41,1676469260,106987953,odom,-0.003638148307800293,-0.15715503692626953,1.132537292173505,0.0,0.0,0.0
1676469260.124512,42,1676469260,115970373,odom,-0.003659963607788086,-0.15716183185577393,1.1325582941204309,0.0,0.0,0.0
1676469260.1291308,43,1676469260,127865791,odom,-0.0036487579345703125,-0.15716552734375,1.132552268654108,0.0,0.0,0.0
1676469260.1389194,44,1676469260,136283397,odom,-0.0036487579345703125,-0.15716552734375,1.132552268654108,0.0,0.0,0.0
1676469260.1495304,45,1676469260,146178007,odom,-0.003655672073364258,-0.15715503692626953,1.1325602315694094,0.0,0.0,0.0
1676469260.1581936,46,1676469260,156865119,odom,-0.0036542415618896484,-0.157143235206604,1.1325632346153258,0.0,0.0,0.0
1676469260.170036,47,1676469260,167983293,odom,-0.003647923469543457,-0.1571582555770874,1.1325427364051344,0.0,0.0,0.0
1676469260.1802497,48,1676469260,177566766,odom,-0.0036514997482299805,-0.15716540813446045,1.1325530242592097,0.0,0.0,0.0
1676469260.1920898,49,1676469260,187739133,odom,-0.003658771514892578,-0.1571493148803711,1.1325401789724827,0.0,0.0,0.0
1676469260.1982186,50,1676469260,196905612,odom,-0.0036658048629760742,-0.15716612339019775,1.1325427364051344,0.0,0.0,0.0
1676469260.2122357,51,1676469260,208005666,odom,-0.0036357641220092773,-0.15714657306671143,1.1325554848194122,0.0,0.0,0.0
1676469260.225884,52,1676469260,220694780,odom,-0.0036486387252807617,-0.1571577787399292,1.1325452357143164,0.0,0.0,0.0
1676469260.2325704,53,1676469260,229575395,odom,-0.0036634206771850586,-0.1571664810180664,1.1325464756816626,0.0,0.0,0.0
1676469260.240352,54,1676469260,238442897,odom,-0.0036543607711791992,-0.1571427583694458,1.1325501568347216,0.0,0.0,0.0
1676469260.2519464,55,1676469260,246611118,odom,-0.0036498308181762695,-0.15715110301971436,1.132560270318389,0.0,0.0,0.0
1676469260.260143,56,1676469260,257466793,odom,-0.0036617517471313477,-0.15716087818145752,1.1325411476969718,0.0,0.0,0.0
1676469260.2721193,57,1676469260,268134832,odom,-0.0036630630493164062,-0.1571415662765503,1.1325497112214566,0.0,0.0,0.0
1676469260.2788806,58,1676469260,277052640,odom,-0.003641366958618164,-0.15715515613555908,1.1325465531796217,0.0,0.0,0.0
1676469260.2900405,59,1676469260,288150548,odom,-0.0036467313766479492,-0.15714824199676514,1.1325355484694244,0.0,0.0,0.0
1676469260.3029046,60,1676469260,296113252,odom,-0.0036535263061523438,-0.1571521759033203,1.1325602315694094,0.0,0.0,0.0
1676469260.3093817,61,1676469260,307115554,odom,-0.00365447998046875,-0.15714848041534424,1.132565772673488,0.0,0.0,0.0
1676469260.323528,62,1676469260,320260763,odom,-0.0036542415618896484,-0.15716195106506348,1.1325620333969593,0.0,0.0,0.0
1676469260.3310418,63,1676469260,329455852,odom,-0.0036573410034179688,-0.1571570634841919,1.1325484906286,0.0,0.0,0.0
1676469260.3430684,64,1676469260,336893558,odom,-0.0036553144454956055,-0.1571410894393921,1.1325711587816476,0.0,0.0,0.0
1676469260.3514137,65,1676469260,347373962,odom,-0.00365293025970459,-0.15714657306671143,1.1325509511888028,0.0,0.0,0.0
1676469260.3584156,66,1676469260,355815410,odom,-0.003650069236755371,-0.15713739395141602,1.1325468437969683,0.0,0.0,0.0
1676469260.370644,67,1676469260,367918014,odom,-0.0036606788635253906,-0.15714633464813232,1.1325541286051273,0.0,0.0,0.0
1676469260.3809066,68,1676469260,379065275,odom,-0.0036612749099731445,-0.15717804431915283,1.1325406827092173,0.0,0.0,0.0
1676469260.3913903,69,1676469260,388489484,odom,-0.0036562681198120117,-0.15715527534484863,1.1325489168673755,0.0,0.0,0.0
1676469260.3992388,70,1676469260,398174524,odom,-0.0036603212356567383,-0.1571509838104248,1.1325470956653358,0.0,0.0,0.0
1676469260.4081936,71,1676469260,406980037,odom,-0.0036537647247314453,-0.15713703632354736,1.1325511449337007,0.0,0.0,0.0
1676469260.4219005,72,1676469260,419150590,odom,-0.0036542415618896484,-0.1571594476699829,1.1325388421326876,0.0,0.0,0.0
1676469260.4287808,73,1676469260,425311803,odom,-0.003644585609436035,-0.15714681148529053,1.1325572478979826,0.0,0.0,0.0
1676469260.4414067,74,1676469260,437500238,odom,-0.0036611557006835938,-0.15715563297271729,1.1325558916836977,0.0,0.0,0.0
1676469260.4488974,75,1676469260,446869611,odom,-0.0036597251892089844,-0.15714621543884277,1.132543492010236,0.0,0.0,0.0
1676469260.460462,76,1676469260,457309246,odom,-0.003682732582092285,-0.15716326236724854,1.1325406439602375,0.0,0.0,0.0
1676469260.4702256,77,1676469260,465707302,odom,-0.003652215003967285,-0.15715312957763672,1.1325560660541056,0.0,0.0,0.0
1676469260.4788384,78,1676469260,477697849,odom,-0.0036579370498657227,-0.15715134143829346,1.1325524430245162,0.0,0.0,0.0
1676469260.4913132,79,1676469260,486191987,odom,-0.0036579370498657227,-0.15715134143829346,1.1325524430245162,0.0,0.0,0.0
1676469260.4989164,80,1676469260,496152162,odom,-0.003664374351501465,-0.1571570634841919,1.1325640870928764,0.0,0.0,0.0
1676469260.5090237,81,1676469260,506348133,odom,-0.0036371946334838867,-0.15715932846069336,1.1325521524071693,0.0,0.0,0.0
1676469260.5225408,82,1676469260,517622947,odom,-0.003657102584838867,-0.15716111660003662,1.1325400239765644,0.0,0.0,0.0
1676469260.53077,83,1676469260,529441118,odom,-0.0036449432373046875,-0.15714716911315918,1.1325367690622807,0.0,0.0,0.0
1676469260.5384424,84,1676469260,536444187,odom,-0.003639698028564453,-0.15716314315795898,1.1325604446887971,0.0,0.0,0.0
1676469260.551386,85,1676469260,547359943,odom,-0.0036510229110717773,-0.1571415662765503,1.1325567247867585,0.0,0.0,0.0
1676469260.5586874,86,1676469260,556187391,odom,-0.003659844398498535,-0.15716242790222168,1.1325527336418628,0.0,0.0,0.0
1676469260.5698936,87,1676469260,566036224,odom,-0.0036581754684448242,-0.15715301036834717,1.1325578097581863,0.0,0.0,0.0
1676469260.5805504,88,1676469260,577092170,odom,-0.0036574602127075195,-0.15715527534484863,1.1325484712541103,0.0,0.0,0.0
1676469260.5900974,89,1676469260,588474035,odom,-0.0036656856536865234,-0.15716350078582764,1.1325504087030889,0.0,0.0,0.0
1676469260.598998,90,1676469260,595811128,odom,-0.0036656856536865234,-0.15716350078582764,1.1325504087030889,0.0,0.0,0.0
1676469260.6086872,91,1676469260,607167482,odom,-0.0036505460739135742,-0.15714049339294434,1.1325585847377777,0.0,0.0,0.0
1676469260.6223185,92,1676469260,616266965,odom,-0.0036667585372924805,-0.15716028213500977,1.1325440344959496,0.0,0.0,0.0
1676469260.6308568,93,1676469260,628079652,odom,-0.003657221794128418,-0.15715289115905762,1.1325630021214486,0.0,0.0,0.0
1676469260.6382442,94,1676469260,636829376,odom,-0.0036553144454956055,-0.15715265274047852,1.1325463788092136,0.0,0.0,0.0
1676469260.6526062,95,1676469260,648896455,odom,-0.003653287887573242,-0.15716910362243652,1.1325553879469632,0.0,0.0,0.0
1676469260.6592112,96,1676469260,657127857,odom,-0.0036499500274658203,-0.15715575218200684,1.1325490718632936,0.0,0.0,0.0
1676469260.6707933,97,1676469260,666662931,odom,-0.0036470890045166016,-0.15716087818145752,1.1325484712541103,0.0,0.0,0.0
1676469260.6804678,98,1676469260,678727626,odom,-0.003658890724182129,-0.15716862678527832,1.132552191156149,0.0,0.0,0.0
1676469260.689493,99,1676469260,688157081,odom,-0.0036553144454956055,-0.1571446657180786,1.1325461269408466,0.0,0.0,0.0
1676469260.6987145,100,1676469260,696593046,odom,-0.0036554336547851562,-0.1571645736694336,1.1325473862826825,0.0,0.0,0.0
1676469260.7105055,101,1676469260,707400560,odom,-0.003649592399597168,-0.15715765953063965,1.132547076290846,0.0,0.0,0.0
1676469260.7228885,102,1676469260,719378232,odom,-0.003638148307800293,-0.15715253353118896,1.1325482775092126,0.0,0.0,0.0
1676469260.730047,103,1676469260,727693080,odom,-0.003638148307800293,-0.15715253353118896,1.1325482775092126,0.0,0.0,0.0
1676469260.7389524,104,1676469260,737042427,odom,-0.0036628246307373047,-0.15715301036834717,1.1325455263316633,0.0,0.0,0.0
1676469260.749263,105,1676469260,746379852,odom,-0.0036602020263671875,-0.1571565866470337,1.1325462044388057,0.0,0.0,0.0
1676469260.7595534,106,1676469260,757148742,odom,-0.003661036491394043,-0.1571747064590454,1.132550486201048,0.0,0.0,0.0
1676469260.7690065,107,1676469260,766772747,odom,-0.0036493539810180664,-0.15715885162353516,1.1325426976561546,0.0,0.0,0.0
1676469260.7803092,108,1676469260,777935266,odom,-0.003652215003967285,-0.15717923641204834,1.1325447513520719,0.0,0.0,0.0
1676469260.791844,109,1676469260,789495229,odom,-0.0036547183990478516,-0.15715301036834717,1.1325468437969683,0.0,0.0,0.0
1676469260.7998183,110,1676469260,798339605,odom,-0.0036499500274658203,-0.15714585781097412,1.1325547098398208,0.0,0.0,0.0
1676469260.8082225,111,1676469260,806800603,odom,-0.0036520957946777344,-0.1571561098098755,1.1325483743816616,0.0,0.0,0.0
1676469260.8211877,112,1676469260,817788600,odom,-0.0036330223083496094,-0.15714585781097412,1.13254221329391,0.0,0.0,0.0
1676469260.8307552,113,1676469260,828512430,odom,-0.0036573410034179688,-0.1571664810180664,1.1325473087847233,0.0,0.0,0.0
1676469260.8395536,114,1676469260,835998535,odom,-0.0036638975143432617,-0.15715622901916504,1.1325608321785927,0.0,0.0,0.0
1676469260.8485572,115,1676469260,846193552,odom,-0.0036612749099731445,-0.15716135501861572,1.1325448288500308,0.0,0.0,0.0
1676469260.8591547,116,1676469260,856076955,odom,-0.0036537647247314453,-0.15716266632080078,1.132539617112279,0.0,0.0,0.0
1676469260.8686376,117,1676469260,865852355,odom,-0.0036640167236328125,-0.15715646743774414,1.132555232951045,0.0,0.0,0.0
1676469260.879919,118,1676469260,878160953,odom,-0.0036493539810180664,-0.15717089176177979,1.1325505443245172,0.0,0.0,0.0
1676469260.8926408,119,1676469260,888986349,odom,-0.0036399364471435547,-0.15715253353118896,1.1325351997286082,0.0,0.0,0.0
1676469260.8998113,120,1676469260,896686792,odom,-0.003667116165161133,-0.1571446657180786,1.132555252325535,0.0,0.0,0.0
1676469260.90859,121,1676469260,905426502,odom,-0.0036420822143554688,-0.15714967250823975,1.132560812804103,0.0,0.0,0.0
1676469260.9224977,122,1676469260,918566465,odom,-0.0036667585372924805,-0.1571599245071411,1.1325614521622658,0.0,0.0,0.0
1676469260.9298513,123,1676469260,928212404,odom,-0.0036406517028808594,-0.1571577787399292,1.1325434532612562,0.0,0.0,0.0
1676469260.941886,124,1676469260,937341451,odom,-0.003645181655883789,-0.1571294069290161,1.1325662376612424,0.0,0.0,0.0
1676469260.9481947,125,1676469260,946711778,odom,-0.003662586212158203,-0.15716016292572021,1.1325479093939066,0.0,0.0,0.0
1676469260.9605315,126,1676469260,956008434,odom,-0.003644704818725586,-0.15714704990386963,1.1325653464347125,0.0,0.0,0.0
1676469260.9711432,127,1676469260,969230890,odom,-0.003648996353149414,-0.15715539455413818,1.1325492656081915,0.0,0.0,0.0
1676469260.979685,128,1676469260,977547168,odom,-0.0036454200744628906,-0.1571643352508545,1.132551919913292,0.0,0.0,0.0
1676469260.9899013,129,1676469260,988419532,odom,-0.003641963005065918,-0.15716075897216797,1.132558565363288,0.0,0.0,0.0
1676469260.999689,130,1676469260,997584581,odom,-0.0036525726318359375,-0.15715837478637695,1.1325439182490111,0.0,0.0,0.0
1676469261.009128,131,1676469261,7051706,odom,-0.0036487579345703125,-0.15717387199401855,1.1325415545612576,0.0,0.0,0.0
1676469261.0213468,132,1676469261,18784284,odom,-0.0036308765411376953,-0.15715301036834717,1.1325579841285944,0.0,0.0,0.0
1676469261.0318542,133,1676469261,29347419,odom,-0.0036389827728271484,-0.15715265274047852,1.1325464756816626,0.0,0.0,0.0
1676469261.0398762,134,1676469261,36360263,odom,-0.003662109375,-0.15716779232025146,1.1325494787275792,0.0,0.0,0.0
1676469261.0476782,135,1676469261,46532392,odom,-0.0036592483520507812,-0.1571664810180664,1.1325609484255315,0.0,0.0,0.0
1676469261.0598602,136,1676469261,57866573,odom,-0.0036509037017822266,-0.15713822841644287,1.1325697444438936,0.0,0.0,0.0
1676469261.07024,137,1676469261,68723917,odom,-0.003652811050415039,-0.15715742111206055,1.1325664314061403,0.0,0.0,0.0
1676469261.0802233,138,1676469261,78791618,odom,-0.00365293025970459,-0.15714502334594727,1.1325647070765497,0.0,0.0,0.0
1676469261.0898612,139,1676469261,88234901,odom,-0.003655076026916504,-0.15715479850769043,1.1325502537071706,0.0,0.0,0.0
1676469261.0997016,140,1676469261,96528530,odom,-0.00365447998046875,-0.1571420431137085,1.1325528692632914,0.0,0.0,0.0
1676469261.1087222,141,1676469261,106211900,odom,-0.003650188446044922,-0.1571636199951172,1.1325463013112547,0.0,0.0,0.0
1676469261.1226823,142,1676469261,120202064,odom,-0.0036705732345581055,-0.1571418046951294,1.1325557173132896,0.0,0.0,0.0
1676469261.1303642,143,1676469261,127521276,odom,-0.003639698028564453,-0.15713655948638916,1.1325615102857354,0.0,0.0,0.0
1676469261.138577,144,1676469261,136602401,odom,-0.0036569833755493164,-0.1571493148803711,1.1325564729183915,0.0,0.0,0.0
1676469261.1525676,145,1676469261,149758815,odom,-0.003654003143310547,-0.1571441888809204,1.1325562016755344,0.0,0.0,0.0
1676469261.1610315,146,1676469261,157314538,odom,-0.0036493539810180664,-0.1571505069732666,1.1325539542347194,0.0,0.0,0.0
1676469261.171309,147,1676469261,168295145,odom,-0.003650069236755371,-0.15715765953063965,1.1325528886377814,0.0,0.0,0.0
1676469261.1840568,148,1676469261,178719282,odom,-0.0036590099334716797,-0.1571648120880127,1.132556860408187,0.0,0.0,0.0
1676469261.193383,149,1676469261,190523862,odom,-0.0036543607711791992,-0.15715289115905762,1.1325628277510404,0.0,0.0,0.0
1676469261.1982582,150,1676469261,196969509,odom,-0.003644108772277832,-0.157151460647583,1.1325541479796173,0.0,0.0,0.0
1676469261.210421,151,1676469261,207661867,odom,-0.003647923469543457,-0.1571521759033203,1.1325524042755366,0.0,0.0,0.0
1676469261.2231007,152,1676469261,219977378,odom,-0.003662586212158203,-0.15716147422790527,1.1325577710092067,0.0,0.0,0.0
1676469261.2324123,153,1676469261,228783369,odom,-0.0036444664001464844,-0.15714943408966064,1.1325479481428864,0.0,0.0,0.0
1676469261.238658,154,1676469261,236453294,odom,-0.0036535263061523438,-0.15715479850769043,1.1325488199949265,0.0,0.0,0.0
1676469261.248783,155,1676469261,246714830,odom,-0.0036624670028686523,-0.15714776515960693,1.1325686594724655,0.0,0.0,0.0
1676469261.258816,156,1676469261,256990671,odom,-0.0036388635635375977,-0.15716683864593506,1.1325426201581956,0.0,0.0,0.0
1676469261.272076,157,1676469261,268736600,odom,-0.0036510229110717773,-0.15717041492462158,1.1325508736908436,0.0,0.0,0.0
1676469261.2802608,158,1676469261,278252124,odom,-0.003647923469543457,-0.15713942050933838,1.132560715931654,0.0,0.0,0.0
1676469261.2913125,159,1676469261,288477659,odom,-0.0036371946334838867,-0.1571648120880127,1.132550757443905,0.0,0.0,0.0
1676469261.2989829,160,1676469261,296575069,odom,-0.0036482810974121094,-0.1571599245071411,1.1325406827092173,0.0,0.0,0.0
1676469261.3085773,161,1676469261,307241678,odom,-0.003637552261352539,-0.15715551376342773,1.1325456619530916,0.0,0.0,0.0
1676469261.3266406,162,1676469261,320584297,odom,-0.0036600828170776367,-0.1571561098098755,1.1325386290133,0.0,0.0,0.0
1676469261.3331785,163,1676469261,329315662,odom,-0.0036575794219970703,-0.1571660041809082,1.1325412058204414,0.0,0.0,0.0
1676469261.3400922,164,1676469261,338098287,odom,-0.0036391019821166992,-0.1571570634841919,1.1325486262500288,0.0,0.0,0.0
1676469261.3498957,165,1676469261,347672224,odom,-0.003656148910522461,-0.15717589855194092,1.1325423489153386,0.0,0.0,0.0
1676469261.35892,166,1676469261,357025623,odom,-0.0036547183990478516,-0.1571497917175293,1.1325529273867607,0.0,0.0,0.0
1676469261.3699706,167,1676469261,367834329,odom,-0.0036624670028686523,-0.15715515613555908,1.132560638433695,0.0,0.0,0.0
1676469261.3802607,168,1676469261,376648187,odom,-0.00366973876953125,-0.15714919567108154,1.1325638352245093,0.0,0.0,0.0
1676469261.3889625,169,1676469261,387050867,odom,-0.0036585330963134766,-0.15717220306396484,1.1325384740173818,0.0,0.0,0.0
1676469261.3986454,170,1676469261,396218538,odom,-0.0036363601684570312,-0.15716564655303955,1.1325430076479912,0.0,0.0,0.0
1676469261.4084837,171,1676469261,406023025,odom,-0.0036426782608032227,-0.15715479850769043,1.1325468631714581,0.0,0.0,0.0
1676469261.420397,172,1676469261,416081666,odom,-0.0036346912384033203,-0.1571509838104248,1.1325520555347204,0.0,0.0,0.0
1676469261.4313028,173,1676469261,427741527,odom,-0.003642559051513672,-0.1571577787399292,1.1325408183306456,0.0,0.0,0.0
1676469261.4401085,174,1676469261,436949729,odom,-0.0036488771438598633,-0.15715491771697998,1.1325553685724736,0.0,0.0,0.0
1676469261.4557114,175,1676469261,446991205,odom,-0.003653287887573242,-0.15715408325195312,1.1325435501337051,0.0,0.0,0.0
1676469261.4654129,176,1676469261,460494279,odom,-0.0036591291427612305,-0.1571497917175293,1.1325397527337075,0.0,0.0,0.0
1676469261.469595,177,1676469261,467233180,odom,-0.0036591291427612305,-0.1571497917175293,1.1325397527337075,0.0,0.0,0.0
1676469261.4802432,178,1676469261,476248025,odom,-0.003636598587036133,-0.1571558713912964,1.1325456813275814,0.0,0.0,0.0
1676469261.4912722,179,1676469261,487823724,odom,-0.003660917282104492,-0.15717542171478271,1.1325592822194102,0.0,0.0,0.0
1676469261.4995146,180,1676469261,496392965,odom,-0.003659486770629883,-0.15715289115905762,1.1325530048847199,0.0,0.0,0.0
1676469261.5102162,181,1676469261,506470203,odom,-0.003650665283203125,-0.15715575218200684,1.132534676617384,0.0,0.0,0.0
1676469261.5203185,182,1676469261,517938375,odom,-0.003663301467895508,-0.15716791152954102,1.132545545706153,0.0,0.0,0.0
1676469261.5294604,183,1676469261,526738166,odom,-0.003641963005065918,-0.15715575218200684,1.1325492074847223,0.0,0.0,0.0
1676469261.5393076,184,1676469261,537791252,odom,-0.003647446632385254,-0.15715014934539795,1.132545100092888,0.0,0.0,0.0
1676469261.5489001,185,1676469261,546194314,odom,-0.003647446632385254,-0.15715014934539795,1.132545100092888,0.0,0.0,0.0
1676469261.5584629,186,1676469261,556107521,odom,-0.0036559104919433594,-0.15716040134429932,1.132547696274519,0.0,0.0,0.0
1676469261.5698369,187,1676469261,567192554,odom,-0.0036507844924926758,-0.1571497917175293,1.132559107849002,0.0,0.0,0.0
1676469261.5808825,188,1676469261,575905799,odom,-0.003652215003967285,-0.15715336799621582,1.1325559110581875,0.0,0.0,0.0
1676469261.591135,189,1676469261,587510347,odom,-0.0036526918411254883,-0.15715014934539795,1.1325609096765519,0.0,0.0,0.0
1676469261.5991619,190,1676469261,597048044,odom,-0.003667473793029785,-0.15716242790222168,1.1325538573622704,0.0,0.0,0.0
1676469261.6092637,191,1676469261,606332302,odom,-0.0036537647247314453,-0.15714871883392334,1.1325463206857445,0.0,0.0,0.0
1676469261.6249547,192,1676469261,616817474,odom,-0.0036448240280151367,-0.15716016292572021,1.1325454100847243,0.0,0.0,0.0
1676469261.6324232,193,1676469261,629550933,odom,-0.0036488771438598633,-0.15714502334594727,1.132554961708188,0.0,0.0,0.0
1676469261.6396263,194,1676469261,637270927,odom,-0.0036559104919433594,-0.15714919567108154,1.132550118085742,0.0,0.0,0.0
1676469261.649361,195,1676469261,647159814,odom,-0.0036504268646240234,-0.15714657306671143,1.1325664314061403,0.0,0.0,0.0
1676469261.6593866,196,1676469261,657500743,odom,-0.0036586523056030273,-0.157159686088562,1.132548413130641,0.0,0.0,0.0
1676469261.671368,197,1676469261,667809963,odom,-0.003687620162963867,-0.1571110486984253,1.132558642861247,0.0,0.0,0.0
1676469261.684453,198,1676469261,681969404,odom,-0.0036153793334960938,-0.1571415662765503,1.132587297731638,0.0,0.0,0.0
1676469261.6908164,199,1676469261,688510417,odom,-0.003659844398498535,-0.157143235206604,1.1325441507428884,0.0,0.0,0.0
1676469261.7020433,200,1676469261,698273897,odom,-0.0036226511001586914,-0.1571028232574463,1.1325470375418663,0.0,0.0,0.0
1676469261.711398,201,1676469261,706400156,odom,-0.0035628080368041992,-0.1571117639541626,1.1325371953010561,0.0,0.0,0.0
1676469261.721886,202,1676469261,718534708,odom,-0.003544330596923828,-0.1570298671722412,1.1325306467235088,0.0,0.0,0.0
1676469261.7291074,203,1676469261,727757215,odom,-0.0034600496292114258,-0.1569615602493286,1.1325438795000315,0.0,0.0,0.0
1676469261.7418869,204,1676469261,735844850,odom,-0.0034600496292114258,-0.1569615602493286,1.1325438795000315,0.0,0.0,0.0
1676469261.7505755,205,1676469261,747714042,odom,-0.0032799243927001953,-0.15681016445159912,1.1325390940010547,0.0,0.0,0.0
1676469261.7611237,206,1676469261,758963823,odom,-0.00311887264251709,-0.15671300888061523,1.1325439569979905,0.0,0.0,0.0
1676469261.7692378,207,1676469261,767599344,odom,-0.003072500228881836,-0.15659916400909424,1.132502805581689,0.0,0.0,0.0
1676469261.781548,208,1676469261,776200294,odom,-0.0030851364135742188,-0.15651583671569824,1.1325032124459744,0.0,0.0,0.0
1676469261.7893043,209,1676469261,786806821,odom,-0.003174901008605957,-0.15639352798461914,1.1324802730500698,0.0,0.0,0.0
1676469261.7999003,210,1676469261,796761035,odom,-0.003611326217651367,-0.15610194206237793,1.132448653882742,0.0,0.0,0.0
1676469261.8084404,211,1676469261,806989669,odom,-0.0047321319580078125,-0.15568959712982178,1.1323158805042506,0.0,0.0,0.0
1676469261.8218343,212,1676469261,816235780,odom,-0.005274176597595215,-0.1555032730102539,1.1322892987042668,0.0,0.0,0.0
1676469261.8292885,213,1676469261,827909708,odom,-0.008395552635192871,-0.15477430820465088,1.132050934356451,0.0,0.0,0.0
1676469261.8407528,214,1676469261,838223934,odom,-0.010458588600158691,-0.15447700023651123,1.131778238412738,0.0,0.0,0.0
1676469261.8499079,215,1676469261,847848176,odom,-0.012909173965454102,-0.1540365219116211,1.131772832930088,0.0,0.0,0.0
1676469261.8614244,216,1676469261,858300924,odom,-0.01690232753753662,-0.15360581874847412,1.1316358940362932,0.0,0.0,0.0
1676469261.868814,217,1676469261,865955114,odom,-0.01690232753753662,-0.15360581874847412,1.1316358940362932,0.0,0.0,0.0
1676469261.8845136,218,1676469261,881142377,odom,-0.02375662326812744,-0.15324139595031738,1.1313542277038098,0.0,0.0,0.0
1676469261.8902686,219,1676469261,888678550,odom,-0.026735663414001465,-0.15307855606079102,1.1314069650650025,0.0,0.0,0.0
1676469261.902704,220,1676469261,898174047,odom,-0.028110504150390625,-0.15313971042633057,1.131345683553815,0.0,0.0,0.0
1676469261.9083612,221,1676469261,906931877,odom,-0.03318917751312256,-0.15320086479187012,1.1311848752886058,0.0,0.0,0.0
1676469261.9214063,222,1676469261,919315338,odom,-0.03562295436859131,-0.15325069427490234,1.1311487418651582,0.0,0.0,0.0
1676469261.9290998,223,1676469261,926054954,odom,-0.036728620529174805,-0.1532611846923828,1.1311987086743118,0.0,0.0,0.0
1676469261.9419317,224,1676469261,937527894,odom,-0.04068934917449951,-0.15299713611602783,1.1311057692468167,0.0,0.0,0.0
1676469261.951086,225,1676469261,948488712,odom,-0.04225504398345947,-0.15292823314666748,1.131122993168235,0.0,0.0,0.0
1676469261.960277,226,1676469261,956088542,odom,-0.0429309606552124,-0.1528531312942505,1.131089049062133,0.0,0.0,0.0
1676469261.9712858,227,1676469261,966817140,odom,-0.04461634159088135,-0.152687668800354,1.1310374354213477,0.0,0.0,0.0
1676469261.982998,228,1676469261,976845741,odom,-0.0458066463470459,-0.15247368812561035,1.1309714652836325,0.0,0.0,0.0
1676469261.9911869,229,1676469261,988270282,odom,-0.046366214752197266,-0.1522892713546753,1.1309345568805933,0.0,0.0,0.0
1676469261.9997566,230,1676469261,996371984,odom,-0.04682362079620361,-0.15202200412750244,1.1308723066449164,0.0,0.0,0.0
1676469262.0084097,231,1676469262,6833314,odom,-0.04692041873931885,-0.15178358554840088,1.1308424893051385,0.0,0.0,0.0
1676469262.0213208,232,1676469262,17899036,odom,-0.04688990116119385,-0.15171349048614502,1.130848030409217,0.0,0.0,0.0
1676469262.030873,233,1676469262,28290987,odom,-0.04653275012969971,-0.15155434608459473,1.130797850480676,0.0,0.0,0.0
1676469262.041181,234,1676469262,35640239,odom,-0.04641580581665039,-0.15147781372070312,1.1308156362622976,0.0,0.0,0.0
1676469262.0489764,235,1676469262,47919034,odom,-0.045844316482543945,-0.15140140056610107,1.1308362313449383,0.0,0.0,0.0
1676469262.0595615,236,1676469262,57042837,odom,-0.045532941818237305,-0.15139472484588623,1.1308598100990057,0.0,0.0,0.0
1676469262.072981,237,1676469262,68044185,odom,-0.045418739318847656,-0.15145325660705566,1.1308736434847118,0.0,0.0,0.0
1676469262.084816,238,1676469262,81192493,odom,-0.04488372802734375,-0.15145111083984375,1.1308942191928624,0.0,0.0,0.0
1676469262.0913732,239,1676469262,88577508,odom,-0.044791340827941895,-0.15140533447265625,1.1308835244745017,0.0,0.0,0.0
1676469262.1014807,240,1676469262,99114418,odom,-0.044509172439575195,-0.15141642093658447,1.1308561289459467,0.0,0.0,0.0
1676469262.1096833,241,1676469262,105535030,odom,-0.044509172439575195,-0.15141642093658447,1.1308561289459467,0.0,0.0,0.0
1676469262.1190016,242,1676469262,116034984,odom,-0.04437911510467529,-0.1513824462890625,1.1308934248387814,0.0,0.0,0.0
1676469262.1295545,243,1676469262,126832723,odom,-0.044351816177368164,-0.15132975578308105,1.1308573882877826,0.0,0.0,0.0
1676469262.1451452,244,1676469262,139306068,odom,-0.04439711570739746,-0.15116441249847412,1.130853687760234,0.0,0.0,0.0
1676469262.152721,245,1676469262,150741815,odom,-0.04452872276306152,-0.15098953247070312,1.130829256528616,0.0,0.0,0.0
1676469262.1596174,246,1676469262,158004760,odom,-0.04463791847229004,-0.1509413719177246,1.1308343907684089,0.0,0.0,0.0
1676469262.1692753,247,1676469262,166755676,odom,-0.04484212398529053,-0.1507633924484253,1.1308090101867916,0.0,0.0,0.0
1676469262.1823678,248,1676469262,177943706,odom,-0.04503786563873291,-0.1506277322769165,1.1307427881807088,0.0,0.0,0.0
1676469262.1902406,249,1676469262,188218355,odom,-0.04583907127380371,-0.14987635612487793,1.130504462581873,0.0,0.0,0.0
1676469262.199162,250,1676469262,197475433,odom,-0.04664433002471924,-0.14880108833312988,1.1302453287810088,0.0,0.0,0.0
1676469262.2127652,251,1676469262,207977771,odom,-0.047072529792785645,-0.14802587032318115,1.1300679747015239,0.0,0.0,0.0
1676469262.2228076,252,1676469262,219558000,odom,-0.04786837100982666,-0.14602327346801758,1.129779569938779,0.0,0.0,0.0
1676469262.2301874,253,1676469262,227534532,odom,-0.048927903175354004,-0.142053484916687,1.127801746478677,0.0,0.0,0.0
1676469262.2407184,254,1676469262,236142158,odom,-0.04913067817687988,-0.13941693305969238,1.1259359478116036,0.0,0.0,0.0
1676469262.247551,255,1676469262,245637416,odom,-0.04871535301208496,-0.13709092140197754,1.122679271325469,0.0,0.0,0.0
1676469262.2610137,256,1676469262,256992101,odom,-0.04771828651428223,-0.13377416133880615,1.112071405658126,0.0,0.0,0.0
1676469262.270899,257,1676469262,266838073,odom,-0.047429800033569336,-0.13291668891906738,1.1087018315792083,0.0,0.0,0.0
1676469262.2818916,258,1676469262,277849197,odom,-0.045816659927368164,-0.1289670467376709,1.09047429202497,0.0,0.0,0.0
1676469262.2900972,259,1676469262,285669326,odom,-0.04537653923034668,-0.12801265716552734,1.0852506031483413,0.0,0.0,0.0
1676469262.3006532,260,1676469262,297974348,odom,-0.04407656192779541,-0.12437939643859863,1.0666668810337783,0.0,0.0,0.0
1676469262.3093958,261,1676469262,306265592,odom,-0.04334235191345215,-0.12163853645324707,1.052722470074892,0.0,0.0,0.0
1676469262.320092,262,1676469262,316466093,odom,-0.042821407318115234,-0.12006711959838867,1.045330790221691,0.0,0.0,0.0
1676469262.3298697,263,1676469262,326659679,odom,-0.0415501594543457,-0.11533927917480469,1.0206537815541028,0.0,0.0,0.0
1676469262.3422866,264,1676469262,336612462,odom,-0.03992342948913574,-0.11011433601379395,0.9939273600637913,0.0,0.0,0.0
1676469262.3510423,265,1676469262,347563266,odom,-0.038910865783691406,-0.10655057430267334,0.9754236589729787,0.0,0.0,0.0
1676469262.3610072,266,1676469262,356404781,odom,-0.037252068519592285,-0.10076987743377686,0.9470467052578927,0.0,0.0,0.0
1676469262.370383,267,1676469262,366509675,odom,-0.03615713119506836,-0.09720051288604736,0.9277886392652989,0.0,0.0,0.0
1676469262.3861184,268,1676469262,376566886,odom,-0.03516209125518799,-0.09354758262634277,0.9088401311516763,0.0,0.0,0.0
1676469262.3945456,269,1676469262,391243934,odom,-0.03320324420928955,-0.08616495132446289,0.8713727225899696,0.0,0.0,0.0
1676469262.4011447,270,1676469262,397563457,odom,-0.03263258934020996,-0.0842825174331665,0.8624715780436992,0.0,0.0,0.0
1676469262.4094455,271,1676469262,406855583,odom,-0.03110051155090332,-0.07860493659973145,0.8361499468684196,0.0,0.0,0.0
1676469262.4222915,272,1676469262,417275667,odom,-0.029955029487609863,-0.07506430149078369,0.8192517160475254,0.0,0.0,0.0
1676469262.4296286,273,1676469262,425511598,odom,-0.028958559036254883,-0.07137203216552734,0.8032932181477547,0.0,0.0,0.0
1676469262.4394195,274,1676469262,435925483,odom,-0.027392029762268066,-0.06572830677032471,0.7803525537729263,0.0,0.0,0.0
1676469262.449321,275,1676469262,447117328,odom,-0.026174068450927734,-0.06191837787628174,0.7659527813315391,0.0,0.0,0.0
1676469262.460977,276,1676469262,458141803,odom,-0.024580955505371094,-0.05624973773956299,0.7458129979789258,0.0,0.0,0.0
1676469262.4707582,277,1676469262,466276168,odom,-0.024071335792541504,-0.05429697036743164,0.7395495825827122,0.0,0.0,0.0
1676469262.4827318,278,1676469262,477391004,odom,-0.021690011024475098,-0.04646706581115723,0.715773235297203,0.0,0.0,0.0
1676469262.4914706,279,1676469262,488156080,odom,-0.020436406135559082,-0.042641282081604004,0.7049825019180775,0.0,0.0,0.0
1676469262.499537,280,1676469262,498284578,odom,-0.01799941062927246,-0.034700870513916016,0.6850932601034642,0.0,0.0,0.0
1676469262.5091026,281,1676469262,507431507,odom,-0.01676774024963379,-0.03076779842376709,0.6762255218625068,0.0,0.0,0.0
1676469262.5218334,282,1676469262,517900943,odom,-0.01627981662750244,-0.028778553009033203,0.6720466404139995,0.0,0.0,0.0
1676469262.5308444,283,1676469262,527644157,odom,-0.014350414276123047,-0.022869467735290527,0.6601335088133812,0.0,0.0,0.0
1676469262.541281,284,1676469262,536604404,odom,-0.012499690055847168,-0.016965150833129883,0.6493112306058406,0.0,0.0,0.0
1676469262.5507998,285,1676469262,547942876,odom,-0.011417627334594727,-0.013109564781188965,0.6427256684482098,0.0,0.0,0.0
1676469262.5601978,286,1676469262,558603048,odom,-0.009659767150878906,-0.007508993148803711,0.6333556879699231,0.0,0.0,0.0
1676469262.570396,287,1676469262,567774534,odom,-0.008489608764648438,-0.0037363767623901367,0.6276310588538647,0.0,0.0,0.0
1676469262.5814228,288,1676469262,576774120,odom,-0.007831573486328125,-0.001865983009338379,0.6247521170675755,0.0,0.0,0.0
1676469262.5897806,289,1676469262,586884260,odom,-0.006775498390197754,0.0017268657684326172,0.6193471151173114,0.0,0.0,0.0
1676469262.6015728,290,1676469262,596785545,odom,-0.004502773284912109,0.008812665939331055,0.608549634128809,0.0,0.0,0.0
1676469262.6092503,291,1676469262,607267379,odom,-0.0029162168502807617,0.013973474502563477,0.6005424976289273,0.0,0.0,0.0
1676469262.621979,292,1676469262,618798255,odom,-0.0024580955505371094,0.01566910743713379,0.598007451993227,0.0,0.0,0.0
1676469262.631023,293,1676469262,627875328,odom,-0.00025975704193115234,0.02217721939086914,0.5869726019442082,0.0,0.0,0.0
1676469262.640283,294,1676469262,637060403,odom,0.0009069442749023438,0.025244951248168945,0.5814512262165547,0.0,0.0,0.0
1676469262.652825,295,1676469262,649377346,odom,0.0018029212951660156,0.028343677520751953,0.5756842887699605,0.0,0.0,0.0
1676469262.6611867,296,1676469262,657681941,odom,0.0027887821197509766,0.031180620193481445,0.5697859465897084,0.0,0.0,0.0
1676469262.6696057,297,1676469262,665845394,odom,0.003777742385864258,0.03394007682800293,0.5635783794939517,0.0,0.0,0.0
1676469262.6840925,298,1676469262,681118488,odom,0.0055255889892578125,0.03900551795959473,0.5508630511581898,0.0,0.0,0.0
1676469262.6916106,299,1676469262,688558340,odom,0.005897045135498047,0.040267229080200195,0.5476559357821942,0.0,0.0,0.0
1676469262.700133,300,1676469262,698837280,odom,0.00734710693359375,0.044734954833984375,0.5339856357514858,0.0,0.0,0.0
1676469262.7086527,301,1676469262,706929922,odom,0.008043289184570312,0.04695749282836914,0.5270089180409908,0.0,0.0,0.0
1676469262.720117,302,1676469262,716058969,odom,0.008367538452148438,0.04796957969665527,0.523504935580492,0.0,0.0,0.0
1676469262.7286046,303,1676469262,727469205,odom,0.009639263153076172,0.05179953575134277,0.5089958137094974,0.0,0.0,0.0
1676469262.7401185,304,1676469262,735890388,odom,0.009639263153076172,0.05179953575134277,0.5091485135853291,0.0,0.0,0.0
1676469262.751799,305,1676469262,749544382,odom,0.011121511459350586,0.055970191955566406,0.49075238693356515,0.0,0.0,0.0
1676469262.760216,306,1676469262,756534099,odom,0.011254310607910156,0.05669069290161133,0.4872028052031994,0.0,0.0,0.0
1676469262.768928,307,1676469262,766302108,odom,0.01180124282836914,0.05826449394226074,0.4800418438136578,0.0,0.0,0.0
1676469262.7784538,308,1676469262,776225805,odom,0.012559890747070312,0.06022214889526367,0.4694044010102749,0.0,0.0,0.0
1676469262.7885237,309,1676469262,786605596,odom,0.012745380401611328,0.0608670711517334,0.46604837213158606,0.0,0.0,0.0
1676469262.7998664,310,1676469262,796434640,odom,0.013475418090820312,0.06318068504333496,0.45233862525820734,0.0,0.0,0.0
1676469262.8085768,311,1676469262,807237625,odom,0.013899564743041992,0.06468629837036133,0.44252284266352654,0.0,0.0,0.0
1676469262.8207936,312,1676469262,816410064,odom,0.014076471328735352,0.06523561477661133,0.43942679173350335,0.0,0.0,0.0
1676469262.8287761,313,1676469262,826615333,odom,0.014410018920898438,0.06609654426574707,0.4332757856667042,0.0,0.0,0.0
1676469262.8405406,314,1676469262,838422060,odom,0.015061378479003906,0.06803441047668457,0.41860682876706123,0.0,0.0,0.0
1676469262.8502915,315,1676469262,848104238,odom,0.015168428421020508,0.06849384307861328,0.415886062091589,0.0,0.0,0.0
1676469262.860863,316,1676469262,858014345,odom,0.01552438735961914,0.06937646865844727,0.4078823142111302,0.0,0.0,0.0
1676469262.8690772,317,1676469262,866590738,odom,0.015711307525634766,0.06951141357421875,0.40536741639971735,0.0,0.0,0.0
1676469262.8826454,318,1676469262,878032922,odom,0.015923261642456055,0.07019639015197754,0.39806109381318094,0.0,0.0,0.0
1676469262.8889859,319,1676469262,886969327,odom,0.016011714935302734,0.07061600685119629,0.3933945469081402,0.0,0.0,0.0
1676469262.8987868,320,1676469262,897398948,odom,0.015967130661010742,0.07115864753723145,0.38443670604825025,0.0,0.0,0.0
1676469262.9088886,321,1676469262,906049966,odom,0.016087055206298828,0.07114958763122559,0.38223769295811655,0.0,0.0,0.0
1676469262.9223096,322,1676469262,920145988,odom,0.016060352325439453,0.07138752937316895,0.3761540806591511,0.0,0.0,0.0
1676469262.9310346,323,1676469262,928856372,odom,0.015885353088378906,0.07134294509887695,0.3702114682495594,0.0,0.0,0.0
1676469262.9413388,324,1676469262,936043262,odom,0.0157012939453125,0.07138681411743164,0.3684958245933056,0.0,0.0,0.0
1676469262.9508402,325,1676469262,948411464,odom,0.015545368194580078,0.07131743431091309,0.3629196786820889,0.0,0.0,0.0
1676469262.9595783,326,1676469262,957896709,odom,0.015350341796875,0.07102108001708984,0.35748786752820016,0.0,0.0,0.0
1676469262.969304,327,1676469262,966569900,odom,0.015285730361938477,0.07072091102600098,0.3539706444561481,0.0,0.0,0.0
1676469262.9841611,328,1676469262,976493597,odom,0.015125036239624023,0.07041287422180176,0.35057483124136923,0.0,0.0,0.0
1676469262.990493,329,1676469262,986499309,odom,0.015037059783935547,0.07017731666564941,0.3488808814585209,0.0,0.0,0.0
1676469262.9999137,330,1676469262,998167991,odom,0.01455998420715332,0.0692901611328125,0.3418993130862713,0.0,0.0,0.0
1676469263.0100522,331,1676469263,7351875,odom,0.01413583755493164,0.06886839866638184,0.3384887637555599,0.0,0.0,0.0
1676469263.021828,332,1676469263,17668962,odom,0.013788461685180664,0.06835365295410156,0.33504303523898127,0.0,0.0,0.0
1676469263.029568,333,1676469263,26515960,odom,0.013260126113891602,0.06759858131408691,0.32979787600636484,0.0,0.0,0.0
1676469263.0411484,334,1676469263,37072896,odom,0.012799978256225586,0.06702780723571777,0.32631376402974127,0.0,0.0,0.0
1676469263.052334,335,1676469263,49198150,odom,0.012239933013916016,0.06603837013244629,0.32092744807600976,0.0,0.0,0.0
1676469263.0589232,336,1676469263,56523323,odom,0.011775493621826172,0.06525754928588867,0.31734987553954125,0.0,0.0,0.0
1676469263.0694227,337,1676469263,66912174,odom,0.011076927185058594,0.06412172317504883,0.3118941729962826,0.0,0.0,0.0
1676469263.0848424,338,1676469263,82768440,odom,0.010413885116577148,0.0628662109375,0.3064409484565258,0.0,0.0,0.0
1676469263.092225,339,1676469263,90469360,odom,0.009944438934326172,0.06203031539916992,0.30271197536587713,0.0,0.0,0.0
1676469263.102289,340,1676469263,98899602,odom,0.009318113327026367,0.06112337112426758,0.29916929522156716,0.0,0.0,0.0
1676469263.1088285,341,1676469263,106895685,odom,0.008826971054077148,0.06022167205810547,0.29552188336253166,0.0,0.0,0.0
1676469263.1186569,342,1676469263,116438388,odom,0.008475303649902344,0.05978965759277344,0.29375419815182685,0.0,0.0,0.0
1676469263.1304674,343,1676469263,128093481,odom,0.006982326507568359,0.05761599540710449,0.2847564681470394,0.0,0.0,0.0
1676469263.1429558,344,1676469263,139321565,odom,0.006365060806274414,0.05670499801635742,0.2812345845758915,0.0,0.0,0.0
1676469263.1513915,345,1676469263,149536848,odom,0.005677700042724609,0.055696964263916016,0.27768842030167584,0.0,0.0,0.0
1676469263.160473,346,1676469263,157878875,odom,0.004654645919799805,0.05425524711608887,0.27245307953953746,0.0,0.0,0.0
1676469263.1702003,347,1676469263,166617631,odom,0.0043447017669677734,0.053679704666137695,0.270805886477232,0.0,0.0,0.0
1676469263.1836667,348,1676469263,182081699,odom,0.0030984878540039062,0.05185747146606445,0.26399501599669456,0.0,0.0,0.0
1676469263.1895554,349,1676469263,185705900,odom,0.0030984878540039062,0.05185747146606445,0.26407081980109215,0.0,0.0,0.0
1676469263.2007887,350,1676469263,199156761,odom,0.0017313957214355469,0.05003023147583008,0.2575946361482143,0.0,0.0,0.0
1676469263.2102785,351,1676469263,208586931,odom,0.0007798671722412109,0.04858040809631348,0.252781480461359,0.0,0.0,0.0
1676469263.2229235,352,1676469263,220012426,odom,0.0002315044403076172,0.04759931564331055,0.24971463280320166,0.0,0.0,0.0
1676469263.2300398,353,1676469263,228393554,odom,-0.0008738040924072266,0.04619121551513672,0.24516195850968361,0.0,0.0,0.0
1676469263.2399092,354,1676469263,238132953,odom,-0.001456618309020996,0.04525184631347656,0.24223586129546165,0.0,0.0,0.0
1676469263.2514417,355,1676469263,246975660,odom,-0.0018262863159179688,0.04479551315307617,0.240730929929018,0.0,0.0,0.0
1676469263.2606573,356,1676469263,257426738,odom,-0.003152608871459961,0.04301762580871582,0.235124322360754,0.0,0.0,0.0
1676469263.2696266,357,1676469263,265933513,odom,-0.0035446882247924805,0.04253888130187988,0.2337727767765522,0.0,0.0,0.0
1676469263.2838588,358,1676469263,279533147,odom,-0.004485487937927246,0.04135298728942871,0.2296939516723156,0.0,0.0,0.0
1676469263.2890737,359,1676469263,286347150,odom,-0.005214691162109375,0.040463924407958984,0.22701423946022986,0.0,0.0,0.0
1676469263.3008273,360,1676469263,299160480,odom,-0.006381392478942871,0.038767337799072266,0.22173657123446466,0.0,0.0,0.0
1676469263.311947,361,1676469263,307942867,odom,-0.006952643394470215,0.037970542907714844,0.2191600009381771,0.0,0.0,0.0
1676469263.322434,362,1676469263,316612958,odom,-0.007302522659301758,0.03756308555603027,0.21793681806921958,0.0,0.0,0.0
1676469263.3285456,363,1676469263,326040267,odom,-0.008297443389892578,0.036452293395996094,0.2140898564875126,0.0,0.0,0.0
1676469263.3416884,364,1676469263,339275598,odom,-0.009290933609008789,0.03536868095397949,0.21035452956557274,0.0,0.0,0.0
1676469263.348938,365,1676469263,347601175,odom,-0.009903907775878906,0.034751176834106445,0.20797603172659873,0.0,0.0,0.0
1676469263.363497,366,1676469263,356914520,odom,-0.01026010513305664,0.03433680534362793,0.20669004772305488,0.0,0.0,0.0
1676469263.3698475,367,1676469263,367665290,odom,-0.011257171630859375,0.03343653678894043,0.20306600174307823,0.0,0.0,0.0
1676469263.3816152,368,1676469263,378818988,odom,-0.01208806037902832,0.03257942199707031,0.1993917668521404,0.0,0.0,0.0
1676469263.3902154,369,1676469263,386445045,odom,-0.012636542320251465,0.032007455825805664,0.19711824474930761,0.0,0.0,0.0
1676469263.4005868,370,1676469263,396388530,odom,-0.013463377952575684,0.031146764755249023,0.1934739197075367,0.0,0.0,0.0
1676469263.4100726,371,1676469263,408286809,odom,-0.014275789260864258,0.03032851219177246,0.18993408636450768,0.0,0.0,0.0
1676469263.4218233,372,1676469263,417262792,odom,-0.014771580696105957,0.02988743782043457,0.1876718638241291,0.0,0.0,0.0
1676469263.4294794,373,1676469263,427597999,odom,-0.015531539916992188,0.02914905548095703,0.18416291696429252,0.0,0.0,0.0
1676469263.4414423,374,1676469263,439272165,odom,-0.016312122344970703,0.02850174903869629,0.18076966406702993,0.0,0.0,0.0
1676469263.4502487,375,1676469263,448150873,odom,-0.016590118408203125,0.028312206268310547,0.1796585190117359,0.0,0.0,0.0
1676469263.4618754,376,1676469263,456680297,odom,-0.017022252082824707,0.027997255325317383,0.17742368391156196,0.0,0.0,0.0
1676469263.4684443,377,1676469263,467324018,odom,-0.0177156925201416,0.027596712112426758,0.1740675256073475,0.0,0.0,0.0
1676469263.4851134,378,1676469263,477070569,odom,-0.017982959747314453,0.027489900588989258,0.1730216189682484,0.0,0.0,0.0
1676469263.4917605,379,1676469263,489042997,odom,-0.018340468406677246,0.027241945266723633,0.17066411045193672,0.0,0.0,0.0
1676469263.5023482,380,1676469263,499763250,odom,-0.01925981044769287,0.026917457580566406,0.16632059690356255,0.0,0.0,0.0
1676469263.510768,381,1676469263,506344795,odom,-0.019579172134399414,0.026737451553344727,0.16401981895565984,0.0,0.0,0.0
1676469263.5210624,382,1676469263,517416715,odom,-0.01997661590576172,0.026680707931518555,0.1618915272295475,0.0,0.0,0.0
1676469263.529264,383,1676469263,528149843,odom,-0.02054417133331299,0.026558399200439453,0.15745894023776055,0.0,0.0,0.0
1676469263.5420504,384,1676469263,537072420,odom,-0.020932793617248535,0.02669501304626465,0.15522181076407432,0.0,0.0,0.0
1676469263.550966,385,1676469263,548949241,odom,-0.021150588989257812,0.02671957015991211,0.1530428009569645,0.0,0.0,0.0
1676469263.5601115,386,1676469263,558224201,odom,-0.02151930332183838,0.02688431739807129,0.14978611882328988,0.0,0.0,0.0
1676469263.5709195,387,1676469263,568943262,odom,-0.021759986877441406,0.02710247039794922,0.14753411318659782,0.0,0.0,0.0
1676469263.5809312,388,1676469263,578374385,odom,-0.02216207981109619,0.027404069900512695,0.14432624008059503,0.0,0.0,0.0
1676469263.5904577,389,1676469263,587125062,odom,-0.02216207981109619,0.027404069900512695,0.14436453248858452,0.0,0.0,0.0
1676469263.6002064,390,1676469263,595728158,odom,-0.022455453872680664,0.027709007263183594,0.13998528622984885,0.0,0.0,0.0
1676469263.6104076,391,1676469263,607307195,odom,-0.022662997245788574,0.02794933319091797,0.13788567836880683,0.0,0.0,0.0
1676469263.6185133,392,1676469263,615292787,odom,-0.022662997245788574,0.02794933319091797,0.137921954447031,0.0,0.0,0.0
1676469263.6290216,393,1676469263,627967119,odom,-0.023105502128601074,0.028830528259277344,0.13153256474137306,0.0,0.0,0.0
1676469263.637664,394,1676469263,635781526,odom,-0.02306997776031494,0.029030323028564453,0.13053420369029045,0.0,0.0,0.0
1676469263.651176,395,1676469263,648699998,odom,-0.02335536479949951,0.029568910598754883,0.12733357543349266,0.0,0.0,0.0
1676469263.6615543,396,1676469263,656976461,odom,-0.02339303493499756,0.02999734878540039,0.12531550089716909,0.0,0.0,0.0
1676469263.6696181,397,1676469263,668032884,odom,-0.023558974266052246,0.030946731567382812,0.12127340114712713,0.0,0.0,0.0
1676469263.6826541,398,1676469263,679814815,odom,-0.023570775985717773,0.031482696533203125,0.11929684098362921,0.0,0.0,0.0
1676469263.6906984,399,1676469263,687114238,odom,-0.023676395416259766,0.031965017318725586,0.11732330557703971,0.0,0.0,0.0
1676469263.7000966,400,1676469263,695792913,odom,-0.023605942726135254,0.0324862003326416,0.11535744592547414,0.0,0.0,0.0
1676469263.7093167,401,1676469263,707256555,odom,-0.02361428737640381,0.033237457275390625,0.11242604520916938,0.0,0.0,0.0
1676469263.7200363,402,1676469263,716416597,odom,-0.02362668514251709,0.03356051445007324,0.11145427703261375,0.0,0.0,0.0
1676469263.7297876,403,1676469263,726276159,odom,-0.023502111434936523,0.03441643714904785,0.10864115965962409,0.0,0.0,0.0
1676469263.7410545,404,1676469263,738410234,odom,-0.02347588539123535,0.03493237495422363,0.10679891512989997,0.0,0.0,0.0
1676469263.7535775,405,1676469263,751773834,odom,-0.023360252380371094,0.03619241714477539,0.10321587881445884,0.0,0.0,0.0
1676469263.7625008,406,1676469263,760145664,odom,-0.023264765739440918,0.036602020263671875,0.10225798285603524,0.0,0.0,0.0
1676469263.7686865,407,1676469263,767107248,odom,-0.023140668869018555,0.03764963150024414,0.09959653422236442,0.0,0.0,0.0
1676469263.7847672,408,1676469263,776670217,odom,-0.02309715747833252,0.03792929649353027,0.09875584859251976,0.0,0.0,0.0
1676469263.7915452,409,1676469263,787380695,odom,-0.022987961769104004,0.038281917572021484,0.09781011959910392,0.0,0.0,0.0
1676469263.8009171,410,1676469263,798731327,odom,-0.02252328395843506,0.04062461853027344,0.09263216119408607,0.0,0.0,0.0
1676469263.8107996,411,1676469263,807241201,odom,-0.022451281547546387,0.041054487228393555,0.09177543866038322,0.0,0.0,0.0
1676469263.8210845,412,1676469263,817893981,odom,-0.02219974994659424,0.0420684814453125,0.08920736829638481,0.0,0.0,0.0
1676469263.8300898,413,1676469263,827610969,odom,-0.021941781044006348,0.04283642768859863,0.08746021199822426,0.0,0.0,0.0
1676469263.8437905,414,1676469263,837970495,odom,-0.02180767059326172,0.0436556339263916,0.08579961940646172,0.0,0.0,0.0
1676469263.85086,415,1676469263,848837614,odom,-0.021706342697143555,0.04470705986022949,0.08317180007100106,0.0,0.0,0.0
1676469263.8609962,416,1676469263,858229160,odom,-0.02153778076171875,0.04598593711853027,0.08060307205319404,0.0,0.0,0.0
1676469263.8715413,417,1676469263,867893218,odom,-0.021440505981445312,0.04648089408874512,0.07971246364712715,0.0,0.0,0.0
1676469263.884766,418,1676469263,877592086,odom,-0.021150588989257812,0.04788494110107422,0.07608690509200097,0.0,0.0,0.0
1676469263.892557,419,1676469263,891435861,odom,-0.020873188972473145,0.04904508590698242,0.07352039764523506,0.0,0.0,0.0
1676469263.9000013,420,1676469263,898623466,odom,-0.020692825317382812,0.04946017265319824,0.07262674130797386,0.0,0.0,0.0
1676469263.9092758,421,1676469263,906970977,odom,-0.020493388175964355,0.05066728591918945,0.07003575473427773,0.0,0.0,0.0
1676469263.9206944,422,1676469263,917311668,odom,-0.02021467685699463,0.05147743225097656,0.0681974013030529,0.0,0.0,0.0
1676469263.9301682,423,1676469263,927643537,odom,-0.01991724967956543,0.052706003189086914,0.06560465499758722,0.0,0.0,0.0
1676469263.9405696,424,1676469263,938955545,odom,-0.01962292194366455,0.053815364837646484,0.06298297479748727,0.0,0.0,0.0
1676469263.9504378,425,1676469263,947050809,odom,-0.019452810287475586,0.05411362648010254,0.06207520365118981,0.0,0.0,0.0
1676469263.9606533,426,1676469263,957719802,odom,-0.019137263298034668,0.0552821159362793,0.05954922434687615,0.0,0.0,0.0
1676469263.9716904,427,1676469263,968712329,odom,-0.018852949142456055,0.056455135345458984,0.05713863347172738,0.0,0.0,0.0
1676469263.985092,428,1676469263,980343341,odom,-0.018852949142456055,0.056455135345458984,0.05714980602860452,0.0,0.0,0.0
1676469263.9908936,429,1676469263,989221811,odom,-0.018554091453552246,0.0574650764465332,0.05455634967684746,0.0,0.0,0.0
1676469264.0000346,430,1676469263,998324632,odom,-0.01802074909210205,0.059068918228149414,0.05131304661631585,0.0,0.0,0.0
1676469264.0089889,431,1676469264,7244586,odom,-0.01795065402984619,0.059410810470581055,0.05046606444716453,0.0,0.0,0.0
1676469264.0233681,432,1676469264,19312143,odom,-0.017686128616333008,0.0604863166809082,0.04822331307530403,0.0,0.0,0.0
1676469264.030474,433,1676469264,27472734,odom,-0.01740419864654541,0.06117892265319824,0.0466844803750515,0.0,0.0,0.0
1676469264.0402656,434,1676469264,38398981,odom,-0.017150282859802246,0.061806440353393555,0.04498808330893517,0.0,0.0,0.0
1676469264.0515187,435,1676469264,47550439,odom,-0.017032861709594727,0.06256961822509766,0.04363967023491859,0.0,0.0,0.0
1676469264.0622842,436,1676469264,57677030,odom,-0.016776442527770996,0.0634911060333252,0.041358849591016766,0.0,0.0,0.0
1676469264.0704699,437,1676469264,67686080,odom,-0.01651620864868164,0.06413555145263672,0.03993855993151664,0.0,0.0,0.0
1676469264.0816133,438,1676469264,80343246,odom,-0.016237616539001465,0.0655362606048584,0.03701057358384133,0.0,0.0,0.0
1676469264.0899448,439,1676469264,87490320,odom,-0.0161435604095459,0.06612324714660645,0.03549555742144585,0.0,0.0,0.0
1676469264.1010253,440,1676469264,96076250,odom,-0.01591646671295166,0.06677460670471191,0.03413530206084252,0.0,0.0,0.0
1676469264.1108606,441,1676469264,107884883,odom,-0.015763163566589355,0.06740641593933105,0.03262149087786675,0.0,0.0,0.0
1676469264.1198545,442,1676469264,116244792,odom,-0.015700340270996094,0.06768631935119629,0.03182112392783165,0.0,0.0,0.0
1676469264.1292708,443,1676469264,127522468,odom,-0.015381932258605957,0.06923532485961914,0.028307771080732347,0.0,0.0,0.0
1676469264.1388693,444,1676469264,135946750,odom,-0.015317559242248535,0.06950092315673828,0.027515994638204578,0.0,0.0,0.0
1676469264.1507895,445,1676469264,147282361,odom,-0.015161991119384766,0.07004785537719727,0.026176993316411976,0.0,0.0,0.0
1676469264.1608524,446,1676469264,157365322,odom,-0.014968633651733398,0.07088351249694824,0.02390899888873101,0.0,0.0,0.0
1676469264.1689954,447,1676469264,165389537,odom,-0.014960050582885742,0.07111477851867676,0.023192590349912653,0.0,0.0,0.0
1676469264.181681,448,1676469264,179740190,odom,-0.014752626419067383,0.07230329513549805,0.01959908189177514,0.0,0.0,0.0
1676469264.189545,449,1676469264,187769412,odom,-0.014675736427307129,0.07263040542602539,0.018172395604848873,0.0,0.0,0.0
1676469264.2015076,450,1676469264,199356555,odom,-0.014465093612670898,0.0731046199798584,0.01676092512011529,0.0,0.0,0.0
1676469264.208739,451,1676469264,206180334,odom,-0.01445305347442627,0.07329750061035156,0.016127875155210504,0.0,0.0,0.0
1676469264.2215717,452,1676469264,216967105,odom,-0.014400362968444824,0.07389450073242188,0.014015659779310236,0.0,0.0,0.0
1676469264.229889,453,1676469264,227942943,odom,-0.014255523681640625,0.07443737983703613,0.012011137193441403,0.0,0.0,0.0
1676469264.2436113,454,1676469264,239820241,odom,-0.014324545860290527,0.07497119903564453,0.009984764140844359,0.0,0.0,0.0
1676469264.2514539,455,1676469264,246841192,odom,-0.014276742935180664,0.0751793384552002,0.00933986713290216,0.0,0.0,0.0
1676469264.26088,456,1676469264,257887840,odom,-0.01433706283569336,0.07580018043518066,0.0066124026000499835,0.0,0.0,0.0
1676469264.270806,457,1676469264,268288373,odom,-0.014257073402404785,0.07632160186767578,0.004741692489385611,0.0,0.0,0.0
1676469264.2806873,458,1676469264,278309583,odom,-0.014281749725341797,0.07656311988830566,0.0034522628962993657,0.0,0.0,0.0
1676469264.2892344,459,1676469264,287480592,odom,-0.014259099960327148,0.07672286033630371,0.002731893151998524,0.0,0.0,0.0
1676469264.3018565,460,1676469264,299021720,odom,-0.014313578605651855,0.07703256607055664,0.0009821305453777338,0.0,0.0,0.0
1676469264.3093207,461,1676469264,307286977,odom,-0.014362812042236328,0.07717013359069824,-0.0002256829321384407,0.0,0.0,0.0
1676469264.3218744,462,1676469264,318935155,odom,-0.014328837394714355,0.07739686965942383,-0.002206520754098891,0.0,0.0,0.0
1676469264.3292458,463,1676469264,327883958,odom,-0.01428067684173584,0.07762813568115234,-0.003330063563585277,0.0,0.0,0.0
1676469264.342869,464,1676469264,338927507,odom,-0.014340877532958984,0.07780766487121582,-0.004402646189928052,0.0,0.0,0.0
1676469264.3529727,465,1676469264,349102020,odom,-0.014505982398986816,0.07810354232788086,-0.005593198400735851,0.0,0.0,0.0
1676469264.362802,466,1676469264,357764005,odom,-0.014505982398986816,0.07838678359985352,-0.007222907930612563,0.0,0.0,0.0
1676469264.3701525,467,1676469264,367687225,odom,-0.014555692672729492,0.0785517692565918,-0.008386113625764847,0.0,0.0,0.0
1676469264.3828773,468,1676469264,377500772,odom,-0.014752388000488281,0.07883286476135254,-0.010379522663354873,0.0,0.0,0.0
1676469264.3891826,469,1676469264,387331008,odom,-0.014803051948547363,0.07883715629577637,-0.010848382359743121,0.0,0.0,0.0
1676469264.3999448,470,1676469264,395867824,odom,-0.01491999626159668,0.07892918586730957,-0.011928997236490248,0.0,0.0,0.0
1676469264.4110687,471,1676469264,407632112,odom,-0.015192270278930664,0.07891607284545898,-0.013448115020990373,0.0,0.0,0.0
1676469264.420862,472,1676469264,417997598,odom,-0.015360236167907715,0.07892966270446777,-0.014335468703508374,0.0,0.0,0.0
1676469264.4285972,473,1676469264,427047252,odom,-0.015624165534973145,0.07884836196899414,-0.016237385421991345,0.0,0.0,0.0
1676469264.4438453,474,1676469264,436774969,odom,-0.01573967933654785,0.07881402969360352,-0.01673112602829933,0.0,0.0,0.0
1676469264.4521627,475,1676469264,450920104,odom,-0.016063690185546875,0.0786902904510498,-0.018630363017320628,0.0,0.0,0.0
1676469264.4633346,476,1676469264,460062980,odom,-0.0161362886428833,0.07860064506530762,-0.019121732836961745,0.0,0.0,0.0
1676469264.4723723,477,1676469264,468753337,odom,-0.01631033420562744,0.07858014106750488,-0.02014039121270179,0.0,0.0,0.0
1676469264.4830604,478,1676469264,480291843,odom,-0.016646981239318848,0.07844305038452148,-0.02150933998227119,0.0,0.0,0.0
1676469264.4909375,479,1676469264,487050294,odom,-0.01669633388519287,0.07831001281738281,-0.022009178930521,0.0,0.0,0.0
1676469264.500177,480,1676469264,497134447,odom,-0.017000317573547363,0.07798075675964355,-0.024651211243867863,0.0,0.0,0.0
1676469264.5101757,481,1676469264,506079673,odom,-0.017000317573547363,0.07798075675964355,-0.024665166550874702,0.0,0.0,0.0
1676469264.5227766,482,1676469264,519390821,odom,-0.01737678050994873,0.07758378982543945,-0.02661300593018531,0.0,0.0,0.0
1676469264.5297766,483,1676469264,527337789,odom,-0.01743495464324951,0.07741761207580566,-0.027080144268274296,0.0,0.0,0.0
1676469264.5406063,484,1676469264,539044380,odom,-0.01770329475402832,0.0771484375,-0.029204483205080026,0.0,0.0,0.0
1676469264.549823,485,1676469264,546640396,odom,-0.017756104469299316,0.07706999778747559,-0.029772227174043646,0.0,0.0,0.0
1676469264.5616846,486,1676469264,559067726,odom,-0.017995119094848633,0.07669878005981445,-0.03170147023797035,0.0,0.0,0.0
