Time,header.seq,header.stamp.secs,header.stamp.nsecs,header.frame_id,vector.x,vector.y,vector.z
1676469259.740074,1,1676469259,738442659,,2.335393578240176,-4.435112805578503,-1.9303677590514157
1676469259.749761,2,1676469259,746554851,,2.3193844416484315,-4.425839019194076,-1.9356852570211323
1676469259.7585826,3,1676469259,756761312,,2.3116750298458544,-4.432202401004705,-1.9266083667779106
1676469259.771399,4,1676469259,768187046,,2.3122768778471814,-4.436686396321622,-1.932458367659632
1676469259.7804387,5,1676469259,778770208,,2.3350285910614774,-4.420443361015602,-1.9531020991659958
1676469259.7904878,6,1676469259,788849830,,2.2948705973969923,-4.439978447037655,-1.9345106819810263
1676469259.800586,7,1676469259,798336505,,2.321579363034925,-4.42268175118625,-1.928072253589104
1676469259.8143466,8,1676469259,811580896,,2.303548399153046,-4.457224349030145,-1.9307675242851468
1676469259.828829,9,1676469259,822774171,,2.293179459264842,-4.456205417166847,-1.9267868509967327
1676469259.8379233,10,1676469259,832484960,,2.315975786022073,-4.434043245641909,-1.9326155785754056
1676469259.8413825,11,1676469259,839884519,,2.318486085289885,-4.447935579079288,-1.926743452023323
1676469259.8522651,12,1676469259,848281860,,2.35134820328497,-4.413859735606826,-1.9350970765668858
1676469259.8586655,13,1676469259,856890678,,2.3702741584049507,-4.437552010915937,-1.9259002244984318
1676469259.8716342,14,1676469259,866902589,,2.3357990269084166,-4.426728445350144,-1.9360481035508093
1676469259.8815756,15,1676469259,879393339,,2.280583883392616,-4.4489965012069925,-1.9291336590866641
1676469259.8906727,16,1676469259,888742923,,2.3087422569858504,-4.432681389649298,-1.9344458290879796
1676469259.9044104,17,1676469259,899005413,,2.295892876058013,-4.437482918940234,-1.925248121383527
1676469259.909818,18,1676469259,908575057,,2.298002127009875,-4.460340595790489,-1.9236057422170714
1676469259.923025,19,1676469259,920391321,,2.3075598473862446,-4.434645281577433,-1.928587480492322
1676469259.931008,20,1676469259,929517745,,2.333844267920854,-4.422575384120397,-1.9401726180186085
1676469259.9458678,21,1676469259,938751697,,2.313480355204911,-4.441535018304697,-1.9255473362489381
1676469259.953881,22,1676469259,951823472,,2.3052643877498684,-4.428918431664996,-1.942055247350597
1676469259.9606075,23,1676469259,959144592,,2.3171370128379207,-4.4370360542660485,-1.9280183858599644
1676469259.970627,24,1676469259,969170570,,2.3229074466126765,-4.422409188943156,-1.9322409369757605
1676469259.9803817,25,1676469259,978316783,,2.3039056396060653,-4.455394882614638,-1.916199711226038
1676469259.9917839,26,1676469259,989199638,,2.3103635612760383,-4.435789951514801,-1.9224553163765947
1676469259.9992864,27,1676469259,997949361,,2.2940042514654904,-4.448852918536495,-1.9323621226175458
1676469260.01098,28,1676469260,8956193,,2.347073431248693,-4.4188999821235875,-1.9442426716706755
1676469260.0254376,29,1676469260,19824981,,2.3339155176029904,-4.42955631542528,-1.9405864034529365
1676469260.032325,30,1676469260,30408382,,2.3129726722093307,-4.447182674329905,-1.9222575528277217
1676469260.0412571,31,1676469260,39373874,,2.310634807674334,-4.443383548517823,-1.9339639776131612
1676469260.0521464,32,1676469260,50609111,,2.2971711316353716,-4.470665939798076,-1.9180978644144042
1676469260.0591989,33,1676469260,57673931,,2.3031435420546607,-4.444886540467271,-1.928861755458258
1676469260.0714097,34,1676469260,68419218,,2.299158061639951,-4.436374045014226,-1.9389364030335199
1676469260.0805054,35,1676469260,77624797,,2.304147417983433,-4.459794754638822,-1.9216016733357066
1676469260.0916991,36,1676469260,89935302,,2.3176777891825844,-4.449175804976914,-1.9261090342958298
1676469260.098658,37,1676469260,97368001,,2.3204931161666416,-4.436164907731588,-1.9380445724867528
1676469260.1093936,38,1676469260,107794761,,2.3150545327578573,-4.415536528299945,-1.9484945265861222
1676469260.1247609,39,1676469260,119853019,,2.3199683177163584,-4.44411070907223,-1.9238674701214118
1676469260.1299164,40,1676469260,128274917,,2.32237545869705,-4.426101917831101,-1.9288281665358706
1676469260.1396909,41,1676469260,136970281,,2.295925432317774,-4.442297166884394,-1.935172525316161
1676469260.150009,42,1676469260,148325204,,2.348379348576497,-4.426895595791295,-1.925570727607662
1676469260.159355,43,1676469260,157299041,,2.3389360111682427,-4.41651068893842,-1.9333221261109135
1676469260.1715844,44,1676469260,168665647,,2.3061729894194354,-4.4516780039661175,-1.9292336205918594
1676469260.185264,45,1676469260,179194211,,2.325831200162501,-4.44571508220108,-1.9188672780552696
1676469260.192409,46,1676469260,190151691,,2.3210612929794223,-4.436827690985712,-1.9284064353744939
1676469260.1989436,47,1676469260,197333335,,2.303256411169795,-4.442425316453007,-1.9238422431282796
1676469260.21208,48,1676469260,208739995,,2.291008827024557,-4.459250590757073,-1.9290619472974024
1676469260.2261155,49,1676469260,221704959,,2.3347856488944974,-4.440220259784183,-1.932132035221139
1676469260.23477,50,1676469260,231919050,,2.3328560689825135,-4.434953716831717,-1.9233801916505762
1676469260.242962,51,1676469260,239218473,,2.3077914113800975,-4.442605848505044,-1.9399585246674265
1676469260.2516923,52,1676469260,248302936,,2.3249573669706955,-4.424270163767114,-1.926120366657072
1676469260.2624075,53,1676469260,259244441,,2.298212999506153,-4.4495757298386245,-1.9243060071943772
1676469260.2720315,54,1676469260,269998788,,2.3098937654260845,-4.438320182221571,-1.9186266651661894
1676469260.280937,55,1676469260,278018474,,2.3097994945751266,-4.449530640606709,-1.9428012284926361
1676469260.2904325,56,1676469260,288704156,,2.2968424077989864,-4.444617737451418,-1.9329995443472083
1676469260.3008206,57,1676469260,297890901,,2.339200828061368,-4.424685365079309,-1.9369959330611872
1676469260.3112001,58,1676469260,308004379,,2.346104658922841,-4.434016676394082,-1.9379040205011646
1676469260.324074,59,1676469260,321387052,,2.309414957406066,-4.441315581007855,-1.9325812874933053
1676469260.3317716,60,1676469260,329941987,,2.333636739447757,-4.441668247333981,-1.9187606053215998
1676469260.3437793,61,1676469260,339440822,,2.308359329712832,-4.442496057468277,-1.9367765672275836
1676469260.3528464,62,1676469260,348392963,,2.344586954085805,-4.430483510187763,-1.9330195760032498
1676469260.3605232,63,1676469260,357137680,,2.307699090697326,-4.4400226183563785,-1.9232543830316067
1676469260.3705182,64,1676469260,369176387,,2.3120098196877277,-4.423906915344349,-1.9458476403434344
1676469260.3850589,65,1676469260,379788637,,2.321550637865538,-4.423179097178054,-1.9367637436891367
1676469260.3916492,66,1676469260,389449119,,2.363896173415409,-4.407091666092706,-1.9422267168525964
1676469260.4006798,67,1676469260,398611783,,2.3258038730900434,-4.436052698798972,-1.9306004597916866
1676469260.4092185,68,1676469260,407580137,,2.2816373869954885,-4.4454927801448285,-1.9274595099930212
1676469260.4228857,69,1676469260,420814752,,2.330058691752774,-4.433095141815141,-1.9271905648263064
1676469260.4296315,70,1676469260,426157236,,2.330058691752774,-4.433095141815141,-1.9271905648263064
1676469260.4423852,71,1676469260,438493728,,2.3077854432474703,-4.432492603925133,-1.9277616643154574
1676469260.4496498,72,1676469260,447997808,,2.341122783032098,-4.419442045267352,-1.9279375155118472
1676469260.4607453,73,1676469260,459267377,,2.3266925435156534,-4.42286263240626,-1.9391076241304908
1676469260.4712274,74,1676469260,466649532,,2.3304031070763696,-4.436193244001833,-1.9442800031651775
1676469260.479894,75,1676469260,478161573,,2.349712300703246,-4.424662602532705,-1.943630655272935
1676469260.4912705,76,1676469260,488396644,,2.314226647767712,-4.436179138114346,-1.932039014077861
1676469260.4991417,77,1676469260,497344255,,2.335565743703023,-4.433962705309092,-1.9303873839411174
1676469260.5099099,78,1676469260,507592201,,2.310359443570012,-4.454005946899744,-1.928527552261704
1676469260.5251865,79,1676469260,518855094,,2.3189226785692068,-4.460664245853779,-1.9274243549082477
1676469260.5314658,80,1676469260,529918909,,2.2959840205133206,-4.446807687080043,-1.94497197451412
1676469260.5390213,81,1676469260,537325143,,2.3528490205230126,-4.411275856449482,-1.945245115726493
1676469260.5525184,82,1676469260,548341989,,2.344907533361255,-4.432122884833849,-1.9248351736452503
1676469260.5586429,83,1676469260,556758165,,2.3108986921050905,-4.445871716995148,-1.927027627357546
1676469260.5713851,84,1676469260,567351579,,2.355035608479103,-4.422740299915412,-1.942448223233684
1676469260.5802166,85,1676469260,578372716,,2.3095193292634693,-4.440236227331566,-1.9255536499159875
1676469260.5904832,86,1676469260,588989496,,2.3101045962131157,-4.4358822521467545,-1.932552784437167
1676469260.6009715,87,1676469260,597477436,,2.3351044208477423,-4.414721900148498,-1.9324905574832334
1676469260.6094825,88,1676469260,607743263,,2.33617400678934,-4.419536780591426,-1.9417463140047337
1676469260.6261384,89,1676469260,620100021,,2.3343574227682375,-4.424183815830514,-1.9372816930072685
1676469260.6314516,90,1676469260,628741264,,2.296310280306887,-4.436878500519813,-1.9370066936233494
1676469260.6395595,91,1676469260,637513399,,2.3210653348864145,-4.442401882678953,-1.927562842617773
1676469260.6528647,92,1676469260,649504423,,2.3090364378822055,-4.432871485790171,-1.928798422975903
1676469260.6615188,93,1676469260,657863140,,2.32951839454632,-4.425840410167417,-1.94581859676285
1676469260.6708324,94,1676469260,669392585,,2.303412439589386,-4.426542900468937,-1.9408342126926004
1676469260.682696,95,1676469260,679219245,,2.3213929632166974,-4.437726221397622,-1.9283957355640937
1676469260.6908596,96,1676469260,688686370,,2.3233812217101226,-4.431414261494671,-1.944780857869794
1676469260.6997423,97,1676469260,697218418,,2.3131374025714746,-4.44033600904061,-1.916665456192634
1676469260.7097623,98,1676469260,708052158,,2.308965532605825,-4.442391438287742,-1.922588924983768
1676469260.7257786,99,1676469260,720031261,,2.2917829993578467,-4.441190678500042,-1.9339290322596718
1676469260.7305603,100,1676469260,728404283,,2.3077812916857954,-4.436904332960474,-1.9259024871455803
1676469260.7394223,101,1676469260,737993478,,2.309473759605358,-4.457809312468097,-1.922133947353931
1676469260.7519486,102,1676469260,748095512,,2.3402516536679214,-4.439675176873094,-1.930234410089913
1676469260.7593772,103,1676469260,757608890,,2.326678405209615,-4.4324551759524855,-1.9229376453158564
1676469260.770614,104,1676469260,767621278,,2.328631453196133,-4.4350362340898615,-1.9319139650805208
1676469260.7810159,105,1676469260,779374122,,2.323893667748283,-4.4312588942528635,-1.9374238809397806
1676469260.7916977,106,1676469260,790109634,,2.303293476550037,-4.438198352130659,-1.9375051678416906
1676469260.8008878,107,1676469260,799013853,,2.344097417441871,-4.429402692542858,-1.935933829852446
1676469260.8088958,108,1676469260,807338953,,2.3112922459302667,-4.428492637747818,-1.9329123771129242
1676469260.8257897,109,1676469260,818277835,,2.3387949585479535,-4.43067124836334,-1.9369788169308109
1676469260.832384,110,1676469260,829698085,,2.3052729291960152,-4.449688118703239,-1.9204910358419818
1676469260.8408139,111,1676469260,838315486,,2.292327666203943,-4.442577726365418,-1.9248555910518872
1676469260.8519688,112,1676469260,847398281,,2.325907737427977,-4.434617231881147,-1.940338126377296
1676469260.8599403,113,1676469260,856524944,,2.307404507472875,-4.43224304304416,-1.9313905487590686
1676469260.8702993,114,1676469260,867443799,,2.323356547258511,-4.433069650386545,-1.9373804673435249
1676469260.8806164,115,1676469260,878663778,,2.319070570172931,-4.427981102308169,-1.9205440754917642
1676469260.8929727,116,1676469260,891172885,,2.364507537458708,-4.421466125457561,-1.9445243658719136
1676469260.9005325,117,1676469260,897308111,,2.3081862078284465,-4.44531365803795,-1.9255873278319877
1676469260.9092524,118,1676469260,906989574,,2.3027213526727386,-4.444154409537539,-1.9188223340463666
1676469260.9225857,119,1676469260,920060396,,2.3370595181406615,-4.428522409354949,-1.9409606738001024
1676469260.9307044,120,1676469260,928969144,,2.314721573588218,-4.441419940858912,-1.9274944841248765
1676469260.9430058,121,1676469260,938848257,,2.3078373557338034,-4.429119496796617,-1.942907615844709
1676469260.948767,122,1676469260,947163581,,2.31044982469012,-4.445596774641626,-1.923121608650009
1676469260.9625058,123,1676469260,956600666,,2.3436338145079247,-4.417146563658973,-1.939537390929509
1676469260.971244,124,1676469260,969712018,,2.3149591801509097,-4.437565120958863,-1.9341629550140136
1676469260.9803014,125,1676469260,978462219,,2.3328937895512345,-4.436572768185815,-1.9296547280440726
1676469260.9907985,126,1676469260,989140748,,2.3478330092458815,-4.429997832480289,-1.938215014483595
1676469260.999551,127,1676469260,998245954,,2.312859430484454,-4.434260221758402,-1.9310804668014603
1676469261.010613,128,1676469261,7750988,,2.3120079004702623,-4.452792448577501,-1.9129286042056308
1676469261.0244212,129,1676469261,19885301,,2.3364410535739606,-4.4238144996628375,-1.9363237220134635
1676469261.0316184,130,1676469261,30527830,,2.3489519477274166,-4.4179625742739,-1.9397373828223774
1676469261.0410051,131,1676469261,38239955,,2.3508646514820315,-4.4333401822841,-1.9311151507245279
1676469261.0504742,132,1676469261,47004461,,2.3411880690145925,-4.43997360486021,-1.9228855965410248
1676469261.0601578,133,1676469261,58629989,,2.3228506498888284,-4.430086670024955,-1.9292633366208527
1676469261.071932,134,1676469261,69298028,,2.3578376696863956,-4.405842905763932,-1.9305253105219669
1676469261.083427,135,1676469261,79556941,,2.3563449569122876,-4.41595526514561,-1.938585484008959
1676469261.0906749,136,1676469261,88997602,,2.3085940114605723,-4.440266951753354,-1.9396203502863816
1676469261.0999944,137,1676469261,98433732,,2.3301334534773455,-4.421767209747277,-1.9430933090819373
1676469261.108563,138,1676469261,107288837,,2.2875805706981787,-4.444666198875599,-1.9190718438172039
1676469261.1245017,139,1676469261,121598958,,2.331247457976108,-4.42815758912449,-1.9426165566797988
1676469261.130857,140,1676469261,129124164,,2.3042887146824675,-4.439959988451445,-1.9338920884397535
1676469261.1387799,141,1676469261,137127876,,2.3166458700543395,-4.43523456114425,-1.9336345964271178
1676469261.1550984,142,1676469261,150887489,,2.3146634418345005,-4.440997594338036,-1.942220111150944
1676469261.161208,143,1676469261,157941818,,2.3406734812809034,-4.43019946536626,-1.9410749177995588
1676469261.1742857,144,1676469261,170084953,,2.2870557904977087,-4.453759960440715,-1.9275078302166682
1676469261.1854053,145,1676469261,182511091,,2.3329002253837774,-4.425461043207992,-1.9268660410619887
1676469261.1945238,146,1676469261,192191600,,2.299005142968567,-4.436603766346791,-1.9354644613889551
1676469261.1988418,147,1676469261,197531223,,2.3226249002616726,-4.427478037328078,-1.938371549079901
1676469261.2115119,148,1676469261,208145618,,2.3339970935081467,-4.432257335636698,-1.940116886479933
1676469261.2230124,149,1676469261,220714092,,2.3130115515995326,-4.437712731511958,-1.92799203108779
1676469261.2323744,150,1676469261,229546308,,2.3040675387913643,-4.446927836278065,-1.9275897884015396
1676469261.23942,151,1676469261,237567424,,2.3297074500381005,-4.434571024973999,-1.9371806124773332
1676469261.250685,152,1676469261,247632265,,2.317825460498087,-4.432412008072131,-1.932069156916709
1676469261.259455,153,1676469261,257484436,,2.308905957241727,-4.4317691674169,-1.9378323575972067
1676469261.2725723,154,1676469261,270028829,,2.2593267455243478,-4.46270746407357,-1.9190559184927474
1676469261.2809126,155,1676469261,279050350,,2.327046863524915,-4.421953695226847,-1.946320958881313
1676469261.29204,156,1676469261,290004014,,2.322558614144692,-4.432889716571329,-1.9330957046018402
1676469261.2996104,157,1676469261,297481775,,2.312967460785243,-4.449326629743798,-1.9250872090044444
1676469261.3104079,158,1676469261,307658672,,2.33981657169367,-4.432461370976621,-1.9290510040490632
1676469261.3261058,159,1676469261,321358919,,2.279441528376812,-4.4517425192890485,-1.911955717951999
1676469261.333283,160,1676469261,331031322,,2.3138738973277184,-4.434589442949859,-1.916183228826435
1676469261.3408208,161,1676469261,338981389,,2.3276369031886897,-4.420883756425686,-1.9374968979097007
1676469261.350417,162,1676469261,348122358,,2.308975320998962,-4.449280198550589,-1.9202403384408555
1676469261.3594048,163,1676469261,357437372,,2.322571940384247,-4.432819998411409,-1.9356553905133769
1676469261.3718252,164,1676469261,368494033,,2.3304210241709544,-4.440125963769951,-1.9372933397194996
1676469261.3810227,165,1676469261,378787040,,2.346264627469111,-4.4058529817586845,-1.9332435558326222
1676469261.391469,166,1676469261,387498140,,2.2903599829322943,-4.448421316505965,-1.9189114395034725
1676469261.3990567,167,1676469261,397832155,,2.2913320427867045,-4.46792930292089,-1.9189281108625464
1676469261.4098067,168,1676469261,407679319,,2.3347804962695924,-4.442743164143263,-1.941607452184365
1676469261.420733,169,1676469261,418063163,,2.332942268002071,-4.4195305750552984,-1.9428914319358204
1676469261.4319575,170,1676469261,430047512,,2.302347850362247,-4.463945244865218,-1.9151148424992337
1676469261.440539,171,1676469261,437912464,,2.321254763919424,-4.441007303982615,-1.9240883379774736
1676469261.4578283,172,1676469261,449858903,,2.2990243953410467,-4.450515537942344,-1.9302758763501349
1676469261.4651978,173,1676469261,461010456,,2.300514204855596,-4.452513628559291,-1.928501481974723
1676469261.4711623,174,1676469261,468192815,,2.3438457521112945,-4.415229970984549,-1.9448260985588004
1676469261.4798532,175,1676469261,477821350,,2.3322433584663167,-4.440082444194978,-1.9265720955533716
1676469261.4919286,176,1676469261,489159822,,2.357229471275584,-4.428444618607177,-1.9410765292875762
1676469261.4990807,177,1676469261,497545719,,2.3027960692354017,-4.445012733208971,-1.944828886845462
1676469261.5101948,178,1676469261,507410287,,2.320512645684374,-4.435371161487655,-1.9238044738579043
1676469261.5210042,179,1676469261,519049882,,2.319334005389411,-4.434125434520493,-1.93131646255315
1676469261.529897,180,1676469261,528096199,,2.3036437214183407,-4.4435142711049735,-1.9313451844402394
1676469261.5399024,181,1676469261,538264989,,2.3092678210839024,-4.435373962339052,-1.9237896495879758
1676469261.5512571,182,1676469261,547507524,,2.3092678210839024,-4.435373962339052,-1.9237896495879758
1676469261.5594027,183,1676469261,557262420,,2.319313271969202,-4.4350109455200135,-1.9283429057924273
1676469261.5710278,184,1676469261,568665266,,2.327233402579673,-4.434965293179888,-1.9293404331831123
1676469261.5809631,185,1676469261,577429056,,2.36339095154461,-4.422167029244227,-1.9288088209187217
1676469261.5920737,186,1676469261,588574886,,2.3349089521724715,-4.424919369361466,-1.9306642066146875
1676469261.602213,187,1676469261,597774744,,2.33648460871346,-4.428695542331847,-1.932078731012561
1676469261.610225,188,1676469261,607988595,,2.2963361901900785,-4.449190516816075,-1.9250271614604595
1676469261.6256194,189,1676469261,617579936,,2.3083655081068,-4.429198007898849,-1.9329470177966424
1676469261.632769,190,1676469261,630964756,,2.2988103195149034,-4.442793686942689,-1.926283498302006
1676469261.639675,191,1676469261,638213634,,2.3286812569063042,-4.42995451408567,-1.921880752298886
1676469261.6496093,192,1676469261,648212432,,2.3418643559901406,-4.430603903190688,-1.9255104408054429
1676469261.6602044,193,1676469261,658265352,,2.3698639794426084,-4.41977257673255,-1.9470818522693722
1676469261.6719291,194,1676469261,668308973,,2.3332229398538575,-4.475616730817547,-1.959855659533085
1676469261.6850126,195,1676469261,682650089,,2.3201290529923364,-4.4415486867195755,-1.95018668448088
1676469261.691384,196,1676469261,689365148,,2.3202042076542697,-4.453720578190948,-1.91068583154923
1676469261.7022545,197,1676469261,700234413,,2.2961454003447983,-4.470824706926694,-1.8831649594009978
1676469261.7115223,198,1676469261,708122014,,2.349344074366298,-4.4580953982763845,-1.8876335913795772
1676469261.721998,199,1676469261,720352172,,2.3050535274900223,-4.477283145549481,-1.9178831755803054
1676469261.7297833,200,1676469261,728155136,,2.3708257185729598,-4.5126907559952,-1.9078405066266861
1676469261.7420647,201,1676469261,736392259,,2.3976866428401515,-4.478428429544932,-1.9169721302526266
1676469261.7510266,202,1676469261,749486684,,2.4433228146819377,-4.497100987327887,-1.887099370854334
1676469261.7616112,203,1676469261,759884595,,2.5130119186840343,-4.4767533565619235,-1.920788695926328
1676469261.7701287,204,1676469261,768409490,,2.5124759684079354,-4.518520895248556,-1.9432887874923772
1676469261.7809756,205,1676469261,776780843,,2.524254172449295,-4.499109609443906,-1.9709502862137545
1676469261.7906177,206,1676469261,787524461,,2.5485578261178463,-4.496350655723421,-1.9845620648510442
1676469261.8005471,207,1676469261,797915697,,2.6512491569393157,-4.362622168993677,-1.9939125395961415
1676469261.8091602,208,1676469261,807430028,,2.6327570779064775,-4.147933694319394,-1.9899834161660146
1676469261.8225336,209,1676469261,820089578,,2.728480229001561,-3.80634400161641,-2.0511839404650374
1676469261.8303974,210,1676469261,828395843,,2.881751075730133,-3.180117239282345,-2.0518454789464475
1676469261.8448122,211,1676469261,838818788,,2.6857647445723973,-2.857936535284935,-1.9117513910570123
1676469261.8501318,212,1676469261,848671674,,2.895838012311723,-1.9438018113642892,-1.8844739816964642
1676469261.8631635,213,1676469261,859251976,,3.064333415679618,-1.324085653441695,-1.8326711559034226
1676469261.8687446,214,1676469261,866900205,,3.2451297702568285,-0.915271085430837,-1.843205357046478
1676469261.8872094,215,1676469261,882461786,,3.1489731660144344,0.15778389846278998,-1.624973932984738
1676469261.8907118,216,1676469261,889094352,,3.1155555221023885,0.8796532916499545,-1.5611427551001056
1676469261.9027936,217,1676469261,900426387,,3.184454837773543,1.8057222528253076,-1.557395785938544
1676469261.9092605,218,1676469261,907709360,,3.1504604283730933,2.3961912146967914,-1.4740441034510057
1676469261.9221082,219,1676469261,920057058,,3.157007853242669,3.238484467725957,-1.356550677174001
1676469261.9300811,220,1676469261,927071332,,3.007131306289713,3.4677731988884264,-1.3611938527400338
1676469261.9428144,221,1676469261,940500020,,2.8617438847532006,4.023769068599578,-1.3812291313659093
1676469261.951316,222,1676469261,949967861,,2.925464929260045,4.567631084720691,-1.4044022359299422
1676469261.9600534,223,1676469261,958082199,,2.9805352976270623,4.703687280479501,-1.36809647477053
1676469261.9718409,224,1676469261,968585968,,2.979617330276589,5.053289166450954,-1.3744276163452929
1676469261.9821708,225,1676469261,979901790,,2.903666238742572,5.163420099102328,-1.3383486089430154
1676469261.9918196,226,1676469261,990387916,,2.9798242173547105,5.351414051446799,-1.3189206645486353
1676469262.0004487,227,1676469261,997675418,,2.9718611985371797,5.371450989353441,-1.3153346806969926
1676469262.0109704,228,1676469262,7339715,,3.0788325976759996,5.411490546517106,-1.315365669610303
1676469262.0228646,229,1676469262,19014835,,3.0998386821895534,5.393457919394578,-1.3156030619558106
1676469262.0307915,230,1676469262,29025554,,3.149608698042484,5.291585338943103,-1.3127677064188514
1676469262.041683,231,1676469262,39996147,,3.2027415452512003,5.239597452251381,-1.363791627318428
1676469262.0500624,232,1676469262,48345088,,3.25577412913945,5.177316175576807,-1.3724547836586882
1676469262.0603147,233,1676469262,57485342,,3.2950108809591545,5.126606491287472,-1.3828611250278904
1676469262.072672,234,1676469262,70284366,,3.30073698403926,5.065709245666441,-1.3915588700873902
1676469262.0836823,235,1676469262,82124948,,3.2817253052158293,5.023345333728929,-1.4198840829874586
1676469262.0922523,236,1676469262,89204788,,3.307181909705138,4.975000020923156,-1.4195091879387296
1676469262.1023674,237,1676469262,100136280,,3.29433132290559,4.913569170894751,-1.4040227165041113
1676469262.1098988,238,1676469262,107074499,,3.382736476540862,4.949172087505296,-1.4258318170206323
1676469262.1203134,239,1676469262,116541385,,3.3266793093122886,4.900885121155011,-1.390890375432023
1676469262.1305084,240,1676469262,127403736,,3.352715202139466,4.89720511694829,-1.3811282051949358
1676469262.1479464,241,1676469262,140888214,,3.3949133858513503,4.920583266820283,-1.4035248530679318
1676469262.1533668,242,1676469262,151773691,,3.4331783240763363,4.967187354615067,-1.4161968334754604
1676469262.1618001,243,1676469262,158680438,,3.440033398782751,4.995817151119961,-1.4223016186193367
1676469262.170382,244,1676469262,167801618,,3.497266293532863,5.065408836088414,-1.372295125479237
1676469262.1844807,245,1676469262,179533720,,3.5877736011299537,5.1015631468288065,-1.3710375551540286
1676469262.1914294,246,1676469262,188947439,,3.633041372514399,5.145518748050815,-1.4792069780950525
1676469262.2002342,247,1676469262,198059797,,3.7760166428555757,5.379724798233178,-1.4909027620808735
1676469262.2111468,248,1676469262,208935499,,4.501199137537855,5.828747378370485,-1.3120943104745828
1676469262.2226484,249,1676469262,221231937,,5.602804491350914,6.039694995734056,-1.0756935322417736
1676469262.2303736,250,1676469262,228560924,,6.445513964048261,6.049696821436671,-0.8866844394791548
1676469262.2420955,251,1676469262,238073587,,7.0885905434523995,6.236743734934957,-0.7728941450071234
1676469262.2486634,252,1676469262,246339559,,7.5302023556918956,6.116629126031029,-0.7506646187276977
1676469262.2614093,253,1676469262,258012056,,7.6503417187791625,5.507984616231396,-0.6782400621424491
1676469262.2721891,254,1676469262,267751216,,7.393988958841134,5.189506016369368,-0.7399202219411861
1676469262.2818234,255,1676469262,278388977,,7.15004761085325,4.65824773799687,-0.6311188123214941
1676469262.29044,256,1676469262,288146018,,6.991516942376138,4.45985479370537,-0.7669908271812023
1676469262.3012006,257,1676469262,298996925,,6.583935939788964,4.0946229803096115,-0.7387867052982856
1676469262.3099122,258,1676469262,307981967,,6.6446829359686905,3.899132122081479,-0.6944686159999576
1676469262.3218818,259,1676469262,317343950,,6.6446829359686905,3.899132122081479,-0.6944686159999576
1676469262.3302436,260,1676469262,328417778,,6.292203135655012,3.937370523688118,-0.7431390868013072
1676469262.3427393,261,1676469262,340067625,,6.0540856105005725,3.8307689007178913,-0.6285788407362098
1676469262.3515074,262,1676469262,349081993,,5.967634422835049,3.8511104173005934,-0.6287630428153852
1676469262.360508,263,1676469262,359195470,,5.329566084894445,3.8751522304240993,-0.7047907462637604
1676469262.3708198,264,1676469262,367029190,,5.254644629456089,3.9408953077926987,-0.7068552540733046
1676469262.386354,265,1676469262,381773710,,5.005909145942566,4.276384466612884,-0.7498792861157745
1676469262.3933682,266,1676469262,391834735,,4.258184565718196,4.465787498724764,-0.6776708341984506
1676469262.4014306,267,1676469262,398621082,,4.184736017087491,4.489439364348644,-0.7119009207930648
1676469262.4092767,268,1676469262,407627105,,3.627390112809155,4.833610774422634,-0.8137899776670088
1676469262.423303,269,1676469262,420977830,,3.0373625718676798,5.058358247354267,-0.6921514282525677
1676469262.4305081,270,1676469262,427328109,,2.657016536050737,5.197203115245544,-0.8234930623569354
1676469262.4418216,271,1676469262,438261985,,2.4017096481432127,5.247435017821894,-0.7470843148448386
1676469262.4503424,272,1676469262,447683572,,1.8046343076570877,5.4345616114464725,-0.7234813398647917
1676469262.4615395,273,1676469262,459273815,,1.8541688353590944,5.600476391423013,-0.8355007059347317
1676469262.4694188,274,1676469262,466929674,,1.3977875277360294,5.729922888628068,-0.9195612302907785
1676469262.483908,275,1676469262,479093790,,1.1654179348656286,5.919784030810808,-0.9933957064113839
1676469262.4921856,276,1676469262,489921569,,0.7961804260479434,6.080193318233061,-1.0307640259910142
1676469262.500622,277,1676469262,498878002,,0.4055625702261932,6.142980427541409,-1.0155582836373984
1676469262.509556,278,1676469262,507899045,,0.3986471986069963,6.262241707438647,-0.9431321437943762
1676469262.5208886,279,1676469262,519357442,,0.08057380600322017,6.2353432054383235,-1.0145040436418473
1676469262.5307262,280,1676469262,528652906,,-0.28667477613790504,6.392718905978373,-1.017312074858319
1676469262.5425322,281,1676469262,538831710,,-0.4500950081596908,6.476768056820135,-0.9889378475046329
1676469262.5513575,282,1676469262,549419879,,-0.709915153471213,6.456817584021801,-1.0387052698389045
1676469262.561455,283,1676469262,559218406,,-0.8636044236432497,6.596866435456816,-0.9959858715838444
1676469262.5710812,284,1676469262,569219589,,-1.2031943956537723,6.634559750120992,-1.1147783465348577
1676469262.5827558,285,1676469262,578477382,,-1.348589892568481,6.758553928123242,-1.0662092510256078
1676469262.5902777,286,1676469262,587576627,,-1.4397668843142692,6.729246695834892,-1.0276115479543118
1676469262.6025856,287,1676469262,598772048,,-1.5494632099297374,7.017250004485391,-1.1024946489770298
1676469262.6100605,288,1676469262,607935667,,-1.907722593167193,7.017111729230393,-1.151814862672424
1676469262.622811,289,1676469262,620371818,,-1.8936794147612277,7.136464968199164,-1.1746195602041156
1676469262.630156,290,1676469262,628320693,,-2.2801207171677627,7.022043029478041,-1.1655933637478673
1676469262.640737,291,1676469262,638794660,,-2.178669401343166,7.209227165490689,-1.1411032448781646
1676469262.6531737,292,1676469262,651754140,,-2.5209699115673256,7.113092313133803,-1.1975397878318703
1676469262.6623933,293,1676469262,659402847,,-2.4074697419881383,7.208503515204231,-1.174258250771573
1676469262.67144,294,1676469262,667761087,,-2.4941109306783193,7.283018714189958,-1.2376171800132914
1676469262.6864815,295,1676469262,682406902,,-2.7117230746991794,7.289250800315984,-1.208670537719494
1676469262.6928878,296,1676469262,689603328,,-2.8425660008972824,7.231753654415353,-1.100729206702186
1676469262.7012603,297,1676469262,699455022,,-2.9661196227045816,7.283989517358086,-1.1352300645910915
1676469262.710488,298,1676469262,707561016,,-2.775910116408727,7.465608158403076,-1.1661833689624714
1676469262.7211852,299,1676469262,719398975,,-2.8373915013381916,7.526699933609931,-1.2285873422374214
1676469262.729485,300,1676469262,727934122,,-2.9157806894428013,7.470986028300881,-1.0704842074594316
1676469262.740005,301,1676469262,737452268,,-2.8413217301966402,7.544020513280446,-1.1573417181807029
1676469262.7524927,302,1676469262,750866889,,-2.756628888923515,7.666477952121907,-1.130298193430716
1676469262.7606523,303,1676469262,758405685,,-2.8267195485293914,7.563247274701495,-1.1791375898661334
1676469262.7718704,304,1676469262,766777276,,-2.781481065897563,7.671783030360957,-1.1689137386455233
1676469262.779176,305,1676469262,776746749,,-2.6351980010587575,7.687454005194614,-1.1204312718330087
1676469262.7907662,306,1676469262,787174224,,-2.5271859340770426,7.752880786160801,-1.1321625623483438
1676469262.8004503,307,1676469262,798627138,,-2.4213221411895582,7.6793924799516855,-1.1215839231977902
1676469262.8092308,308,1676469262,807796955,,-2.370972183462097,7.670273576377468,-1.0347006468487934
1676469262.8209777,309,1676469262,818026781,,-2.3418279392561874,7.76531482092774,-1.0512997156779562
1676469262.8297708,310,1676469262,827326297,,-2.1011552343544886,7.769513658364859,-1.0970693348854978
1676469262.8410647,311,1676469262,839545965,,-2.023990809650788,7.69385112813497,-0.9795818546882418
1676469262.8508356,312,1676469262,848918676,,-1.7957865649659528,7.5959930337248895,-0.9599789810262802
1676469262.8606064,313,1676469262,859282493,,-1.7398615711630934,7.560785486199958,-0.9581471729502878
1676469262.8689132,314,1676469262,867747545,,-1.8267862875905585,7.5873963200874694,-0.9557361465117744
1676469262.8837504,315,1676469262,880105495,,-1.476888836883835,7.660312826117118,-0.9099001568094489
1676469262.8898144,316,1676469262,887454986,,-1.347206245944738,7.6323354543948705,-0.9357766617288792
1676469262.8999212,317,1676469262,898051261,,-1.294541803451779,7.53245122218598,-0.8993219001436383
1676469262.9093769,318,1676469262,907241582,,-1.4494893727695173,7.414108357400249,-0.8788120892271574
1676469262.922792,319,1676469262,920858860,,-1.048639838093072,7.517100812555306,-0.832374072577861
1676469262.9311976,320,1676469262,929413795,,-1.0430058086353222,7.395693158835123,-0.7269151232667775
1676469262.9425666,321,1676469262,939997673,,-0.763587445525377,7.429281188073785,-0.8012773070203019
1676469262.9518676,322,1676469262,949786901,,-0.7026794712310179,7.338365131992817,-0.7588231475356866
1676469262.959967,323,1676469262,958711624,,-0.7450566446575245,7.199218300923089,-0.6707911017686182
1676469262.9700413,324,1676469262,967095613,,-0.5789936885259871,7.239687561068131,-0.702384662852628
1676469262.9844487,325,1676469262,981118440,,-0.3703525763007214,7.255075655452157,-0.7724928080195254
1676469262.9911523,326,1676469262,988922834,,-0.34992416882263,7.191501925251392,-0.7489332307361662
1676469263.0009656,327,1676469262,998958587,,0.02362750791838792,7.170178182664593,-0.6366765109396233
1676469263.012594,328,1676469263,8456707,,0.03881733132951215,7.074334914982736,-0.610025041014446
1676469263.0228808,329,1676469263,19313335,,0.058763960677840545,7.093933106575063,-0.6017228448798299
1676469263.0303266,330,1676469263,28039216,,0.125769089751526,7.0547622383824,-0.6225319559233322
1676469263.0425472,331,1676469263,40087461,,0.42963585259254256,6.983274186185143,-0.6107614648668281
1676469263.0513177,332,1676469263,50357818,,0.4132734879624352,6.84059147232583,-0.54678059590399
1676469263.059272,333,1676469263,57522535,,0.5514185760950815,6.82396573804492,-0.5570749719039668
1676469263.0710948,334,1676469263,67887544,,0.653266341197148,6.816532992657605,-0.554978107769576
1676469263.0859752,335,1676469263,83214044,,0.9459858990635159,6.837601040532674,-0.5738864268892557
1676469263.0932083,336,1676469263,91450452,,1.1596082498940912,6.762452804226286,-0.5078471717392773
1676469263.1026223,337,1676469263,100165843,,1.171485969250955,6.681106742989799,-0.4631839849511478
1676469263.1099422,338,1676469263,107628822,,1.2678448872334669,6.6487723125708245,-0.37704650502840414
1676469263.121897,339,1676469263,117423534,,1.3324728196236626,6.636064788680032,-0.41408542929683273
1676469263.131503,340,1676469263,128607511,,1.570574844921292,6.618124191384902,-0.5222383805468082
1676469263.143998,341,1676469263,140256166,,1.689557899771841,6.664179110103088,-0.4848548635240989
1676469263.1519897,342,1676469263,150516986,,1.554099518846877,6.4704297175081384,-0.4267114399056798
1676469263.1610832,343,1676469263,158608675,,1.6657586476889963,6.4625707384217215,-0.3800354100866647
1676469263.1714258,344,1676469263,168514966,,1.7886042184934754,6.465617599928922,-0.4154072562805921
1676469263.1852396,345,1676469263,182876586,,1.9598591066284385,6.406966558365318,-0.3175513738155172
1676469263.1910036,346,1676469263,187207460,,2.078008438684147,6.427907375961444,-0.3278234226568567
1676469263.2014456,347,1676469263,200049161,,2.2361775124666474,6.327465720587677,-0.3151399934260751
1676469263.2112637,348,1676469263,209065437,,2.3535768582873287,6.299750083692567,-0.2853760803985914
1676469263.2245016,349,1676469263,221801519,,2.470062186067019,6.349779205253044,-0.304480083845782
1676469263.2315788,350,1676469263,228838920,,2.515886371836627,6.1962052645081,-0.2827800479257257
1676469263.2401388,351,1676469263,238776683,,2.679743829322311,6.167067889612759,-0.3451008617350962
1676469263.251581,352,1676469263,248496294,,2.468020477735864,6.070743028117142,-0.2850174733823086
1676469263.261156,353,1676469263,257990360,,2.740414857644198,6.122690994423551,-0.3313584968403642
1676469263.2704945,354,1676469263,267276048,,2.6742406427241368,5.9437067870295754,-0.30407834879451334
1676469263.2828062,355,1676469263,281022787,,2.8476693175090997,5.894391840720298,-0.28944691538118356
1676469263.289843,356,1676469263,287338495,,2.9576290246744876,5.843098106529231,-0.2760903899540359
1676469263.3012671,357,1676469263,299598217,,3.057066386174682,5.723523120960905,-0.23015890081468504
1676469263.31234,358,1676469263,310021162,,3.0576635707630517,5.731406432497995,-0.20570898101970225
1676469263.3214028,359,1676469263,319488525,,3.175352214391969,5.71084254144711,-0.16050513082035206
1676469263.3289382,360,1676469263,326582431,,3.1727578432487786,5.639009392380606,-0.22311229834383872
1676469263.3417695,361,1676469263,339992046,,3.291017742361154,5.652626710312569,-0.15283746005937793
1676469263.3508823,362,1676469263,348079919,,3.4327839339267125,5.673123401391187,-0.18485250890276403
1676469263.364245,363,1676469263,359622478,,3.304277323339289,5.6174872355616925,-0.16680138042660925
1676469263.3706665,364,1676469263,369107723,,3.4877598078031706,5.5949789072784775,-0.1870772789182835
1676469263.381698,365,1676469263,380399703,,3.340931453990787,5.483524215096544,-0.17312357920145746
1676469263.390839,366,1676469263,386933326,,3.511600927724913,5.491445063958679,-0.17510098876232041
1676469263.3999739,367,1676469263,397587537,,3.4081198861995095,5.377835193814675,-0.1804101827284595
1676469263.4106731,368,1676469263,408775091,,3.3598387185726795,5.373018773697194,-0.13543861324052067
1676469263.4226685,369,1676469263,420416831,,3.3316902606603036,5.328760417631112,-0.1269535204178948
1676469263.4292567,370,1676469263,428333759,,3.382323756457972,5.348916679186646,-0.1407657283250621
1676469263.4436352,371,1676469263,439872026,,3.4044476772141694,5.3434534370082085,-0.1478429136218223
1676469263.450618,372,1676469263,448916196,,3.4657964941861197,5.373375603993291,-0.12442409657443629
1676469263.462918,373,1676469263,460616588,,3.36563156476871,5.367094765973147,-0.15658643329082408
1676469263.469362,374,1676469263,467794179,,3.4645327315448213,5.3577777604689825,-0.20969562525034965
1676469263.4868448,375,1676469263,481965065,,3.5010322138047596,5.2968440929493745,-0.24732936635391653
1676469263.492464,376,1676469263,489841222,,3.368178534383936,5.336333501008057,-0.19219560520719986
1676469263.5024872,377,1676469263,500634670,,3.37766973170957,5.312763588920671,-0.20087697889135053
1676469263.5098503,378,1676469263,507451295,,3.19303595830903,5.186253761093888,-0.210824385045984
1676469263.5213904,379,1676469263,519521236,,3.3480353116960875,5.30813911546869,-0.17986902596165324
1676469263.5301702,380,1676469263,528581619,,3.4246035025699597,5.345483400611421,-0.17565870503850328
1676469263.5430737,381,1676469263,539866685,,3.471196825848477,5.309142857886805,-0.11446933010690925
1676469263.5518148,382,1676469263,550135374,,3.514041923669168,5.268792078297627,-0.14067403082463914
1676469263.560864,383,1676469263,558990478,,3.570182794978937,5.349513450660147,-0.16502414268842153
1676469263.5720794,384,1676469263,569681644,,3.4537248239883964,5.317230112237384,-0.18000338260405244
1676469263.5826893,385,1676469263,578832864,,3.547360678801855,5.231131706834952,-0.21658043835403526
1676469263.5911338,386,1676469263,588436126,,3.3514102333309403,5.221776379329279,-0.1687305045321986
1676469263.6001153,387,1676469263,597321987,,3.3274568023992126,5.201997957054678,-0.13019837863860248
1676469263.6127892,388,1676469263,607809782,,3.4063437726472308,5.237766104226614,-0.1597522388082845
1676469263.617592,389,1676469263,615878343,,3.4063437726472308,5.237766104226614,-0.1597522388082845
1676469263.6299615,390,1676469263,628396272,,3.312782891240665,5.2619480158328455,-0.1892633195200969
1676469263.6401403,391,1676469263,636337995,,3.3688230561117445,5.3976934719671545,-0.1994849913552711
1676469263.6519406,392,1676469263,649596691,,3.17006034740225,5.320969529277992,-0.11609716121483023
1676469263.660859,393,1676469263,657967329,,3.121857662438869,5.34730004872202,-0.17564185811799868
1676469263.6704354,394,1676469263,668719053,,3.1411792013709627,5.3507004413466674,-0.19280900844377624
1676469263.682805,395,1676469263,681370019,,3.0215491456764925,5.42579540581399,-0.2249148635748791
1676469263.6908932,396,1676469263,689023971,,3.197877782802078,5.386448539424316,-0.14947480127461382
1676469263.7003012,397,1676469263,697512865,,3.011631004806861,5.453001214377905,-0.15898405330192708
1676469263.7102451,398,1676469263,707868814,,2.8787852113993417,5.3751893028832205,-0.15532027960480224
1676469263.7202158,399,1676469263,716952085,,2.8299432900296018,5.352382957152114,-0.16948856837097048
1676469263.7294657,400,1676469263,728037834,,2.670072812531795,5.415734500424651,-0.2599008938010919
1676469263.7496998,401,1676469263,739765644,,2.56685354085132,5.405416469075943,-0.16455528490581467
1676469263.7540746,402,1676469263,752265691,,2.641526381654973,5.5420524025217786,-0.23758419469512565
1676469263.7627966,403,1676469263,761232852,,2.6866827721153923,5.641779858305103,-0.24160087585983034
1676469263.7696483,404,1676469263,768002748,,2.52747117727026,5.525606052550042,-0.23737413095290352
1676469263.7839034,405,1676469263,777153253,,2.469223544072265,5.549060192974676,-0.17678616238789358
1676469263.792291,406,1676469263,789345264,,2.590860610388048,5.661154765679517,-0.2512377780970962
1676469263.8010733,407,1676469263,799423456,,2.263213597506301,5.604774315319041,-0.23307469163761202
1676469263.812586,408,1676469263,808525323,,2.339044609558577,5.571943068047848,-0.19670662719363974
1676469263.8216443,409,1676469263,818520545,,2.258858303255567,5.526803103254979,-0.18082561778081455
1676469263.8298793,410,1676469263,828432083,,2.171385072800677,5.621170407346587,-0.2775467040342119
1676469263.8464682,411,1676469263,840353250,,2.2147472400194235,5.680448458166815,-0.19449837458888963
1676469263.8515425,412,1676469263,849597215,,2.1391909511298484,5.801766989251747,-0.28232788338729936
1676469263.861677,413,1676469263,859191894,,2.0475633256381727,5.775573247260742,-0.3228259040820209
1676469263.8720691,414,1676469263,869688034,,1.9010899816669542,5.832918317085919,-0.2712552349115315
1676469263.8872676,415,1676469263,878158330,,1.872357092287016,5.804219981123187,-0.1609803418004258
1676469263.8930306,416,1676469263,891829252,,1.9760768298530613,5.990460375796856,-0.28547565758676896
1676469263.900436,417,1676469263,899258852,,1.8482974161841295,5.991595397521018,-0.30993940957786287
1676469263.9108489,418,1676469263,907819032,,1.898338904107616,6.076745459858679,-0.32146786726733034
1676469263.9218967,419,1676469263,919081687,,1.8094164213816055,5.9548739940903745,-0.2786448310574567
1676469263.929519,420,1676469263,928153276,,1.8270982303160836,6.036687757498053,-0.3177401282368817
1676469263.9410121,421,1676469263,939403295,,1.6588919012961674,5.968125542617836,-0.2395754935827873
1676469263.951437,422,1676469263,948764085,,1.7785268597967987,6.126771379043913,-0.31427266265844156
1676469263.9605215,423,1676469263,958648204,,1.6487804919362976,6.0454324088680504,-0.31728858712714264
1676469263.9715273,424,1676469263,969300031,,1.7682600509002624,6.173488187714222,-0.3519635314360121
1676469263.986481,425,1676469263,982013225,,1.6031934121436768,6.192183205023451,-0.3511315375322779
1676469263.992017,426,1676469263,989917755,,1.5804467309919181,6.122933305527395,-0.31122627264969854
1676469264.0004797,427,1676469263,999023675,,1.405281664841965,6.14437580219239,-0.32000828137141635
1676469264.009803,428,1676469264,8134841,,1.3493433988201629,5.991270356237326,-0.289912964647032
1676469264.023229,429,1676469264,20377397,,1.5859407475642129,6.180915152588213,-0.37459864026856415
1676469264.0306072,430,1676469264,28850078,,1.4978225066300248,6.163803764577407,-0.3565580919444495
1676469264.041138,431,1676469264,39105176,,1.3930727045590625,6.087678804422685,-0.33214644873455595
1676469264.05243,432,1676469264,48733711,,1.5382883809135304,6.1839940934412505,-0.30751631075060465
1676469264.0639398,433,1676469264,61022520,,1.2850362298234466,6.129805076300419,-0.3071354505187769
1676469264.0727863,434,1676469264,69684028,,1.4449340290305137,6.293146121344597,-0.4130897137813851
1676469264.0825553,435,1676469264,80976724,,1.2952301812718403,6.146797433559017,-0.36880196129442355
1676469264.0901635,436,1676469264,88585376,,1.1719312828731707,6.125260249169092,-0.32197959322603265
1676469264.1018884,437,1676469264,98830938,,1.345730672823832,6.232294615187547,-0.3482784079343298
1676469264.112587,438,1676469264,108827352,,1.1171590324044265,6.126729843115772,-0.29695281480608665
1676469264.1226883,439,1676469264,118499279,,1.1799645822795393,6.144642547990064,-0.29549060503215085
1676469264.1297994,440,1676469264,128155946,,1.2653406000762213,6.186556315249825,-0.3180923386134384
1676469264.1414413,441,1676469264,136889457,,1.2464473578278417,6.173841661786182,-0.30441843454740564
1676469264.1505904,442,1676469264,148650169,,1.3589472987886067,6.33911057065563,-0.4289651836555807
1676469264.1615534,443,1676469264,160218000,,1.110423627641053,6.212105303635318,-0.4222370475331757
1676469264.169637,444,1676469264,167156696,,1.1077217747682204,6.26202764644941,-0.41278989264014804
1676469264.1819556,445,1676469264,180369377,,1.067428573592632,6.217884176141797,-0.37676691983183397
1676469264.1895874,446,1676469264,188312768,,1.0322796337828803,6.197252317313729,-0.34832034219860963
1676469264.2019997,447,1676469264,200390100,,1.105894768187205,6.282765476450179,-0.3546403278615604
1676469264.2099926,448,1676469264,206817865,,1.0866316021772884,6.272376826602198,-0.392889534040153
1676469264.222428,449,1676469264,218230724,,1.0655438580203187,6.304058919836343,-0.4048863752565981
1676469264.2307012,450,1676469264,228937387,,1.0380329981209722,6.295340634723353,-0.45605685923457917
1676469264.245042,451,1676469264,240571737,,1.1231116883279146,6.368464538991569,-0.4358641638133149
1676469264.2513623,452,1676469264,248275041,,1.113887361007236,6.368062634642257,-0.4984019719542301
1676469264.2632146,453,1676469264,259464502,,0.9457971605683391,6.2815724157752895,-0.36566368829529017
1676469264.2721806,454,1676469264,269160985,,1.0449497923452018,6.395547545010504,-0.4224293577361039
1676469264.283354,455,1676469264,279960155,,0.9118783833041241,6.307681179733711,-0.40802242846939274
1676469264.2903461,456,1676469264,288240432,,0.935514912262531,6.262841487202642,-0.32892483933452105
1676469264.3035986,457,1676469264,300494670,,1.096501204795911,6.358727509204507,-0.3463568934543635
1676469264.3105364,458,1676469264,307740926,,1.0144318116935376,6.355485945775067,-0.3211774192337259
1676469264.3226168,459,1676469264,320419073,,0.842365651265759,6.237555421944695,-0.3324790093455689
1676469264.330153,460,1676469264,328579187,,1.0549596086367348,6.3249789859347345,-0.37633020992344773
1676469264.3453565,461,1676469264,340057611,,1.0886658931218534,6.254177595050381,-0.3947199695193114
1676469264.3546097,462,1676469264,350826740,,1.1405030179695912,6.295469975836461,-0.36913153529772835
1676469264.3633678,463,1676469264,361248016,,0.9750022953581456,6.2437421322325415,-0.40477775586217235
1676469264.3716667,464,1676469264,368201971,,1.1384945986561132,6.223018505423829,-0.3797503755063618
1676469264.3847024,465,1676469264,379606246,,1.4178325820492352,6.294457972117488,-0.4624777831277018
1676469264.3895893,466,1676469264,388020515,,1.3153301133271005,6.153339846871819,-0.39983399044897033
1676469264.4009576,467,1676469264,397439241,,1.1867169069397154,6.123055440993126,-0.32903762023051436
1676469264.4124973,468,1676469264,408426046,,1.1880489019806846,6.1808374309825185,-0.38321608940939167
1676469264.4228342,469,1676469264,419128656,,1.2403894632924033,6.23289764119183,-0.38680190849883417
1676469264.429018,470,1676469264,427553653,,1.247683897527482,6.120665901470611,-0.2938143806300502
1676469264.443801,471,1676469264,440191745,,1.2764349959964705,6.107347516148145,-0.2877957797854759
1676469264.4531476,472,1676469264,451520442,,1.1837214784692376,6.161784440485661,-0.369383235262386
1676469264.4623394,473,1676469264,460688352,,1.1335635993196815,6.147176108072812,-0.36077307043982354
1676469264.4734666,474,1676469264,469345331,,1.1340379924144306,6.119008824212301,-0.3266362481925251
1676469264.483462,475,1676469264,481987953,,1.2343262735912528,6.139459550172517,-0.3740019063205533
1676469264.4913945,476,1676469264,488703012,,1.25443170406433,6.151857494155334,-0.3800356493140097
1676469264.5007846,477,1676469264,499070167,,1.1210884899040445,6.049617076042615,-0.3857376821448154
1676469264.509961,478,1676469264,507595777,,1.1620687937931062,6.074300035619742,-0.41375859412640054
1676469264.5262506,479,1676469264,520992994,,1.1941426399356108,6.006112445314594,-0.3800751334854984
1676469264.5314333,480,1676469264,528115510,,1.286240936292916,6.007536473423779,-0.335363081877756
1676469264.5427642,481,1676469264,539731025,,1.2062363863029868,5.936978055411595,-0.374866643165589
1676469264.5516455,482,1676469264,547967672,,1.21318825420666,5.981350792620439,-0.3408223351300235
1676469264.5625277,483,1676469264,560356855,,1.3039632173416944,5.971736697631759,-0.385810837932799
1676469264.5725763,484,1676469264,569352626,,1.4282101735335557,5.888049578633542,-0.3542969119399524
1676469264.5835567,485,1676469264,581166028,,1.3844169057078244,5.840576332651464,-0.26400448712208857
1676469264.590301,486,1676469264,589060783,,1.4212408400790881,5.829035725181602,-0.29830586350556126
1676469264.6017838,487,1676469264,597766876,,1.4020776977491733,5.813131558644134,-0.3284518077875409
1676469264.6096373,488,1676469264,607535123,,1.4357841028943068,5.809009204077952,-0.3506219785893206
1676469264.6214426,489,1676469264,618204355,,1.4817564718892635,5.795830211904076,-0.33079047727412414
1676469264.6308768,490,1676469264,628857135,,1.535705992974879,5.773657162324919,-0.28334107016927645
1676469264.646559,491,1676469264,640862703,,1.4413334502711934,5.649387292842887,-0.25284954905174795
1676469264.6521227,492,1676469264,648858070,,1.4413334502711934,5.649387292842887,-0.25284954905174795
1676469264.6603339,493,1676469264,659072160,,1.590397229625576,5.736295782723484,-0.2852318164609705
1676469264.671945,494,1676469264,669053554,,1.561901898738482,5.746663756252118,-0.35946766502808825
1676469264.6823707,495,1676469264,680869102,,1.4689217110043444,5.651374401197981,-0.3006761232697431
1676469264.691838,496,1676469264,688205480,,1.5464767903187426,5.621320384254768,-0.2913117215750382
1676469264.7002556,497,1676469264,698592185,,1.5843074162102462,5.737862010310622,-0.35072725994493686
1676469264.7089264,498,1676469264,707150697,,1.6064323599953532,5.7380994274052215,-0.3237829827524699
1676469264.7209785,499,1676469264,719782590,,1.5110310941914356,5.6864149151502215,-0.2674833611655892
1676469264.7302983,500,1676469264,728462219,,1.5592533288872388,5.742261516284998,-0.28893390155904236
1676469264.7432148,501,1676469264,738340616,,1.6233656408438897,5.818384233009171,-0.32812117420302483
1676469264.75358,502,1676469264,749311447,,1.7034946325802063,5.8251583682329775,-0.38037521169252375
1676469264.7620454,503,1676469264,760281562,,1.635846894125015,5.704630362360539,-0.3364252062154766
1676469264.7707431,504,1676469264,767593145,,1.5396885959201163,5.644315785921014,-0.28325366387802015
1676469264.7871168,505,1676469264,780843496,,1.5183425130169617,5.599596499685762,-0.22960324428921705
1676469264.7917595,506,1676469264,789962291,,1.5515727518789328,5.648942138690301,-0.2986524519278585
1676469264.7998815,507,1676469264,798408269,,1.534698704620972,5.624170763701317,-0.3761097360632789
1676469264.80946,508,1676469264,807549238,,1.513568663181474,5.662638662105747,-0.3544529882021362
1676469264.8192153,509,1676469264,815691232,,1.6440163036122846,5.671865578139471,-0.3547980632534227
1676469264.832905,510,1676469264,830254793,,1.6158128176262236,5.6742710931202724,-0.36143465876679126
1676469264.8419614,511,1676469264,838737487,,1.8451392292329827,5.741834929710994,-0.39882267158010226
1676469264.8516674,512,1676469264,849177122,,1.884603472618426,5.694057544825953,-0.33152231899439133
1676469264.8616855,513,1676469264,858298063,,1.8805835075762947,5.687999947571066,-0.306510218984047
1676469264.871795,514,1676469264,869158029,,1.8962898590817907,5.831779742397084,-0.3075082506396536
1676469264.882153,515,1676469264,879041910,,1.7995783631055313,5.799520000325487,-0.3447275517111139
1676469264.8909402,516,1676469264,889459609,,1.7973680770957667,5.7772256250027,-0.32173316475826674
1676469264.9021926,517,1676469264,899102210,,1.737538969688771,5.80068863771713,-0.29351995764320465
1676469264.91341,518,1676469264,908867120,,1.827557115626306,5.789927784717756,-0.2751503103719716
1676469264.9212735,519,1676469264,919559955,,2.1119061911973556,5.956350521021351,-0.47496897677150285
1676469264.9299612,520,1676469264,928127050,,2.1995848902699233,5.982901758215597,-0.5457810968756647
1676469264.9390488,521,1676469264,937430620,,2.1253888986725675,5.83738593425603,-0.30380182544404494
1676469264.9510798,522,1676469264,949578046,,2.1144237301209174,5.822951171746531,-0.2578627175609257
1676469264.9619448,523,1676469264,959310054,,2.0005317285173416,5.757472583758559,-0.20550489398603158
1676469264.9715257,524,1676469264,968609333,,1.890516807809122,5.762673762061257,-0.2146050286647291
1676469264.9830344,525,1676469264,980943441,,1.877556145723533,5.7626477166974555,-0.22416271235302065
1676469264.9907677,526,1676469264,988849401,,1.9249063475674346,5.760484559142627,-0.2302091853754871
1676469265.0005972,527,1676469264,999235391,,1.8780700246126296,5.746114174843112,-0.2416240747920891
1676469265.0116365,528,1676469265,7491111,,1.9150599353257027,5.8072413180797495,-0.2446117787614846
1676469265.0250275,529,1676469265,18288135,,2.040315622817298,5.8357266719423295,-0.27029143679496137
1676469265.0305157,530,1676469265,27870178,,2.119856400455684,5.879934216963364,-0.2909535675980123
1676469265.041488,531,1676469265,38956880,,2.1214830800043276,5.920273704357023,-0.2860261820816033
1676469265.0512505,532,1676469265,49329519,,2.1730105431763946,5.9737316964430915,-0.3397617808746059
1676469265.0612805,533,1676469265,59779167,,2.171457024379704,6.003083399201313,-0.3196814008312877
1676469265.0704212,534,1676469265,68889141,,2.1586029291667757,5.990790068921518,-0.30651002080902584
1676469265.082595,535,1676469265,80496072,,2.119826499116889,5.9974740052770255,-0.2968857098332226
1676469265.0914817,536,1676469265,89903354,,2.0999354723239443,6.019767386169808,-0.2606336296515275
1676469265.1022186,537,1676469265,98772525,,2.0928912844027177,6.011690767057174,-0.2702874883828619
1676469265.1090546,538,1676469265,107746839,,2.099075987108897,6.010454108283829,-0.26165191672552535
1676469265.123105,539,1676469265,120686292,,1.9276960298844166,6.011528071310653,-0.31136399998829206
1676469265.1295397,540,1676469265,127906799,,1.954077869368859,6.04191816453591,-0.25852858134500745
1676469265.1435246,541,1676469265,140082120,,2.0262844195727814,6.074311466599836,-0.26021129692323974
1676469265.1524942,542,1676469265,150433063,,2.1280188363369152,6.214444423860732,-0.47470227823565164
1676469265.159323,543,1676469265,157765150,,2.154414169634941,6.207966124240354,-0.4873909435845778
1676469265.171939,544,1676469265,168721675,,2.211597159521226,6.268507598742432,-0.4705053614607692
1676469265.1890607,545,1676469265,184572696,,2.230168955266706,6.287090218401622,-0.48169063416284447
1676469265.1964204,546,1676469265,192372798,,2.1544345051218357,6.2849111477739354,-0.5176710348756579
1676469265.2022955,547,1676469265,200530767,,2.087061500442879,6.298832674065129,-0.5135334201136644
1676469265.2105315,548,1676469265,208737134,,2.116728942192849,6.310972376280543,-0.5251170324263819
1676469265.2222328,549,1676469265,219715833,,2.099652072425839,6.334190610589856,-0.5159857643331404
1676469265.2294686,550,1676469265,227808237,,2.0799315424836307,6.35933774507145,-0.4936506726274483
1676469265.2394805,551,1676469265,237056970,,2.0993249206006075,6.324499720449436,-0.5002920752356058
1676469265.2518861,552,1676469265,248812198,,2.0810097547194397,6.333498040983074,-0.4722421857600829
1676469265.2611952,553,1676469265,258286237,,2.0347037771548773,6.125752017905436,-0.2858867361393984
1676469265.2699609,554,1676469265,268718957,,1.9928303167948265,6.093005820956511,-0.26510819628757487
1676469265.2832737,555,1676469265,279074192,,2.025748004338255,6.147656614854886,-0.2344390115966758
1676469265.2912586,556,1676469265,290208339,,1.9784519891682062,6.111994169734925,-0.2157262594008266
1676469265.3025124,557,1676469265,298929929,,1.9526096876075105,6.108757502341541,-0.22524409963334285
1676469265.3094876,558,1676469265,307588338,,1.9058093255426596,6.100258881301339,-0.2416256532958159
1676469265.3222327,559,1676469265,319696664,,1.92901164387595,6.118943887603089,-0.1995717456558771
1676469265.3306103,560,1676469265,327733755,,1.9227896240694864,6.107361433561459,-0.22148230049554932
1676469265.341899,561,1676469265,339748620,,1.8896790511186123,6.097509991965586,-0.20961707689399203
1676469265.3526711,562,1676469265,350342512,,1.8193630996710788,6.0822348657266385,-0.2035713822380617
1676469265.3624566,563,1676469265,360221385,,1.8022619514557376,6.058207073292128,-0.20023038211776661
1676469265.37198,564,1676469265,367763280,,1.8260877027300901,6.031755228229315,-0.19303238286058202
1676469265.385351,565,1676469265,382497787,,1.7708093407987555,5.973017262787156,-0.15281191343442865
1676469265.3922753,566,1676469265,388360738,,1.7707232128937918,5.973430797086691,-0.17801198572085264
1676469265.4002218,567,1676469265,397211074,,1.7920804379086046,5.964233178209892,-0.17206290926652015
1676469265.4096854,568,1676469265,406820774,,1.7571585668758742,5.94267511441746,-0.15566768458603933
1676469265.4229078,569,1676469265,419028997,,1.7819578391169313,5.919527056874282,-0.1770586027095244
1676469265.432072,570,1676469265,429915428,,1.8252794479072345,5.994569492575224,-0.16682118376953006
1676469265.4408085,571,1676469265,438452720,,1.7821730328867094,5.987553551343813,-0.20937873576401772
1676469265.452093,572,1676469265,449769735,,1.785881283367623,6.017674188747954,-0.18745500849500005
1676469265.4630675,573,1676469265,460567712,,1.650922080621387,6.039346677354997,-0.22213542166565184
1676469265.4710507,574,1676469265,467503547,,1.5954938778812628,6.031788250066522,-0.2748716811436353
1676469265.4847143,575,1676469265,481866598,,1.4654407183657638,6.017833010735077,-0.22513323905518373
1676469265.4902983,576,1676469265,488661050,,1.3620179348348742,6.013291134129607,-0.2274816874186444
1676469265.5015967,577,1676469265,498094081,,1.400275112016847,6.02352137079841,-0.21197456549678906
1676469265.5106091,578,1676469265,507806777,,1.389516679748354,5.965305334974978,-0.13791567374017
1676469265.5198574,579,1676469265,517641782,,1.3221274670780094,5.941188625841947,-0.11643085706744352
1676469265.5320983,580,1676469265,528691530,,1.2862350986559121,5.918889902254903,-0.15717035487004424
1676469265.5430205,581,1676469265,538734674,,1.316678246453438,5.958720624249718,-0.1932734342331444
1676469265.5510294,582,1676469265,549364566,,1.2780448335343049,6.136366053398807,-0.47649944845030495
1676469265.5618684,583,1676469265,559756040,,1.1739964201041373,6.152345472564358,-0.46582746334115693
1676469265.5709937,584,1676469265,568605661,,1.061815781679181,6.1553625046268285,-0.46599523240663604
