Time,header.seq,header.stamp.secs,header.stamp.nsecs,header.frame_id,vector.x,vector.y,vector.z
1676469259.7325962,1,1676469259,729986667,,4.462231072098834,0.08215045590639121,0.0
1676469259.7405207,2,1676469259,738410234,,4.462236254304741,0.08201716227669109,0.0
1676469259.7495563,3,1676469259,746510744,,4.462534994905514,0.0811890712635867,0.0
1676469259.7588272,4,1676469259,756723880,,4.4650663047246315,0.08088682290351666,0.0
1676469259.7719736,5,1676469259,768123388,,4.464413767399669,0.0833019467574897,0.0
1676469259.7810369,6,1676469259,778713226,,4.4648979185275,0.08201373689168752,0.0
1676469259.7909098,7,1676469259,788815021,,4.465147969764711,0.0876837420062763,0.0
1676469259.8010263,8,1676469259,798277378,,4.4652773553020655,0.08768469313391442,0.0
1676469259.8167658,9,1676469259,811517238,,4.465110969039442,0.08747395579740819,0.0
1676469259.830076,10,1676469259,822709321,,4.461955382180757,0.08898327941351553,0.0
1676469259.8380694,11,1676469259,832456111,,4.461394172975899,0.08898070633991521,0.0
1676469259.841702,12,1676469259,839819192,,4.461591427330996,0.08873943363596454,0.0
1676469259.8525505,13,1676469259,848223209,,4.461474422668337,0.08938913058328556,0.0
1676469259.8586304,14,1676469259,856853246,,4.462640342574162,0.07734396419486124,0.0
1676469259.8712177,15,1676469259,866860628,,4.462584792969528,0.07803581320906401,0.0
1676469259.8811078,16,1676469259,879350185,,4.463044025245249,0.0774696472801653,0.0
1676469259.8908694,17,1676469259,888712167,,4.465051552651852,0.0686630739493606,0.0
1676469259.9045289,18,1676469259,898953914,,4.464987892612549,0.06883031233300678,0.0
1676469259.9109075,19,1676469259,908528804,,4.4652163497395865,0.06800888796799498,0.0
1676469259.9225168,20,1676469259,920334577,,4.465455480766628,0.06300774020312615,0.0
1676469259.9317095,21,1676469259,929451704,,4.465689870478534,0.064169759887854,0.0
1676469259.9456248,22,1676469259,938690185,,4.4657979482436,0.06235509860440941,0.0
1676469259.9547665,23,1676469259,951784372,,4.462302660830959,0.060893163228274046,0.0
1676469259.9623158,24,1676469259,959064722,,4.462685155149153,0.05993076420825731,0.0
1676469259.9716184,25,1676469259,969113588,,4.462822137805728,0.05968117585433832,0.0
1676469259.9802785,26,1676469259,978256702,,4.463323550111902,0.05798060905153623,0.0
1676469259.9917462,27,1676469259,989138603,,4.460688810863384,0.05839391241021202,0.0
1676469259.9999156,28,1676469259,997899770,,4.4609382604776355,0.05968514681062231,0.0
1676469260.0111508,29,1676469260,8885860,,4.460775392616717,0.059972025631730444,0.0
1676469260.0261662,30,1676469260,19761085,,4.450482124706987,0.054080869500836425,0.0
1676469260.0321314,31,1676469260,30353307,,4.450958577405147,0.05235847617985591,0.0
1676469260.0413852,32,1676469260,39306640,,4.451057848647896,0.05202302593002138,0.0
1676469260.0524983,33,1676469260,50575971,,4.445885513957201,0.05700797386542195,0.0
1676469260.059059,34,1676469260,57617187,,4.44582070051951,0.05777706767299354,0.0
1676469260.0717492,35,1676469260,68370580,,4.445842812115739,0.058987188555497935,0.0
1676469260.0798726,36,1676469260,77572822,,4.44570231949769,0.057179118895423056,0.0
1676469260.0917804,37,1676469260,89893341,,4.448088239488278,0.05089463440135951,0.0
1676469260.0994062,38,1676469260,97314834,,4.4484535160344585,0.05104859051538619,0.0
1676469260.1100428,39,1676469260,107744455,,4.448171300273109,0.05274013788788826,0.0
1676469260.1251202,40,1676469260,119776487,,4.448383635971694,0.05242345701012737,0.0
1676469260.1301675,41,1676469260,128241777,,4.4476352893209805,0.05638146310114634,0.0
1676469260.139806,42,1676469260,136926651,,4.4476352893209805,0.05638146310114634,0.0
1676469260.1527426,43,1676469260,148248434,,4.447335176042693,0.05684245253414258,0.0
1676469260.1600125,44,1676469260,157261371,,4.4474718711552885,0.053296114410103776,0.0
1676469260.1709263,45,1676469260,168619871,,4.447897108586567,0.053402736977990035,0.0
1676469260.1852005,46,1676469260,179115772,,4.448110999998411,0.052617442626539876,0.0
1676469260.1928518,47,1676469260,190101861,,4.444721987163833,0.06051515742285674,0.0
1676469260.19899,48,1676469260,197298526,,4.445214276532496,0.05986569305702481,0.0
1676469260.2114735,49,1676469260,208682537,,4.444607789723465,0.06269392870003236,0.0
1676469260.2262783,50,1676469260,221653461,,4.445702463881675,0.053814849047903804,0.0
1676469260.235506,51,1676469260,231849670,,4.445972356392397,0.05255142880653366,0.0
1676469260.243003,52,1676469260,239155054,,4.445274699946686,0.05395961589143679,0.0
1676469260.2521148,53,1676469260,248246192,,4.445505949298206,0.05452661044318502,0.0
1676469260.2631826,54,1676469260,259174108,,4.447944813906941,0.05056323377374315,0.0
1676469260.2716832,55,1676469260,269929885,,4.447384061176119,0.05159993335947021,0.0
1676469260.2807865,56,1676469260,277949094,,4.447747632822789,0.0529356798174008,0.0
1676469260.2904637,57,1676469260,288656473,,4.453086223525128,0.04874599148287632,0.0
1676469260.3025427,58,1676469260,297820091,,4.45320265131717,0.04888952004338419,0.0
1676469260.3113346,59,1676469260,307941198,,4.453097068150538,0.04893709341155689,0.0
1676469260.3282633,60,1676469260,321331501,,4.458154830063208,0.03654588519359538,0.0
1676469260.3322387,61,1676469260,329900979,,4.458019683554963,0.0360998471646691,0.0
1676469260.3426113,62,1676469260,339374303,,4.457552245529236,0.037526902873417735,0.0
1676469260.3519435,63,1676469260,348323345,,4.457707290707805,0.03756996672295447,0.0
1676469260.3600535,64,1676469260,357070446,,4.468936860713071,0.03816924420418002,0.0
1676469260.3717086,65,1676469260,369116783,,4.469204030927286,0.03767840414153251,0.0
1676469260.3828456,66,1676469260,379742860,,4.470117532745739,0.03690665585405893,0.0
1676469260.3908691,67,1676469260,389384746,,4.478793408090078,0.027754303607386066,0.0
1676469260.4010909,68,1676469260,398562192,,4.478676255396754,0.02717163047796391,0.0
1676469260.409116,69,1676469260,407539129,,4.4782704819983294,0.027358135597812368,0.0
1676469260.4255636,70,1676469260,420747995,,4.478918393753626,0.026051094558864268,0.0
1676469260.4291756,71,1676469260,425920724,,4.4910985847528195,0.0164398649516057,0.0
1676469260.44257,72,1676469260,438439846,,4.491365456086096,0.016595340860693027,0.0
1676469260.4513915,73,1676469260,447938919,,4.491092873967456,0.017177914622840736,0.0
1676469260.4619114,74,1676469260,459198713,,4.499568348505921,0.02133418107977185,0.0
1676469260.471992,75,1676469260,466587305,,4.4992411843310185,0.024467102077926434,0.0
1676469260.480098,76,1676469260,478127717,,4.499195751763583,0.02420716282137007,0.0
1676469260.4934864,77,1676469260,488323926,,4.495655585318631,0.024479518913978406,0.0
1676469260.4990642,78,1676469260,497310876,,4.495829470448988,0.023252045050490725,0.0
1676469260.5108595,79,1676469260,507525682,,4.495865968753847,0.024750428735634687,0.0
1676469260.5249743,80,1676469260,518798112,,4.4959400206384235,0.023098173272078443,0.0
1676469260.5321271,81,1676469260,529881238,,4.511608579744712,0.021903067043961864,0.0
1676469260.5391185,82,1676469260,537281990,,4.51206098329772,0.02212780839615125,0.0
1676469260.5526397,83,1676469260,548270940,,4.511455783263307,0.021144337614309866,0.0
1676469260.5599,84,1676469260,556715011,,4.516262257525663,0.016753077513748407,0.0
1676469260.5715063,85,1676469260,567243337,,4.515986359908773,0.018464617855178406,0.0
1676469260.5828166,86,1676469260,578293561,,4.516054893225273,0.01689469812154992,0.0
1676469260.5907543,87,1676469260,588939666,,4.515290281834754,0.015268434946658164,0.0
1676469260.6013489,88,1676469260,597432613,,4.515290281834754,0.015268434946658164,0.0
1676469260.6092772,89,1676469260,607692718,,4.51461441809904,0.01663103397802481,0.0
1676469260.6262133,90,1676469260,620035886,,4.515201821867809,0.01402518336116685,0.0
1676469260.631488,91,1676469260,628694057,,4.518375072775983,0.0037778588937298616,0.0
1676469260.6398838,92,1676469260,637469530,,4.518366744728079,0.0032041122644414625,0.0
1676469260.653112,93,1676469260,649460554,,4.51883646978342,0.0023122955807225367,0.0
1676469260.6622624,94,1676469260,657695770,,4.52341658850519,0.004223086927861897,0.0
1676469260.6717534,95,1676469260,669328451,,4.523561893045047,0.0015684163674520692,0.0
1676469260.6836312,96,1676469260,679177284,,4.523794876679565,0.0022808659288290943,0.0
1676469260.6911077,97,1676469260,688643217,,4.522617091414534,0.003643290940115581,0.0
1676469260.6998272,98,1676469260,697157382,,4.523188441902029,0.001000300466139931,0.0
1676469260.71155,99,1676469260,707982063,,4.522984652998888,0.0017539886364278119,0.0
1676469260.7252994,100,1676469260,719969272,,4.523650738040907,0.0043183023990341985,0.0
1676469260.7313795,101,1676469260,728354454,,4.523650738040907,0.0043183023990341985,0.0
1676469260.7398603,102,1676469260,737932205,,4.52368875350315,0.0023536528309092007,0.0
1676469260.7509048,103,1676469260,748037576,,4.523788402083492,0.0031019076588658925,0.0
1676469260.7597327,104,1676469260,757570505,,4.524156333065511,-0.004566657428847589,0.0
1676469260.7718549,105,1676469260,767561674,,4.5236914109163875,-0.0033333329407850684,0.0
1676469260.78113,106,1676469260,779308795,,4.524277830642475,-0.003921770098058612,0.0
1676469260.7919047,107,1676469260,790067434,,4.525753317170586,-0.002659049839851542,0.0
1676469260.80208,108,1676469260,798961877,,4.525543747271484,-0.002652309369124334,0.0
1676469260.808963,109,1676469260,807258367,,4.525839377959479,-0.0030004198624033035,0.0
1676469260.8273525,110,1676469260,818237543,,4.527026250987895,0.005128446753647126,0.0
1676469260.832353,111,1676469260,829636812,,4.527641419829366,0.0027537593585679754,0.0
1676469260.840888,112,1676469260,838264465,,4.527353323541127,0.0039464437275696235,0.0
1676469260.851999,113,1676469260,847337007,,4.527498465698816,0.0023214893658374887,0.0
1676469260.8603117,114,1676469260,856488943,,4.524407958509104,0.0027442762434927467,0.0
1676469260.87122,115,1676469260,867377996,,4.524240293188314,0.00235608626036539,0.0
1676469260.8824618,116,1676469260,878616571,,4.52463970425027,0.0018780951180917447,0.0
1676469260.8932345,117,1676469260,890807151,,4.528020178593957,-0.0019611446291755556,0.0
1676469260.9019358,118,1676469260,897260904,,4.527820523708366,-0.004028812363924538,0.0
1676469260.9090757,119,1676469260,906950950,,4.52794053566772,-0.001038812230656977,0.0
1676469260.924273,120,1676469260,920002222,,4.530486206290584,-0.013525810339108229,0.0
1676469260.930621,121,1676469260,928915023,,4.530396809728627,-0.013907965425274518,0.0
1676469260.945353,122,1676469260,938807964,,4.529591424265563,-0.012635026227011723,0.0
1676469260.948798,123,1676469260,947124481,,4.530485297929389,-0.015073933061502736,0.0
1676469260.96209,124,1676469260,956557989,,4.53292761071176,-0.014262272156380923,0.0
1676469260.9721646,125,1676469260,969675302,,4.5331696677229365,-0.014910089267143005,0.0
1676469260.9807253,126,1676469260,978404283,,4.5334213435475945,-0.015204608895886478,0.0
1676469260.9916842,127,1676469260,989101409,,4.532090445022696,-0.01986768533362607,0.0
1676469261.0004654,128,1676469260,998202800,,4.532030186614241,-0.020945403997643563,0.0
1676469261.010166,129,1676469261,7694959,,4.532464840553537,-0.022485182636161484,0.0
1676469261.024776,130,1676469261,19839525,,4.531857197815405,-0.019675015785361256,0.0
1676469261.032095,131,1676469261,30460834,,4.544991656849542,-0.0210844470152759,0.0
1676469261.0412865,132,1676469261,38176298,,4.54544243567717,-0.023404744351401385,0.0
1676469261.0509036,133,1676469261,46967029,,4.545401904785545,-0.02336844521768387,0.0
1676469261.0622938,134,1676469261,58581829,,4.538042964982434,-0.03001673907149954,0.0
1676469261.0718563,135,1676469261,69211959,,4.538592544555267,-0.030504896766418117,0.0
1676469261.082973,136,1676469261,79478263,,4.538241042699132,-0.029757632124749692,0.0
1676469261.0907056,137,1676469261,88951826,,4.537766090316085,-0.04805394720264488,0.0
1676469261.1001644,138,1676469261,98375797,,4.537398804437541,-0.04822702297767575,0.0
1676469261.110939,139,1676469261,107227563,,4.5379994589545225,-0.049827689190189824,0.0
1676469261.1260586,140,1676469261,121546506,,4.525226888377784,-0.048466482497402534,0.0
1676469261.1312222,141,1676469261,129054069,,4.52504224306494,-0.048013207782527025,0.0
1676469261.1395636,142,1676469261,137088775,,4.52542250572675,-0.048841458241041004,0.0
1676469261.156352,143,1676469261,150709152,,4.5252788179632395,-0.04793165956269998,0.0
1676469261.1618059,144,1676469261,157892704,,4.527994968365358,-0.05509979505277005,0.0
1676469261.178148,145,1676469261,170013666,,4.528178653646017,-0.05764887267113292,0.0
1676469261.1850471,146,1676469261,182455539,,4.528406537324759,-0.0563005329769688,0.0
1676469261.1959074,147,1676469261,192127943,,4.523308650130141,-0.0513141266273265,0.0
1676469261.1991134,148,1676469261,197491645,,4.52325758061747,-0.050983278610555065,0.0
1676469261.2119422,149,1676469261,208106279,,4.523283061063856,-0.05094831663346058,0.0
1676469261.2243917,150,1676469261,220664024,,4.533059063320924,-0.05955372701232524,0.0
1676469261.232792,151,1676469261,229496479,,4.5326999449130385,-0.05858378316364212,0.0
1676469261.2389655,152,1676469261,237505674,,4.532862828172877,-0.05883754471341189,0.0
1676469261.2507923,153,1676469261,247572183,,4.532672729827824,-0.058849556138368515,0.0
1676469261.2596445,154,1676469261,257444143,,4.536922565052618,-0.05206360869721901,0.0
1676469261.2723238,155,1676469261,269942522,,4.53703355990867,-0.052878096641121995,0.0
1676469261.2810037,156,1676469261,278981924,,4.536152337726459,-0.05160086849704591,0.0
1676469261.2923443,157,1676469261,289945363,,4.526895423832076,-0.06347390261903768,0.0
1676469261.299652,158,1676469261,297420024,,4.526768749772782,-0.06358796963097041,0.0
1676469261.3104932,159,1676469261,307624816,,4.526632733400352,-0.06315442368359427,0.0
1676469261.326545,160,1676469261,321290969,,4.521713476612484,-0.07453459864109208,0.0
1676469261.3347998,161,1676469261,330964803,,4.52199908503986,-0.07403701588745785,0.0
1676469261.3407345,162,1676469261,338921070,,4.521747699696326,-0.07139467268907018,0.0
1676469261.3515341,163,1676469261,348077297,,4.522285504616939,-0.0735923953062203,0.0
1676469261.3594415,164,1676469261,357402086,,4.523126918551534,-0.0806302140509511,0.0
1676469261.3716877,165,1676469261,368437528,,4.523287566969521,-0.08093212855656075,0.0
1676469261.3811812,166,1676469261,378738641,,4.523126308869035,-0.08099214814826636,0.0
1676469261.3920846,167,1676469261,387461423,,4.527519172823218,-0.08597407982653123,0.0
1676469261.3994355,168,1676469261,397764682,,4.527329572445064,-0.08371516130550748,0.0
1676469261.4092846,169,1676469261,407599449,,4.527010888524074,-0.08502830354772273,0.0
1676469261.4239678,170,1676469261,418006420,,4.526917744568757,-0.0829065067889203,0.0
1676469261.4319336,171,1676469261,429968595,,4.52956126668851,-0.08758111726575254,0.0
1676469261.4411054,172,1676469261,437848091,,4.529476705341784,-0.08844681171888677,0.0
1676469261.4595158,173,1676469261,449775457,,4.529455256369168,-0.08873160105696198,0.0
1676469261.4650986,174,1676469261,460959672,,4.522057583504757,-0.08782388194613856,0.0
1676469261.4710348,175,1676469261,468132495,,4.522057583504757,-0.08782388194613856,0.0
1676469261.4800315,176,1676469261,477664232,,4.52222157964083,-0.08617334346244472,0.0
1676469261.4918602,177,1676469261,489099025,,4.519928140616586,-0.09021405448029532,0.0
1676469261.4995983,178,1676469261,497482776,,4.519271950670278,-0.09086627854239177,0.0
1676469261.5103853,179,1676469261,507358312,,4.519362775211665,-0.08930164032240152,0.0
1676469261.5209484,180,1676469261,518986225,,4.518115604599432,-0.08928573439686883,0.0
1676469261.5301793,181,1676469261,528040647,,4.517764105886309,-0.08728583773133339,0.0
1676469261.5402343,182,1676469261,538226127,,4.517596230597639,-0.08841848803258424,0.0
1676469261.55023,183,1676469261,547441720,,4.517596230597639,-0.08841848803258424,0.0
1676469261.5597558,184,1676469261,557204723,,4.520195763459969,-0.09795375217013902,0.0
1676469261.5710175,185,1676469261,568616151,,4.519913905163753,-0.09597686355874446,0.0
1676469261.5853183,186,1676469261,577381610,,4.520005947693458,-0.09681772649685318,0.0
1676469261.5919957,187,1676469261,588544607,,4.517377557191273,-0.097496675974315,0.0
1676469261.6025393,188,1676469261,597685098,,4.51774340982599,-0.0980003984620333,0.0
1676469261.610266,189,1676469261,607938528,,4.517330747170794,-0.09799211702598681,0.0
1676469261.6280437,190,1676469261,617498874,,4.5176600367741955,-0.09699873457978787,0.0
1676469261.6331246,191,1676469261,630908012,,4.508303249117995,-0.10461564957013045,0.0
1676469261.6399994,192,1676469261,638154268,,4.508411926513184,-0.10593924815818424,0.0
1676469261.6502626,193,1676469261,648148775,,4.508352506222878,-0.10445815107312166,0.0
1676469261.6609313,194,1676469261,658207178,,4.5087170960063,-0.10589741854050712,0.0
1676469261.6724966,195,1676469261,668263912,,4.507407741765174,-0.10349016448105752,0.0
1676469261.6848745,196,1676469261,682593345,,4.501214096906064,-0.022683237925908005,0.0
1676469261.6920211,197,1676469261,689289808,,4.501291240943742,-0.02770875381350411,0.0
1676469261.7028053,198,1676469261,700194597,,4.500095129715616,-0.027172827283166487,0.0
1676469261.7123737,199,1676469261,708056926,,4.500284125372909,-0.02759314096093653,0.0
1676469261.7225242,200,1676469261,720305919,,4.446003374036913,-0.010105304216961607,0.0
1676469261.7298634,201,1676469261,728120803,,4.4439646905013435,-0.0082209181958415,0.0
1676469261.7425363,202,1676469261,736348390,,4.4439646905013435,-0.0082209181958415,0.0
1676469261.7513916,203,1676469261,749424934,,4.399751594733237,0.015370224201253637,0.0
1676469261.7616386,204,1676469261,759815692,,4.396811657833635,0.021653432053886597,0.0
1676469261.770211,205,1676469261,768365621,,4.393497992966665,0.025185680762036824,0.0
1676469261.7812107,206,1676469261,776728153,,4.391112853714775,0.027196836743665635,0.0
1676469261.7917974,207,1676469261,787472486,,4.282815437730491,-0.4288588979617829,0.0
1676469261.8011408,208,1676469261,797880887,,4.274956180740721,-0.4433710802478848,0.0
1676469261.8093216,209,1676469261,807394504,,4.264234131506521,-0.4827417106380219,0.0
1676469261.8231702,210,1676469261,820011377,,4.166018709583869,-2.105052929927411,0.0
1676469261.83078,211,1676469261,828359127,,4.1490445229441395,-2.2112313704602866,0.0
1676469261.84183,212,1676469261,838774204,,4.137983660448799,-2.294651826956605,0.0
1676469261.8507147,213,1676469261,848619222,,4.317944758887638,-4.014512700649723,0.0
1676469261.8620305,214,1676469261,858947277,,4.306936157957026,-4.155863843831372,0.0
1676469261.8700266,215,1676469261,866842269,,4.306936157957026,-4.155863843831372,0.0
1676469261.8875163,216,1676469261,882411956,,4.685931968070885,-5.075045256016813,0.0
1676469261.891338,217,1676469261,889061927,,4.67887925870902,-5.1838817659181835,0.0
1676469261.9033608,218,1676469261,900361299,,4.6789910875289,-5.234589204652348,0.0
1676469261.9094436,219,1676469261,907667160,,4.6805706192779475,-5.4141930770584175,0.0
1676469261.921633,220,1676469261,920002222,,4.624254149737518,-4.80663075495705,0.0
1676469261.9303794,221,1676469261,927010774,,4.6253148078862925,-4.8446267409582315,0.0
1676469261.9433076,222,1676469261,940423250,,4.622221394569048,-4.978644990434255,0.0
1676469261.9518943,223,1676469261,949800491,,4.389529348174419,-3.806272887524591,0.0
1676469261.960484,224,1676469261,958029985,,4.387940391555481,-3.8294304443589797,0.0
1676469261.9731731,225,1676469261,968501567,,4.382359665012759,-3.890804198662239,0.0
1676469261.983919,226,1676469261,979828834,,4.375311732725158,-3.934681853446864,0.0
1676469261.992197,227,1676469261,990318536,,4.119275693225614,-2.3912271677984265,0.0
1676469262.000917,228,1676469261,997600793,,4.110452224620567,-2.4107970138767665,0.0
1676469262.008976,229,1676469262,7294654,,4.1037790503259775,-2.4140803231919676,0.0
1676469262.0230682,230,1676469262,18977642,,4.145357449045208,-1.6842616215279373,0.0
1676469262.0305402,231,1676469262,28965950,,4.140493347257256,-1.6723520468929527,0.0
1676469262.0416005,232,1676469262,39920091,,4.138782903618545,-1.6663919538246528,0.0
1676469262.050147,233,1676469262,48310995,,4.263464965828826,-1.4069530614041177,0.0
1676469262.059781,234,1676469262,57440280,,4.263271176030163,-1.3953232401143192,0.0
1676469262.0738761,235,1676469262,70213317,,4.264764209243007,-1.391812043229272,0.0
1676469262.0852795,236,1676469262,82076311,,4.290419971223239,-1.4016330484365194,0.0
1676469262.092739,237,1676469262,89159965,,4.288942294417293,-1.398938847168175,0.0
1676469262.1024072,238,1676469262,100082874,,4.2888397079019125,-1.3902078288925335,0.0
1676469262.110675,239,1676469262,107039928,,4.2888397079019125,-1.3902078288925335,0.0
1676469262.122197,240,1676469262,116497755,,4.1712348182349945,-1.6689417603934462,0.0
1676469262.130945,241,1676469262,127360582,,4.170018424832534,-1.6669221728757515,0.0
1676469262.1479027,242,1676469262,140840291,,4.165572621089629,-1.6676836968330424,0.0
1676469262.1532729,243,1676469262,151716709,,4.135636435782051,-1.9748704872582492,0.0
1676469262.1617,244,1676469262,158617258,,4.135576228681777,-1.9749164093968146,0.0
1676469262.1712294,245,1676469262,167769670,,4.129179238284539,-1.9864129362297465,0.0
1676469262.1844215,246,1676469262,179457902,,4.1253898579678525,-1.993363813429138,0.0
1676469262.1916068,247,1676469262,188896417,,3.870969993298679,-2.5679697024693637,0.0
1676469262.1998289,248,1676469262,198004484,,3.841197383179509,-2.595671107161124,0.0
1676469262.2133906,249,1676469262,208870887,,3.82512230009298,-2.6149111248515764,0.0
1676469262.223718,250,1676469262,221153259,,1.7050119754822368,-3.421149960676452,0.0
1676469262.2300982,251,1676469262,228502035,,1.5817217959483079,-3.4691571104076475,0.0
1676469262.242678,252,1676469262,238034725,,1.500766792169216,-3.4828245444371793,0.0
1676469262.2487605,253,1676469262,246282815,,0.8910713453451256,-2.3266451933671988,0.0
1676469262.2619286,254,1676469262,257949352,,0.7947719405638992,-2.2950237675400227,0.0
1676469262.2720926,255,1676469262,267700672,,0.7701659516914033,-2.286125250946252,0.0
1676469262.2824376,256,1676469262,278346538,,0.6575896405053121,-2.2322047967091176,0.0
1676469262.290472,257,1676469262,288111686,,-0.8245939030587363,-1.8415717839282575,0.0
1676469262.3014984,258,1676469262,298936367,,-0.9308289659017314,-1.798655519596162,0.0
1676469262.3120525,259,1676469262,307909727,,-1.0125751454248262,-1.773899410172678,0.0
1676469262.3227775,260,1676469262,317280769,,-2.9968667896731866,-1.0865287861693846,0.0
1676469262.330363,261,1676469262,328355789,,-3.1395845805721296,-1.0426717873463616,0.0
1676469262.342612,262,1676469262,339828729,,-3.2957549242000774,-0.9921865570251713,0.0
1676469262.3517487,263,1676469262,349041938,,-4.587146693931732,-0.4988292523184637,0.0
1676469262.3608978,264,1676469262,359128236,,-4.7623279534251,-0.45244697192785904,0.0
1676469262.3721423,265,1676469262,366987466,,-4.8750820479703325,-0.41056909423086746,0.0
1676469262.3873417,266,1676469262,381672859,,-4.990274905269821,-0.3732277219625833,0.0
1676469262.394064,267,1676469262,391793012,,-5.471188849487088,-0.19759204616105874,0.0
1676469262.4019008,268,1676469262,398554086,,-5.536193246085011,-0.18265418703219727,0.0
1676469262.4093597,269,1676469262,407572746,,-5.710529979281677,-0.1444127490741714,0.0
1676469262.4249227,270,1676469262,420902729,,-5.676024293883532,-0.04129191871002467,0.0
1676469262.4304335,271,1676469262,427257776,,-5.793650565725599,0.0064470564465200384,0.0
1676469262.4431922,272,1676469262,438219785,,-5.967708827864599,0.05124061073817397,0.0
1676469262.4507356,273,1676469262,447641849,,-6.1662646661923715,0.30032169780630663,0.0
1676469262.4629128,274,1676469262,459202289,,-6.341597734497098,0.35836474808109503,0.0
1676469262.4719338,275,1676469262,466882705,,-6.410095574824196,0.3799877918273033,0.0
1676469262.4853191,276,1676469262,479011297,,-6.649703131537243,0.43142558582801793,0.0
1676469262.4919925,277,1676469262,489867687,,-6.874807395214007,0.6173589844890628,0.0
1676469262.5011535,278,1676469262,498778581,,-7.1184585814031935,0.680650286859985,0.0
1676469262.509785,279,1676469262,507863759,,-7.245126832791177,0.73129470911797,0.0
1676469262.5206432,280,1676469262,519315719,,-7.268769117877909,0.8629962125147139,0.0
1676469262.530922,281,1676469262,528591156,,-7.453703370596139,0.9230062956732955,0.0
1676469262.5420494,282,1676469262,538756608,,-7.640250870373897,0.9647790409932554,0.0
1676469262.5520277,283,1676469262,549357652,,-7.595492996579414,1.0270538748047064,0.0
1676469262.5615137,284,1676469262,559162616,,-7.771575065425718,1.087193887613959,0.0
1676469262.5718915,285,1676469262,569145917,,-7.896700598904624,1.1133674735313968,0.0
1676469262.583374,286,1676469262,578404903,,-7.966716782769082,1.1276352059471604,0.0
1676469262.5907075,287,1676469262,587537050,,-7.524489149081915,0.9978451022150593,0.0
1676469262.6024916,288,1676469262,598702907,,-7.744430263455802,1.062922351283154,0.0
1676469262.6107073,289,1676469262,607894182,,-7.909120244321893,1.1062603750064424,0.0
1676469262.6233852,290,1676469262,620333194,,-7.774818468324808,1.268411573365784,0.0
1676469262.6301188,291,1676469262,628288030,,-7.978510330002656,1.33349344583056,0.0
1676469262.6414273,292,1676469262,638724565,,-8.081992220443718,1.3754110515627869,0.0
1676469262.6538727,293,1676469262,651695251,,-7.40027258270931,1.2144301187481914,0.0
1676469262.6625297,294,1676469262,659236907,,-7.496381036839881,1.245668583963425,0.0
1676469262.6709282,295,1676469262,667698621,,-7.588777909960856,1.290323272385236,0.0
1676469262.6864407,296,1676469262,682317733,,-6.8170503844448005,1.0695834435999858,0.0
1676469262.6931036,297,1676469262,689564943,,-6.864531794150786,1.095915896240432,0.0
1676469262.7011774,298,1676469262,699358463,,-7.007002415633843,1.1381120607305444,0.0
1676469262.709154,299,1676469262,707516193,,-7.084807228111545,1.1562631682320281,0.0
1676469262.7212446,300,1676469262,719302415,,-6.391275058293264,1.01713589214533,0.0
1676469262.7301114,301,1676469262,727893829,,-6.5123183734132235,1.0700147825486348,0.0
1676469262.743911,302,1676469262,737388610,,-6.524323414341854,1.0700147825486348,0.0
1676469262.7529492,303,1676469262,750804424,,-5.894370339791948,1.0045905932178367,0.0
1676469262.7609806,304,1676469262,758342027,,-5.9254755960041035,1.0115955124788052,0.0
1676469262.7719922,305,1676469262,766738414,,-5.982698348695861,1.0220215501154515,0.0
1676469262.7820387,306,1676469262,776703834,,-6.04947019320568,1.0523032894216073,0.0
1676469262.7899125,307,1676469262,787131309,,-5.160968096375367,0.659915169151256,0.0
1676469262.8008587,308,1676469262,798556566,,-5.236883563685301,0.6844787829446628,0.0
1676469262.8096,309,1676469262,807755231,,-5.288772186102018,0.7065926321039387,0.0
1676469262.8224132,310,1676469262,817955017,,-5.034488113687454,0.9076067568708336,0.0
1676469262.8303454,311,1676469262,827280044,,-5.068045748875658,0.9199614464620248,0.0
1676469262.8414571,312,1676469262,839480876,,-5.13216863427063,0.9464866637956768,0.0
1676469262.851429,313,1676469262,848875284,,-4.5216121653937416,0.9414191319230668,0.0
1676469262.8618398,314,1676469262,859208345,,-4.554311385758077,0.9567421595780421,0.0
1676469262.8696723,315,1676469262,867684841,,-4.566080110146052,0.9632907767416679,0.0
1676469262.8858361,316,1676469262,880040168,,-4.593047834110831,0.9739696931085035,0.0
1676469262.8912597,317,1676469262,887416839,,-4.043838409285487,0.3502887892132639,0.0
1676469262.9003723,318,1676469262,897914409,,-4.065986052698059,0.35104650283453986,0.0
1676469262.909511,319,1676469262,907205104,,-4.072476118387726,0.35663585999005354,0.0
1676469262.922694,320,1676469262,920804023,,-3.6546487378820176,0.6699294990935455,0.0
1676469262.9312515,321,1676469262,929373264,,-3.6582248573672467,0.6705016307504322,0.0
1676469262.9427195,322,1676469262,939871072,,-3.665504478743987,0.6632678523717455,0.0
1676469262.9515042,323,1676469262,949512004,,-3.067406597158511,0.4360349010416133,0.0
1676469262.960529,324,1676469262,958658456,,-3.0631948156480657,0.432425612570238,0.0
1676469262.9701896,325,1676469262,967057704,,-3.059479268318865,0.428766231171046,0.0
1676469262.9858532,326,1676469262,981068372,,-3.0557190582884575,0.4199245944395244,0.0
1676469262.9915168,327,1676469262,988884449,,-2.6594026483040873,0.14431754551255482,0.0
1676469263.0004876,328,1676469262,998909235,,-2.637662101156591,0.12812499087889326,0.0
1676469263.0139909,329,1676469263,8393287,,-2.629040366403877,0.11856761599893528,0.0
1676469263.0235763,330,1676469263,19252777,,-2.347202334491264,-0.042918952173609796,0.0
1676469263.0308797,331,1676469263,27976512,,-2.3285885236689974,-0.06151538099060015,0.0
1676469263.0425673,332,1676469263,40000915,,-2.3152558910165046,-0.07719400181878795,0.0
1676469263.0515966,333,1676469263,50285100,,-2.0363038305304673,-0.24681431634766213,0.0
1676469263.0612152,334,1676469263,57452440,,-2.016371244510389,-0.26235979139064625,0.0
1676469263.071597,335,1676469263,67824125,,-1.9862547513571267,-0.28506972389500485,0.0
1676469263.087784,336,1676469263,83172559,,-1.6977495757666767,-0.19613046052350072,0.0
1676469263.0956426,337,1676469263,91388463,,-1.6757002805537629,-0.210884560001036,0.0
1676469263.1034017,338,1676469263,100098371,,-1.651786659980092,-0.22973911596904625,0.0
1676469263.1101809,339,1676469263,107586145,,-1.6274124977493198,-0.2474483570198331,0.0
1676469263.1201584,340,1676469263,117380619,,-1.3208299034116846,-0.3699875084705224,0.0
1676469263.1314306,341,1676469263,128550291,,-1.2583809128002141,-0.42240212096664553,0.0
1676469263.1439579,342,1676469263,140207290,,-1.233321643428451,-0.4429665945494916,0.0
1676469263.1524696,343,1676469263,150454521,,-1.0218488184464776,-0.6563092138721996,0.0
1676469263.1615498,344,1676469263,158544778,,-0.9815016456792458,-0.6907443256459245,0.0
1676469263.1712554,345,1676469263,168477296,,-0.9654234238819922,-0.701253786559757,0.0
1676469263.185279,346,1676469263,182836771,,-1.0791911114627784,-0.7584336615487396,0.0
1676469263.190462,347,1676469263,187151432,,-1.0798500245160711,-0.7584336615487396,0.0
1676469263.2026968,348,1676469263,199998378,,-1.0278960944737283,-0.805065409266613,0.0
1676469263.2113612,349,1676469263,209026813,,-0.986971478639163,-0.8373982748642235,0.0
1676469263.2261412,350,1676469263,221682548,,-0.6423449462408624,-1.1305173410367928,0.0
1676469263.2310598,351,1676469263,228805065,,-0.6018882056666244,-1.1683443184736397,0.0
1676469263.2406883,352,1676469263,238724470,,-0.5734509542234036,-1.1880001972734928,0.0
1676469263.252386,353,1676469263,248385190,,-0.6820207492549911,-1.1249581088519147,0.0
1676469263.2621603,354,1676469263,257937908,,-0.6298448324577771,-1.170155903628054,0.0
1676469263.271183,355,1676469263,267212629,,-0.6166987094180586,-1.1836935165795075,0.0
1676469263.2825835,356,1676469263,280958652,,-0.6066899045985413,-0.937708569204791,0.0
1676469263.290127,357,1676469263,287287712,,-0.5821365748622986,-0.962953535321167,0.0
1676469263.3014078,358,1676469263,299564123,,-0.5331646918891563,-1.002902864298986,0.0
1676469263.3131034,359,1676469263,309952259,,-0.5101480365770155,-1.0225628160450713,0.0
1676469263.3216875,360,1676469263,319419622,,-0.686175588859398,-1.292403292154004,0.0
1676469263.329868,361,1676469263,326542377,,-0.6543946492032112,-1.3264990313338128,0.0
1676469263.3446343,362,1676469263,339934110,,-0.6243681882271073,-1.3607073419734819,0.0
1676469263.350074,363,1676469263,348043203,,-0.785841099968943,-1.2097164032254584,0.0
1676469263.365314,364,1676469263,359539508,,-0.7743047085607144,-1.2219118558753743,0.0
1676469263.371415,365,1676469263,369050264,,-0.7484518648520626,-1.2561155996549163,0.0
1676469263.3828561,366,1676469263,380334377,,-0.7717509060363452,-1.1448442593530215,0.0
1676469263.3909473,367,1676469263,386874914,,-0.755744728876298,-1.1636363966329744,0.0
1676469263.4005299,368,1676469263,397495746,,-0.7310392850082903,-1.1919862112834634,0.0
1676469263.410932,369,1676469263,408738374,,-0.7080686532763392,-1.2198748453940442,0.0
1676469263.4226313,370,1676469263,420193195,,-0.5804649982933247,-1.439086600647096,0.0
1676469263.4295752,371,1676469263,428293704,,-0.5592995473640505,-1.4652342823119167,0.0
1676469263.442296,372,1676469263,439819812,,-0.5401244949323099,-1.4919969847343497,0.0
1676469263.4509943,373,1676469263,448861837,,-0.7961619934023847,-1.349160881965808,0.0
1676469263.4631708,374,1676469263,460548877,,-0.7860252591157539,-1.364049124617578,0.0
1676469263.469444,375,1676469263,467758655,,-0.7739959862286285,-1.3878711051518882,0.0
1676469263.48716,376,1676469263,481901884,,-0.7709253697564523,-1.3970509468319363,0.0
1676469263.4924946,377,1676469263,489782571,,-0.6462273871329391,-1.1177147623392036,0.0
1676469263.502863,378,1676469263,500573635,,-0.6380401657675143,-1.1494844507483724,0.0
1676469263.5104644,379,1676469263,507401466,,-0.631824251965282,-1.1603376451907603,0.0
1676469263.5220087,380,1676469263,519478082,,-0.802581181837646,-1.152509681547165,0.0
1676469263.52995,381,1676469263,528547286,,-0.799036784652164,-1.1720242741410232,0.0
1676469263.5440443,382,1676469263,539792537,,-0.8046785340006473,-1.1852911365600791,0.0
1676469263.5517793,383,1676469263,550079822,,-1.0625175164634582,-1.108340773198203,0.0
1676469263.5610588,384,1676469263,558933019,,-1.0671355650438215,-1.1213300183647814,0.0
1676469263.5722733,385,1676469263,569622278,,-1.073537922756641,-1.129828920904062,0.0
1676469263.5841312,386,1676469263,578792810,,-1.287400360278018,-1.0301413898880776,0.0
1676469263.591237,387,1676469263,588395833,,-1.2884756980353427,-1.0301413898880776,0.0
1676469263.5997233,388,1676469263,597263813,,-1.2995851639232883,-1.0392823413438868,0.0
1676469263.6137133,389,1676469263,607770204,,-1.3071185234276539,-1.0467824755082775,0.0
1676469263.620438,390,1676469263,615821123,,-1.507877514030734,-0.9271114477781548,0.0
1676469263.6310863,391,1676469263,628364324,,-1.5342512063941522,-0.9428966215797827,0.0
1676469263.6405694,392,1676469263,636288166,,-1.5414087320672398,-0.9418651798603117,0.0
1676469263.6512516,393,1676469263,649549007,,-1.8041230343587875,-0.9159285070392749,0.0
1676469263.6618261,394,1676469263,657890319,,-1.8174770456949159,-0.9189646502131984,0.0
1676469263.671074,395,1676469263,668675899,,-1.8466083233111643,-0.9251612330180857,0.0
1676469263.6832452,396,1676469263,681308507,,-1.8637320276964904,-0.9263669294454464,0.0
1676469263.691331,397,1676469263,688963174,,-2.150134479713221,-0.8008250964869841,0.0
1676469263.7011192,398,1676469263,697463750,,-2.1677596751603323,-0.798726533382739,0.0
1676469263.7101321,399,1676469263,707820892,,-2.1921694853206413,-0.7989764888036852,0.0
1676469263.7220035,400,1676469263,716909646,,-1.8925646120252426,-0.7495705746322278,0.0
1676469263.730103,401,1676469263,727849721,,-1.9183936098182117,-0.7475559806357779,0.0
1676469263.7481217,402,1676469263,739388942,,-1.9365402951289108,-0.7444040753599248,0.0
1676469263.7549407,403,1676469263,752230644,,-2.094648082116117,-0.8079292977973386,0.0
1676469263.7632122,404,1676469263,761167287,,-2.108761484604618,-0.8053709587290252,0.0
1676469263.7700143,405,1676469263,767952919,,-2.1417925353924128,-0.8005785878352372,0.0
1676469263.7851307,406,1676469263,777113437,,-2.1532388590890763,-0.7973959684215067,0.0
1676469263.7927358,407,1676469263,789303541,,-2.4976616155577562,-0.3054634571555095,0.0
1676469263.8014112,408,1676469263,799343585,,-2.5682161419109444,-0.29128858484403325,0.0
1676469263.8121712,409,1676469263,808444738,,-2.5840168673063184,-0.28968323355898834,0.0
1676469263.8213892,410,1676469263,818468570,,-2.5593595318519844,-0.2975067438672295,0.0
1676469263.8307624,411,1676469263,828369617,,-2.5846963222604558,-0.2909019423848314,0.0
1676469263.8465192,412,1676469263,840303659,,-2.6117212093814244,-0.2870242148508124,0.0
1676469263.8520823,413,1676469263,849541902,,-2.6511777943633406,-0.41996055262136917,0.0
1676469263.862088,414,1676469263,859136104,,-2.6912843995308617,-0.4163993242576723,0.0
1676469263.8724127,415,1676469263,869618654,,-2.70915921009459,-0.41378467480051906,0.0
1676469263.8878694,416,1676469263,878113508,,-2.7543391549077714,-0.39692615052704994,0.0
1676469263.8932788,417,1676469263,891797542,,-2.9762604286663623,-0.36505511472276225,0.0
1676469263.9011116,418,1676469263,899202823,,-2.992366525189762,-0.3600265671209617,0.0
1676469263.9110427,419,1676469263,907755613,,-3.0313165334885777,-0.35392005250717945,0.0
1676469263.9220119,420,1676469263,919016361,,-2.9657078664723873,-0.3157334467876998,0.0
1676469263.9297125,421,1676469263,928115367,,-3.0050990121677867,-0.3074729265411045,0.0
1676469263.9420557,422,1676469263,939369201,,-3.041653263834216,-0.29398225868367905,0.0
1676469263.9512084,423,1676469263,948693513,,-2.988487438733034,-0.36344891160251674,0.0
1676469263.961349,424,1676469263,958595514,,-3.0261169580601703,-0.3548248185276221,0.0
1676469263.971964,425,1676469263,969256639,,-3.064002328661494,-0.34686397505962857,0.0
1676469263.986971,426,1676469263,981947422,,-3.105359548903739,-0.40840254405604287,0.0
1676469263.991937,427,1676469263,989871263,,-3.1394912723207726,-0.3933506176007862,0.0
1676469264.0011482,428,1676469263,998984336,,-3.189742792426923,-0.37878714428272514,0.0
1676469264.0103087,429,1676469264,8079051,,-3.2042898504144524,-0.3755644094340227,0.0
1676469264.0247302,430,1676469264,20310163,,-3.004130285413097,-0.13939588703439243,0.0
1676469264.0313902,431,1676469264,28789997,,-3.028287927086019,-0.1301249452594041,0.0
1676469264.0410583,432,1676469264,39055824,,-3.050643187251313,-0.1210317072574236,0.0
1676469264.053061,433,1676469264,48688650,,-3.019865652890491,-0.17956025800053388,0.0
1676469264.063052,434,1676469264,60949325,,-3.050580943804989,-0.17133452039664107,0.0
1676469264.0725558,435,1676469264,69640159,,-3.0732701850826762,-0.1653078780824111,0.0
1676469264.083197,436,1676469264,80933094,,-3.227187071740382,-0.20920678296159143,0.0
1676469264.0903113,437,1676469264,88555097,,-3.248824965818455,-0.20381951135746051,0.0
1676469264.1013162,438,1676469264,98756790,,-3.272149738068365,-0.19742675215275576,0.0
1676469264.1126618,439,1676469264,108769893,,-3.2949760145857243,-0.19298715088663054,0.0
1676469264.1222367,440,1676469264,118439674,,-3.254894860514491,-0.26010357143626767,0.0
1676469264.1298456,441,1676469264,128114223,,-3.3039926562878845,-0.2504746005819749,0.0
1676469264.1425748,442,1676469264,136835098,,-3.3164097829969545,-0.24763211977412977,0.0
1676469264.1522768,443,1676469264,148589611,,-3.3086167064883703,-0.25467868713569763,0.0
1676469264.1617112,444,1676469264,160154819,,-3.337346076355275,-0.24867601314071922,0.0
1676469264.1703382,445,1676469264,167086839,,-3.3488132164964766,-0.24767105484250818,0.0
1676469264.1820827,446,1676469264,180320262,,-3.4200505954850002,-0.19376807985163758,0.0
1676469264.1904056,447,1676469264,188186407,,-3.434452289614898,-0.1897287634921817,0.0
1676469264.2026167,448,1676469264,200331449,,-3.4530466264314947,-0.1824730080060536,0.0
1676469264.2104461,449,1676469264,206774234,,-3.463525833532671,-0.18253800222769093,0.0
1676469264.2225773,450,1676469264,218154430,,-3.212097351766268,-0.4759796591945307,0.0
1676469264.2308521,451,1676469264,228881835,,-3.2321517442936782,-0.47130341222409794,0.0
1676469264.246071,452,1676469264,240520715,,-3.2517703139530996,-0.47509940201786965,0.0
1676469264.2521179,453,1676469264,248209714,,-3.3256290056842444,-0.5608701590915438,0.0
1676469264.2617977,454,1676469264,259155988,,-3.3491852975515797,-0.5566064997990287,0.0
1676469264.2720964,455,1676469264,269115209,,-3.3684123512751767,-0.5567778368739158,0.0
1676469264.283658,456,1676469264,279911994,,-3.380186064029096,-0.556973044082433,0.0
1676469264.290238,457,1676469264,288195133,,-2.9077260791882362,-0.4188427940346492,0.0
1676469264.3035192,458,1676469264,300428628,,-2.9206647322898336,-0.4190475473020124,0.0
1676469264.3099735,459,1676469264,307703733,,-2.9285325988485993,-0.41998828132756516,0.0
1676469264.3226972,460,1676469264,320360183,,-2.8260234245967775,-0.5531346285782947,0.0
1676469264.3302374,461,1676469264,328533411,,-2.8359507918111384,-0.5530479958408453,0.0
1676469264.3456523,462,1676469264,340008735,,-2.8447154923376914,-0.5551313155228625,0.0
1676469264.3545256,463,1676469264,350780963,,-2.9606494378143533,-0.6538875627987671,0.0
1676469264.3634038,464,1676469264,361180305,,-2.9725089992321254,-0.6544764848462754,0.0
1676469264.372091,465,1676469264,368133068,,-2.9812316114106086,-0.6556753491884572,0.0
1676469264.384126,466,1676469264,379509687,,-2.9923409647394825,-0.6658724580486257,0.0
1676469264.389967,467,1676469264,387969970,,-3.030205490892222,-0.5919016078670825,0.0
1676469264.4004564,468,1676469264,397386312,,-3.0370121660229503,-0.594837516836032,0.0
1676469264.4126854,469,1676469264,408377647,,-3.0408899385392116,-0.602563520547924,0.0
1676469264.4232569,470,1676469264,419082164,,-2.9749925210221804,-0.6862752480622486,0.0
1676469264.4295564,471,1676469264,427505970,,-2.977368438299518,-0.691617245679284,0.0
1676469264.4476655,472,1676469264,440119504,,-2.9802461719427,-0.6953437244273439,0.0
1676469264.4547749,473,1676469264,451481819,,-2.9968328245601388,-0.7603209177876136,0.0
1676469264.4664361,474,1676469264,460633516,,-2.9981838713251356,-0.7624521079971949,0.0
1676469264.4766436,475,1676469264,469290971,,-3.0017837115031654,-0.7670626821855081,0.0
1676469264.486374,476,1676469264,481922626,,-3.001019700025761,-0.7807662784064345,0.0
1676469264.4917717,477,1676469264,488662481,,-2.653693086872863,-0.8211997553295215,0.0
1676469264.5007036,478,1676469264,499010562,,-2.64716582244047,-0.8319629932977697,0.0
1676469264.5110917,479,1676469264,507556200,,-2.6502743806815734,-0.8319629932977697,0.0
1676469264.525213,480,1676469264,520942449,,-2.543136254324143,-0.9270572009178867,0.0
1676469264.5317688,481,1676469264,528068065,,-2.5419774421205705,-0.9273788564191382,0.0
1676469264.5426965,482,1676469264,539687395,,-2.53670426204781,-0.9373889657221623,0.0
1676469264.551753,483,1676469264,547909259,,-2.6177069554740897,-0.9689671734956236,0.0
1676469264.5630536,484,1676469264,560313224,,-2.6098653414260693,-0.977447875714174,0.0
1676469264.5727408,485,1676469264,569293975,,-2.6080751576129027,-0.9815288789871656,0.0
1676469264.5865264,486,1676469264,581089019,,-2.6051286137853955,-0.9841697604843614,0.0
1676469264.5912967,487,1676469264,589004993,,-2.4304673661226355,-0.8330178389304101,0.0
1676469264.6020045,488,1676469264,597674846,,-2.4291033183213875,-0.8354912137370188,0.0
1676469264.612521,489,1676469264,607472181,,-2.41691082499123,-0.8454374748441074,0.0
1676469264.6216133,490,1676469264,618149042,,-2.5041240365454884,-0.9042054271290882,0.0
1676469264.6309097,491,1676469264,628802299,,-2.499656456983794,-0.9130301217529652,0.0
1676469264.6465032,492,1676469264,640794992,,-2.4902207855078284,-0.921102857772607,0.0
1676469264.6526806,493,1676469264,648793458,,-2.5918600562209546,-0.7638946625073821,0.0
1676469264.660934,494,1676469264,658992528,,-2.576380526641429,-0.775340599731203,0.0
1676469264.672367,495,1676469264,668955087,,-2.5687793904990674,-0.7807741680092353,0.0
1676469264.682862,496,1676469264,680824756,,-2.561154127607852,-0.7886292748866969,0.0
1676469264.692363,497,1676469264,688148498,,-2.3655235191079993,-0.9866816884767595,0.0
1676469264.7007227,498,1676469264,698542833,,-2.3510762749931304,-0.9965652248141389,0.0
1676469264.708891,499,1676469264,707099437,,-2.338323923307709,-1.0039742270632632,0.0
1676469264.721548,500,1676469264,719746112,,-2.3660763140702006,-0.9364383740719823,0.0
1676469264.7305622,501,1676469264,728418827,,-2.357823950687501,-0.9427300386928338,0.0
1676469264.7438111,502,1676469264,738275051,,-2.354611425288167,-0.944447506042469,0.0
1676469264.7536144,503,1676469264,749231576,,-2.147633191048095,-0.8244625748389594,0.0
1676469264.7624934,504,1676469264,760208606,,-2.1334165698617245,-0.8299068882293424,0.0
1676469264.7707064,505,1676469264,767546892,,-2.1272115997472487,-0.8296745649938205,0.0
1676469264.7879658,506,1676469264,780773162,,-2.1177932858734634,-0.834175284450279,0.0
1676469264.7919827,507,1676469264,789919137,,-2.181860705482862,-0.6352536966964544,0.0
1676469264.8006399,508,1676469264,798373699,,-2.1743820933192115,-0.6373932823976722,0.0
1676469264.8098013,509,1676469264,807501077,,-2.1697865134077974,-0.6366088469908047,0.0
1676469264.818877,510,1676469264,815654516,,-2.0595684322891477,-0.5492018345420082,0.0
1676469264.8340707,511,1676469264,830207586,,-2.055830093466679,-0.5510137062729258,0.0
1676469264.842567,512,1676469264,838610410,,-2.0246621000758616,-0.5581018704572868,0.0
1676469264.8526723,513,1676469264,849138259,,-2.0815898688950623,-0.703581068385213,0.0
1676469264.8620832,514,1676469264,858228683,,-2.065378854156305,-0.7068048361788332,0.0
1676469264.8718338,515,1676469264,869094848,,-2.05574687395487,-0.7090816227808842,0.0
1676469264.8824828,516,1676469264,878664731,,-2.0370750766726013,-0.7100403128379875,0.0
1676469264.8916025,517,1676469264,889394521,,-2.0253894538022714,-0.614691735335683,0.0
1676469264.902769,518,1676469264,899055004,,-2.0139124508965605,-0.6141425321636582,0.0
1676469264.9141219,519,1676469264,908800363,,-2.005095058094625,-0.6136374335107979,0.0
1676469264.921198,520,1676469264,919493436,,-2.0783727663400913,-0.6800495741441654,0.0
1676469264.9303076,521,1676469264,928090333,,-2.0601549455026085,-0.6761677839487122,0.0
1676469264.9407165,522,1676469264,937364816,,-2.06188915502899,-0.6761677839487122,0.0
1676469264.9530942,523,1676469264,949541568,,-2.1510395597952674,-0.538410803948765,0.0
1676469264.9622805,524,1676469264,959239482,,-2.141878556437163,-0.5340677210169185,0.0
1676469264.9716916,525,1676469264,968571424,,-2.132369575853547,-0.5336965853162542,0.0
1676469264.984076,526,1676469264,980889081,,-2.003737337320847,-0.4611879242680408,0.0
1676469264.9919639,527,1676469264,988773345,,-1.995585543554288,-0.45938174389449216,0.0
1676469265.0014856,528,1676469264,999200105,,-1.9757820377196929,-0.4542930089458724,0.0
1676469265.0128267,529,1676469265,7431268,,-1.9717364943154794,-0.45253050405088796,0.0
1676469265.0250475,530,1676469265,18226385,,-2.1838511855114824,-0.5074985080853288,0.0
1676469265.030719,531,1676469265,27829170,,-2.167047418007961,-0.5000335616816307,0.0
1676469265.0423937,532,1676469265,38919448,,-2.1612916124816177,-0.4969653888148273,0.0
1676469265.0514438,533,1676469265,49266099,,-2.1008787573376204,-0.44507181280146546,0.0
1676469265.061908,534,1676469265,59715986,,-2.090082386992552,-0.44231996536729473,0.0
1676469265.0712395,535,1676469265,68821668,,-2.0826166536388966,-0.4396141887956132,0.0
1676469265.082921,536,1676469265,80418348,,-2.0717353958964813,-0.43679294099696064,0.0
1676469265.0923197,537,1676469265,89838266,,-2.3192587022731934,-0.3186787464129704,0.0
1676469265.1024187,538,1676469265,98712205,,-2.314677382415892,-0.3173618622435053,0.0
1676469265.1096418,539,1676469265,107636213,,-2.3105545151161904,-0.3139455027862017,0.0
1676469265.1230152,540,1676469265,120626926,,-2.301368127348366,-0.25616119165176376,0.0
1676469265.1295733,541,1676469265,127863883,,-2.2984688459505582,-0.2511177301733346,0.0
1676469265.1436102,542,1676469265,140019416,,-2.2930025486353243,-0.24598021082097252,0.0
1676469265.1529996,543,1676469265,150392770,,-2.236536170900037,-0.3991920065851925,0.0
1676469265.1602814,544,1676469265,157681941,,-2.2390618637492046,-0.39967088813386725,0.0
1676469265.1726253,545,1676469265,168655872,,-2.2372959635275653,-0.3984132446781097,0.0
1676469265.1899595,546,1676469265,184496164,,-2.3676541494200443,-0.5261163847818281,0.0
1676469265.1963792,547,1676469265,192334175,,-2.366355092902006,-0.5241183719339716,0.0
1676469265.2033222,548,1676469265,200473308,,-2.3669411921896524,-0.5228581347508987,0.0
1676469265.2118948,549,1676469265,208565950,,-2.367739136049708,-0.5212755392254566,0.0
1676469265.222005,550,1676469265,219664096,,-2.473948139221982,-0.5509665716459775,0.0
1676469265.229619,551,1676469265,227751731,,-2.4735999771787704,-0.547747424985208,0.0
1676469265.239374,552,1676469265,236979007,,-2.474550133107747,-0.5453107546968021,0.0
1676469265.251934,553,1676469265,248764991,,-2.521431247115842,-0.6302103157899888,0.0
1676469265.2617145,554,1676469265,258218288,,-2.521621530671799,-0.6255777772887567,0.0
1676469265.2704792,555,1676469265,268634796,,-2.519096168620054,-0.6146522173312864,0.0
1676469265.2849753,556,1676469265,278991222,,-2.5217580277856926,-0.6147138593194583,0.0
1676469265.292332,557,1676469265,290175676,,-2.6289366158079948,-0.620628854091257,0.0
1676469265.3009846,558,1676469265,298890590,,-2.6334204699299932,-0.6190848611358157,0.0
1676469265.3096511,559,1676469265,307546615,,-2.6384539853626934,-0.6185478400739894,0.0
1676469265.322634,560,1676469265,319635868,,-2.6241544301244812,-0.646763269868462,0.0
1676469265.3308697,561,1676469265,327672243,,-2.631237261407052,-0.6458107539607023,0.0
1676469265.3418472,562,1676469265,339701175,,-2.638161558941375,-0.6448171121934685,0.0
1676469265.35318,563,1676469265,350090265,,-2.7342493386956037,-0.6760027299722977,0.0
1676469265.362476,564,1676469265,360149860,,-2.742794759160847,-0.6747432707124609,0.0
1676469265.371287,565,1676469265,367695093,,-2.750391091545459,-0.6715456603829857,0.0
1676469265.3847272,566,1676469265,382448673,,-2.765773371124383,-0.6669062300015143,0.0
1676469265.3927524,567,1676469265,388312339,,-3.224770571130165,-0.5356719237853282,0.0
1676469265.4007056,568,1676469265,397167444,,-3.238993975278728,-0.5337723869370758,0.0
1676469265.4096026,569,1676469265,406753301,,-3.25474802874006,-0.5302669212607494,0.0
1676469265.4236035,570,1676469265,418974637,,-3.243701882598108,-0.5897802696872262,0.0
1676469265.4326296,571,1676469265,429859399,,-3.2688019076233736,-0.5851298479725445,0.0
1676469265.4407334,572,1676469265,438389062,,-3.281425529348576,-0.5865926690848877,0.0
1676469265.4527733,573,1676469265,449666976,,-3.238105122447471,-0.6695586053450326,0.0
1676469265.462773,574,1676469265,460462093,,-3.2551233761082914,-0.6740973335486774,0.0
1676469265.4720702,575,1676469265,467442750,,-3.266193240866842,-0.6756664664572191,0.0
1676469265.4837282,576,1676469265,481786727,,-3.2790887826039015,-0.6757986629780053,0.0
1676469265.490587,577,1676469265,488597154,,-3.7811624721506742,-0.653797859436418,0.0
1676469265.5021298,578,1676469265,498031616,,-3.7945230138070754,-0.6526433607966363,0.0
1676469265.5122683,579,1676469265,507760047,,-3.815870246559397,-0.6485903960675277,0.0
1676469265.5205142,580,1676469265,517595291,,-3.922832311004435,-0.5504093609167419,0.0
1676469265.532821,581,1676469265,528634071,,-3.9363919354714083,-0.5509117770470476,0.0
1676469265.543178,582,1676469265,538682937,,-3.951085152120893,-0.5500084009589088,0.0
1676469265.5514228,583,1676469265,549158573,,-3.80648813544633,-0.5676387337634305,0.0
1676469265.5616252,584,1676469265,559685230,,-3.819554273892034,-0.5665631881315205,0.0
1676469265.5710347,585,1676469265,568513631,,-3.8335271800178705,-0.5684260029250475,0.0
1676469265.585773,586,1676469265,579624176,,-3.855843347473509,-0.5674583698130272,0.0
1676469265.5920117,587,1676469265,588910102,,-3.7443606540570604,-0.8070534253869164,0.0
1676469265.6005902,588,1676469265,598567247,,-3.768612516497278,-0.805039325793912,0.0
1676469265.6095023,589,1676469265,607531547,,-3.778752129283691,-0.8029014545839848,0.0
1676469265.6250937,590,1676469265,620951890,,-3.77447484965028,-0.6549306159195242,0.0
1676469265.6313477,591,1676469265,629170417,,-3.7939923620897864,-0.6526816487207031,0.0
1676469265.6423635,592,1676469265,638328552,,-3.7992454152540462,-0.6437271636113161,0.0
1676469265.6516888,593,1676469265,649762153,,-3.646505648386164,-0.6084872089398042,0.0
1676469265.6606386,594,1676469265,657828092,,-3.6509697985141756,-0.6084872089398042,0.0
1676469265.670552,595,1676469265,668534040,,-3.673932242185861,-0.6032086946238066,0.0
1676469265.680659,596,1676469265,676525592,,-3.6839999428226116,-0.6035466489450252,0.0
1676469265.691803,597,1676469265,687798976,,-3.8288774915092882,-0.5511122794303283,0.0
1676469265.7015612,598,1676469265,698403120,,-3.8539395009818898,-0.5469095030419121,0.0
1676469265.710412,599,1676469265,707611322,,-3.8656771682610964,-0.5430903812268907,0.0
1676469265.7248657,600,1676469265,718942642,,-3.719593873120328,-0.45549468084373257,0.0
1676469265.7310243,601,1676469265,727308750,,-3.7301543581832513,-0.45176229986517896,0.0
1676469265.7414305,602,1676469265,738752841,,-3.7438951033256096,-0.44711007406588726,0.0
1676469265.7541423,603,1676469265,750495433,,-3.4857315541283023,-0.49694509051008057,0.0
1676469265.7619839,604,1676469265,757265567,,-3.4929544398620225,-0.49576370745539683,0.0
1676469265.7701232,605,1676469265,768542766,,-3.503479395527369,-0.49374626594619286,0.0
1676469265.7862544,606,1676469265,780834913,,-3.5129034262777457,-0.48996085902970815,0.0
1676469265.791793,607,1676469265,789475679,,-3.570132511280728,-0.3216099831420882,0.0
1676469265.8010943,608,1676469265,798198699,,-3.5764761151270754,-0.3193780336024299,0.0
1676469265.810206,609,1676469265,807363033,,-3.5809425280592566,-0.3143286201373501,0.0
1676469265.823381,610,1676469265,820837736,,-3.37555947129919,-0.2968760020921882,0.0
1676469265.8302393,611,1676469265,828210115,,-3.3778808283498,-0.29260808322208887,0.0
1676469265.842238,612,1676469265,839875221,,-3.3785278952299675,-0.2888127970613918,0.0
1676469265.8514977,613,1676469265,848432540,,-3.3601526172626976,-0.42286215846248626,0.0
1676469265.8650446,614,1676469265,858943700,,-3.361436086741406,-0.4170529029053318,0.0
1676469265.872124,615,1676469265,868511438,,-3.3607114610962525,-0.41532334499110124,0.0
1676469265.8870168,616,1676469265,881572723,,-3.3576424083373584,-0.4099498329607982,0.0
1676469265.8935294,617,1676469265,890049934,,-3.089029087127687,-0.36656816729358466,0.0
1676469265.9013214,618,1676469265,899266958,,-3.084669466574109,-0.35708631606332736,0.0
1676469265.9091637,619,1676469265,907387495,,-3.078703903517759,-0.3464721397052014,0.0
1676469265.921584,620,1676469265,917987585,,-3.0845216532529616,-0.3827807529247249,0.0
1676469265.9299057,621,1676469265,928318738,,-3.073377706664813,-0.37105636057232677,0.0
1676469265.9469168,622,1676469265,939666271,,-3.073248756654918,-0.36887218416837353,0.0
1676469265.953365,623,1676469265,951022148,,-2.861420499045219,-0.3143944635464482,0.0
1676469265.962189,624,1676469265,958856344,,-2.8488802485756852,-0.30971607581171795,0.0
1676469265.9704897,625,1676469265,968656063,,-2.840345214178908,-0.30394352745141145,0.0
1676469265.9886384,626,1676469265,982091188,,-2.8327335257946133,-0.30187117828053106,0.0
1676469265.9914672,627,1676469265,989820003,,-2.6817615659798046,-0.38035370462848606,0.0
1676469266.0019562,628,1676469265,999968290,,-2.678626745634404,-0.380173309339397,0.0
1676469266.0109293,629,1676469266,8035659,,-2.6683294007320013,-0.3759913273872426,0.0
1676469266.0233536,630,1676469266,17949342,,-2.417127179118935,-0.254578396626893,0.0
1676469266.0302806,631,1676469266,28341531,,-2.386546422015628,-0.2454686398913085,0.0
1676469266.042603,632,1676469266,38410902,,-2.381532640702169,-0.2431594508628599,0.0
1676469266.051342,633,1676469266,49458503,,-2.398932083912911,-0.37263577140805937,0.0
1676469266.0628583,634,1676469266,60397863,,-2.377519272023247,-0.37077900500634564,0.0
1676469266.0709612,635,1676469266,68362474,,-2.363644454415011,-0.36836164221053685,0.0
1676469266.084539,636,1676469266,81367492,,-2.3418415498619916,-0.36955382207424564,0.0
1676469266.0919855,637,1676469266,89843988,,-2.139697183599653,-0.628353809630942,0.0
1676469266.1009808,638,1676469266,97389459,,-2.1331597375319746,-0.6272154688662663,0.0
1676469266.1095107,639,1676469266,107611417,,-2.1175891081801628,-0.6257054060078019,0.0
1676469266.1223938,640,1676469266,120075941,,-2.115555811404228,-0.5382084554872592,0.0
1676469266.1303453,641,1676469266,127812862,,-2.0999795080774217,-0.5385030385471377,0.0
1676469266.1414135,642,1676469266,139063596,,-2.0925931284673074,-0.5384817182757663,0.0
1676469266.151679,643,1676469266,147678613,,-1.88403818648022,-0.4980613236537478,0.0
1676469266.1602736,644,1676469266,158270120,,-1.8386543861656663,-0.4998675371198422,0.0
1676469266.1715076,645,1676469266,167851209,,-1.8301655601841345,-0.49877131076048187,0.0
1676469266.1856515,646,1676469266,182336091,,-2.1031066382161936,-0.40262972393423563,0.0
1676469266.1918862,647,1676469266,190479040,,-2.096980981836793,-0.40351669278087815,0.0
1676469266.2008526,648,1676469266,198561906,,-2.080801284323256,-0.40130271551671803,0.0
1676469266.2129638,649,1676469266,208079814,,-2.049019610876062,-0.4031466652531486,0.0
1676469266.2197566,650,1676469266,216531753,,-1.9508522990620576,-0.39913777079139234,0.0
1676469266.2294326,651,1676469266,227529048,,-1.9161472999972988,-0.4018706788337107,0.0
1676469266.240712,652,1676469266,238924264,,-1.9016903104375942,-0.40267267092992126,0.0
1676469266.2525258,653,1676469266,248753309,,-1.9135206235012228,-0.5461579443569465,0.0
1676469266.2612648,654,1676469266,258773326,,-1.892484360845481,-0.5475550833687834,0.0
1676469266.2718275,655,1676469266,269431114,,-1.8612514306065864,-0.5494685860261693,0.0
1676469266.2833881,656,1676469266,281442642,,-2.1117587352567098,-0.5538575096216539,0.0
1676469266.2917864,657,1676469266,288734436,,-2.103497167468711,-0.5541790527861072,0.0
1676469266.3005524,658,1676469266,296361207,,-2.0906667370205434,-0.5558176344399952,0.0
1676469266.3118052,659,1676469266,307559967,,-2.0685346983968245,-0.5551897723412722,0.0
1676469266.3219135,660,1676469266,319687604,,-1.739522793545397,-0.6534148985493337,0.0
1676469266.329683,661,1676469266,327672719,,-1.7193112611765424,-0.6516638747979121,0.0
1676469266.34029,662,1676469266,338540077,,-1.7053391944733263,-0.6487457326994648,0.0
1676469266.3514256,663,1676469266,349541902,,-1.8564791034770947,-0.5576825163899749,0.0
1676469266.3611798,664,1676469266,358366250,,-1.844001661521373,-0.5564028777662824,0.0
1676469266.3709602,665,1676469266,366306066,,-1.8392059646706829,-0.5553540423977811,0.0
1676469266.389057,666,1676469266,379438400,,-1.8178928625457897,-0.5576330892347031,0.0
1676469266.3922722,667,1676469266,390444517,,-2.0888941019158627,-0.5474155997720223,0.0
1676469266.4004488,668,1676469266,398614883,,-2.0846757529796602,-0.5473434332659207,0.0
1676469266.412507,669,1676469266,408345937,,-2.0696384989171253,-0.5465168011394271,0.0
1676469266.4227388,670,1676469266,420183181,,-2.2152988682753105,-0.4720527805164496,0.0
1676469266.429818,671,1676469266,428048133,,-2.2027290475060726,-0.4694638441902026,0.0
1676469266.4424143,672,1676469266,440159559,,-2.191540835057948,-0.46926592869100087,0.0
1676469266.4522579,673,1676469266,450217962,,-2.069725252164666,-0.44453676486459415,0.0
1676469266.4606998,674,1676469266,458814859,,-2.0566243390369823,-0.4419369356408935,0.0
1676469266.4713254,675,1676469266,467456102,,-2.0539103373039094,-0.4412924709125295,0.0
1676469266.4835465,676,1676469266,481181621,,-2.037758698510316,-0.4367661007340111,0.0
