Time,header.seq,header.stamp.secs,header.stamp.nsecs,header.frame_id,type_mask,orientation.x,orientation.y,orientation.z,orientation.w,body_rate.x,body_rate.y,body_rate.z,thrust
1676469259.694182,339,1676469259,692944526,base_footprint,7,0.038905929674153475,0.0007618214531816016,-2.9661838147866316e-05,0.9992425868548832,0.0,0.0,0.0,0.42668190598487854
1676469259.7034183,340,1676469259,701627254,base_footprint,7,0.03890827274257144,0.0007589438063098564,-2.955157799703845e-05,0.9992424978168176,0.0,0.0,0.0,0.4266807436943054
1676469259.7119257,341,1676469259,710104942,base_footprint,7,0.038905530954643684,0.0007574150811597945,-2.9489971420837953e-05,0.9992426057338997,0.0,0.0,0.0,0.4266815781593323
1676469259.7236476,342,1676469259,720878839,base_footprint,7,0.03890771700845522,0.0007552356799810424,-2.9406771085614094e-05,0.9992425222694936,0.0,0.0,0.0,0.4266786277294159
1676469259.7313795,343,1676469259,730106592,base_footprint,7,0.038910735555956026,0.0007159918321683438,-2.7880890465732215e-05,0.9992424336650474,0.0,0.0,0.0,0.4266844391822815
1676469259.7394536,344,1676469259,738491058,base_footprint,7,0.038910780754453776,0.0007148300950098685,-2.7835684506911697e-05,0.9992424327380163,0.0,0.0,0.0,0.4266835153102875
1676469259.7477,345,1676469259,746608734,base_footprint,7,0.03891338466229895,0.0007076127011058853,-2.755648377248635e-05,0.9992423364825118,0.0,0.0,0.0,0.4266784191131592
1676469259.7579246,346,1676469259,756816625,base_footprint,7,0.03893544664393556,0.0007049778148350489,-2.7469462260132544e-05,0.9992414789460785,0.0,0.0,0.0,0.4266970753669739
1676469259.7694674,347,1676469259,768247604,base_footprint,7,0.038929758797724305,0.0007260272441932075,-2.8285514814125152e-05,0.9992416854616912,0.0,0.0,0.0,0.4266977906227112
1676469259.779309,348,1676469259,778826713,base_footprint,7,0.038933978784231014,0.0007147995942859826,-2.7851116498858013e-05,0.9992415291519284,0.0,0.0,0.0,0.4266970157623291
1676469259.7895818,349,1676469259,788902759,base_footprint,7,0.03893615670729918,0.0007642170628480108,-2.977826488101876e-05,0.9992414076620326,0.0,0.0,0.0,0.4266979694366455
1676469259.7993615,350,1676469259,798396825,base_footprint,7,0.03893728438034271,0.0007642253188948919,-2.9779450344062993e-05,0.9992413637144584,0.0,0.0,0.0,0.4267016053199768
1676469259.8133419,351,1676469259,811640739,base_footprint,7,0.03893583427799105,0.0007623886585748173,-2.970677338158264e-05,0.9992414216244829,0.0,0.0,0.0,0.4267030358314514
1676469259.8273613,352,1676469259,822828054,base_footprint,7,0.03890833101815501,0.0007755441595254307,-3.019800438627833e-05,0.9992424827821917,0.0,0.0,0.0,0.4267285168170929
1676469259.8332586,353,1676469259,832533359,base_footprint,7,0.03890343973500886,0.000775521881411999,-3.019333499715155e-05,0.9992426732435713,0.0,0.0,0.0,0.42673149704933167
1676469259.8405585,354,1676469259,839937686,base_footprint,7,0.038905158991749386,0.0007734189892067405,-3.011279593491131e-05,0.9992426079386895,0.0,0.0,0.0,0.4267330467700958
1676469259.8494296,355,1676469259,848338603,base_footprint,7,0.03890413905274637,0.0007790815293116436,-3.033246864983642e-05,0.99924264324361,0.0,0.0,0.0,0.42672932147979736
1676469259.8575194,356,1676469259,856940746,base_footprint,7,0.038914303734190595,0.0006741002086975993,-2.625203080496803e-05,0.9992423238957718,0.0,0.0,0.0,0.42671117186546326
1676469259.868175,357,1676469259,866959095,base_footprint,7,0.03891381942617284,0.0006801301101978326,-2.6486528112811295e-05,0.9992423386642323,0.0,0.0,0.0,0.42671021819114685
1676469259.8807132,358,1676469259,879447698,base_footprint,7,0.03891782204732433,0.0006751955213170696,-2.6297067428143573e-05,0.9992421861323535,0.0,0.0,0.0,0.4267086088657379
1676469259.889777,359,1676469259,888791084,base_footprint,7,0.03893532077811654,0.0005984404314545305,-2.331815574028297e-05,0.9992415534400172,0.0,0.0,0.0,0.4267022907733917
1676469259.900335,360,1676469259,899069547,base_footprint,7,0.03893476590817892,0.000599898028440478,-2.337461721922356e-05,0.9992415741849706,0.0,0.0,0.0,0.4266996681690216
1676469259.9108655,361,1676469259,908624172,base_footprint,7,0.03893675721713185,0.000592738770404291,-2.3096844532853485e-05,0.9992415008718862,0.0,0.0,0.0,0.4266982972621918
1676469259.9210029,362,1676469259,920455932,base_footprint,7,0.038938842359480426,0.0005491506896330111,-2.1399524861163855e-05,0.9992414445624661,0.0,0.0,0.0,0.42672011256217957
1676469259.9304972,363,1676469259,929571628,base_footprint,7,0.038940884988858684,0.0005592783507060746,-2.1795328754267692e-05,0.9992413593366593,0.0,0.0,0.0,0.4267173707485199
1676469259.9394443,364,1676469259,938812971,base_footprint,7,0.03894182729207578,0.000543462459371812,-2.117948944715484e-05,0.9992413313545125,0.0,0.0,0.0,0.4267175495624542
1676469259.952571,365,1676469259,951874971,base_footprint,7,0.03891136399641511,0.0005307214384405157,-2.0666749619152777e-05,0.9992425249455603,0.0,0.0,0.0,0.42673107981681824
1676469259.9603639,366,1676469259,959207057,base_footprint,7,0.03891469784167782,0.0005223334708823908,-2.0341860194548506e-05,0.9992423995436968,0.0,0.0,0.0,0.4267320930957794
1676469259.9698777,367,1676469259,969236850,base_footprint,7,0.0389158917738381,0.000520158130860469,-2.025776573732661e-05,0.9992423541827021,0.0,0.0,0.0,0.42673131823539734
1676469259.9792297,368,1676469259,978372097,base_footprint,7,0.03892026218574482,0.0005053365611191905,-1.9682747202307594e-05,0.9992421915826725,0.0,0.0,0.0,0.42672857642173767
1676469259.990063,369,1676469259,989257574,base_footprint,7,0.03889729873811021,0.0005089392084287332,-1.981135596391031e-05,0.9992430839086505,0.0,0.0,0.0,0.42664241790771484
1676469259.9989176,370,1676469259,998008489,base_footprint,7,0.03889947262051935,0.0005201930730014817,-2.02505660111085e-05,0.9992429934800278,0.0,0.0,0.0,0.42663925886154175
1676469260.010446,371,1676469260,9019136,base_footprint,7,0.038898053075393506,0.0005226934285360071,-2.034715855924206e-05,0.9992430474336645,0.0,0.0,0.0,0.42664071917533875
1676469260.0259018,372,1676469260,19882678,base_footprint,7,0.038808341699847634,0.00047134999560407176,-1.830610421846641e-05,0.9992465612192899,0.0,0.0,0.0,0.42656928300857544
1676469260.0314198,373,1676469260,30466079,base_footprint,7,0.038812494565402825,0.000456338143579673,-1.772497913961053e-05,0.9992464069021887,0.0,0.0,0.0,0.42656946182250977
1676469260.0400817,374,1676469260,39432764,base_footprint,7,0.03881335983041332,0.00045341446162153187,-1.7611811359146533e-05,0.9992463746263105,0.0,0.0,0.0,0.42656847834587097
1676469260.0517166,375,1676469260,50657987,base_footprint,7,0.038768278736081116,0.0004968623875124716,-1.9276993827375186e-05,0.9992481039861957,0.0,0.0,0.0,0.42664462327957153
1676469260.0582025,376,1676469260,57771921,base_footprint,7,0.03876771371374369,0.000503565561770994,-1.9536774795313842e-05,0.9992481225468721,0.0,0.0,0.0,0.42664650082588196
1676469260.0699754,377,1676469260,68473815,base_footprint,7,0.0387679062226201,0.0005141125651250185,-1.9946064965422868e-05,0.9992481096992573,0.0,0.0,0.0,0.42664653062820435
1676469260.080049,378,1676469260,77678918,base_footprint,7,0.03876668204585452,0.0004983540609856013,-1.9334069454953434e-05,0.9992481651884977,0.0,0.0,0.0,0.4266449511051178
1676469260.090623,379,1676469260,89987516,base_footprint,7,0.03878747791783198,0.0004435802433061618,-1.7218317672829072e-05,0.9992473840330386,0.0,0.0,0.0,0.426678866147995
1676469260.0986145,380,1676469260,97418308,base_footprint,7,0.038790661519833215,0.000444922017076206,-1.7271820559861308e-05,0.9992472598536043,0.0,0.0,0.0,0.42667797207832336
1676469260.1085775,381,1676469260,107854604,base_footprint,7,0.03878820156500211,0.0004596650070651252,-1.7843008510640524e-05,0.9992473486625126,0.0,0.0,0.0,0.4266773462295532
1676469260.120932,382,1676469260,119919061,base_footprint,7,0.038790052259284245,0.00045690489216987146,-1.7736715459140335e-05,0.999247278089388,0.0,0.0,0.0,0.4266815483570099
1676469260.1290538,383,1676469260,128326177,base_footprint,7,0.03878352929054607,0.0004914016391518452,-1.9072641744364202e-05,0.999247514891297,0.0,0.0,0.0,0.42663952708244324
1676469260.1380942,384,1676469260,137020826,base_footprint,7,0.03878352929054607,0.0004914016391518452,-1.9072641744364202e-05,0.999247514891297,0.0,0.0,0.0,0.42663952708244324
1676469260.1493053,385,1676469260,148391962,base_footprint,7,0.038780913528457736,0.0004954195161251865,-1.922728774909406e-05,0.9992476144258303,0.0,0.0,0.0,0.4266411066055298
1676469260.1586616,386,1676469260,157349109,base_footprint,7,0.038782105492723457,0.0004645108179579478,-1.8028272322529077e-05,0.9992475830334705,0.0,0.0,0.0,0.4266144037246704
1676469260.1692278,387,1676469260,168718338,base_footprint,7,0.038785811700318994,0.00046544003694759913,-1.8066065451624375e-05,0.9992474387507514,0.0,0.0,0.0,0.4266102910041809
1676469260.1798565,388,1676469260,179259061,base_footprint,7,0.03878767602753222,0.0004585956465613424,-1.7801257134546153e-05,0.999247369554472,0.0,0.0,0.0,0.42661234736442566
1676469260.1916602,389,1676469260,190206766,base_footprint,7,0.038758137217805994,0.0005274300284533524,-2.0457579660883757e-05,0.9992484817093585,0.0,0.0,0.0,0.42665305733680725
1676469260.1983,390,1676469260,197383880,base_footprint,7,0.038762427963085946,0.0005217694261968887,-2.0240264033387167e-05,0.9992483182499754,0.0,0.0,0.0,0.42665359377861023
1676469260.2097754,391,1676469260,208799600,base_footprint,7,0.03875714151512987,0.0005464194950695287,-2.1193584461479646e-05,0.9992485101105449,0.0,0.0,0.0,0.4266561269760132
1676469260.2230318,392,1676469260,221803665,base_footprint,7,0.038766683854903776,0.00046903221329921274,-1.8196504038537433e-05,0.9992481793331245,0.0,0.0,0.0,0.4266517758369446
1676469260.2355433,393,1676469260,231976032,base_footprint,7,0.03876903634559878,0.0004580206242718798,-1.777037989928583e-05,0.9992480931791438,0.0,0.0,0.0,0.4266520142555237
1676469260.240411,394,1676469260,239278316,base_footprint,7,0.03876295558461119,0.00047029402063463995,-1.8243699596133362e-05,0.9992483233736482,0.0,0.0,0.0,0.4266527593135834
1676469260.251804,395,1676469260,248357772,base_footprint,7,0.03876497098592502,0.0004752357185416505,-1.8436358505098364e-05,0.999248242848379,0.0,0.0,0.0,0.42665478587150574
1676469260.2602224,396,1676469260,259350299,base_footprint,7,0.038786227919130514,0.00044069189025901836,-1.710564923057403e-05,0.9992474338330122,0.0,0.0,0.0,0.42662477493286133
1676469260.2717707,397,1676469260,270065546,base_footprint,7,0.03878134043330447,0.0004497274948319235,-1.7454167254394693e-05,0.9992476194991552,0.0,0.0,0.0,0.4266265034675598
1676469260.278825,398,1676469260,278080224,base_footprint,7,0.038784508993890215,0.0004613693497122602,-1.79074592139727e-05,0.9992474912051312,0.0,0.0,0.0,0.4266258478164673
1676469260.2892795,399,1676469260,288757562,base_footprint,7,0.038831038915440826,0.0004248526876274266,-1.6509924677190707e-05,0.999245700338192,0.0,0.0,0.0,0.42661914229393005
1676469260.2996528,400,1676469260,297951936,base_footprint,7,0.03883205363779814,0.0004261036145128196,-1.655896950091894e-05,0.9992456603717533,0.0,0.0,0.0,0.4266240894794464
1676469260.3094084,401,1676469260,308065891,base_footprint,7,0.03883113340575147,0.00042651826225616044,-1.657468989728175e-05,0.9992456959556426,0.0,0.0,0.0,0.42662519216537476
1676469260.3250866,402,1676469260,321444511,base_footprint,7,0.03887521658159216,0.0003185203662679612,-1.2391916237738224e-05,0.9992440222122677,0.0,0.0,0.0,0.4266083538532257
1676469260.3306835,403,1676469260,329999923,base_footprint,7,0.03887403874273197,0.0003146328789748684,-1.2240303548622336e-05,0.9992440692684421,0.0,0.0,0.0,0.4266056418418884
1676469260.3424957,404,1676469260,339497566,base_footprint,7,0.03886996457072595,0.0003270706186972022,-1.2722838980295597e-05,0.9992442237597424,0.0,0.0,0.0,0.42661017179489136
1676469260.350115,405,1676469260,348452806,base_footprint,7,0.03887131588234531,0.00032744593005797724,-1.273788184126744e-05,0.9992441710705569,0.0,0.0,0.0,0.42660611867904663
1676469260.3583622,406,1676469260,357196331,base_footprint,7,0.03896918840246716,0.0003326677415444256,-1.2973647232976223e-05,0.9992403572309874,0.0,0.0,0.0,0.4266003966331482
1676469260.3699732,407,1676469260,369232654,base_footprint,7,0.038971517005320845,0.0003283897477894281,-1.2807576968556407e-05,0.9992402678327388,0.0,0.0,0.0,0.4266018569469452
1676469260.3814564,408,1676469260,379845380,base_footprint,7,0.03897947880192356,0.00032166340178205383,-1.25478085941752e-05,0.9992399594729681,0.0,0.0,0.0,0.4265991747379303
1676469260.390244,409,1676469260,389508008,base_footprint,7,0.03905509496766882,0.00024189450910026112,-9.454426474363412e-06,0.9992370294153068,0.0,0.0,0.0,0.426554799079895
1676469260.3997567,410,1676469260,398662328,base_footprint,7,0.039054073962994665,0.0002368161916098647,-9.255698507840351e-06,0.999237070538977,0.0,0.0,0.0,0.42655444145202637
1676469260.4082546,411,1676469260,407630920,base_footprint,7,0.03905053740208509,0.00023844172260481492,-9.318385393197454e-06,0.9992372083681237,0.0,0.0,0.0,0.42655524611473083
1676469260.421491,412,1676469260,420878648,base_footprint,7,0.039056184424770164,0.00022705006610145736,-8.874480569877167e-06,0.9992369903219602,0.0,0.0,0.0,0.42655280232429504
1676469260.4286842,413,1676469260,426229000,base_footprint,7,0.039162342084264064,0.0001432821532362654,-5.615572680902293e-06,0.9992328509417437,0.0,0.0,0.0,0.4264916181564331
1676469260.4395792,414,1676469260,438545227,base_footprint,7,0.039164668001878476,0.0001446371951426211,-5.669017227612909e-06,0.9992327595851963,0.0,0.0,0.0,0.4264913499355316
1676469260.4489427,415,1676469260,448051452,base_footprint,7,0.039162292274775995,0.00014971464829822493,-5.867670186215451e-06,0.999232851949374,0.0,0.0,0.0,0.42648887634277344
1676469260.4604194,416,1676469260,459324598,base_footprint,7,0.039236160189767166,0.000185938178058025,-7.3011223831068835e-06,0.999229948063633,0.0,0.0,0.0,0.4264487326145172
1676469260.468086,417,1676469260,466709136,base_footprint,7,0.03923330857424572,0.00021324319256417896,-8.372682483844721e-06,0.9992300545697957,0.0,0.0,0.0,0.42645183205604553
1676469260.4795709,418,1676469260,478251457,base_footprint,7,0.03923291262528381,0.0002109776935434768,-8.283647240243482e-06,0.9992300705977232,0.0,0.0,0.0,0.42645108699798584
1676469260.4905746,419,1676469260,488456964,base_footprint,7,0.03920205824234662,0.00021335167345967688,-8.370259105810239e-06,0.9992312810558754,0.0,0.0,0.0,0.42646506428718567
1676469260.49895,420,1676469260,497390985,base_footprint,7,0.03920357382853184,0.00020265359171527705,-7.950857474221749e-06,0.9992312238252848,0.0,0.0,0.0,0.4264673888683319
1676469260.5090861,421,1676469260,507656335,base_footprint,7,0.03920389182285792,0.00021571277716247512,-8.463286882763559e-06,0.9992312086110562,0.0,0.0,0.0,0.4264650046825409
1676469260.5208569,422,1676469260,518912792,base_footprint,7,0.03920453734118112,0.0002013125120315937,-7.898436321288429e-06,0.9992311862941183,0.0,0.0,0.0,0.4264625906944275
1676469260.5313747,423,1676469260,529972553,base_footprint,7,0.03934109663989019,0.0001908955186509716,-7.515857665546898e-06,0.9992258211323323,0.0,0.0,0.0,0.42645424604415894
1676469260.538057,424,1676469260,537380695,base_footprint,7,0.03934503953421518,0.00019285421512431613,-7.59373681072779e-06,0.9992256655098677,0.0,0.0,0.0,0.4264589548110962
1676469260.5502207,425,1676469260,548410892,base_footprint,7,0.03933976499563245,0.00018428284499039576,-7.25526029444815e-06,0.9992258748037316,0.0,0.0,0.0,0.4264582097530365
1676469260.5587418,426,1676469260,556812286,base_footprint,7,0.039381655893211666,0.000146010707501162,-5.754607685758063e-06,0.9992242310046661,0.0,0.0,0.0,0.42645761370658875
1676469260.5692027,427,1676469260,567414760,base_footprint,7,0.0393792512293243,0.00016092757692982742,-6.3421269205831916e-06,0.9992243234803234,0.0,0.0,0.0,0.4264586269855499
1676469260.5801227,428,1676469260,578436374,base_footprint,7,0.03937984861161615,0.00014724500614364658,-5.802987416192278e-06,0.9992243020506255,0.0,0.0,0.0,0.4264567494392395
1676469260.5896184,429,1676469260,589042901,base_footprint,7,0.039373184751832296,0.0001330714152860776,-5.243511412893115e-06,0.9992245666450571,0.0,0.0,0.0,0.4264855682849884
1676469260.59831,430,1676469260,597534418,base_footprint,7,0.039373184751832296,0.0001330714152860776,-5.243511412893115e-06,0.9992245666450571,0.0,0.0,0.0,0.4264855682849884
1676469260.6086063,431,1676469260,607804059,base_footprint,7,0.03936729422356954,0.00014494712455315117,-5.710602975235165e-06,0.9992247970818354,0.0,0.0,0.0,0.4264872074127197
1676469260.6224086,432,1676469260,620164871,base_footprint,7,0.03937241383717445,0.00012223591112257425,-4.816457567347134e-06,0.9992245984080946,0.0,0.0,0.0,0.42648428678512573
1676469260.6303918,433,1676469260,628792047,base_footprint,7,0.03940007043368551,3.2925738604967315e-05,-1.298284518288368e-06,0.9992235152177068,0.0,0.0,0.0,0.4264584183692932
1676469260.6387796,434,1676469260,637567043,base_footprint,7,0.03939999785700774,2.7925278882858953e-05,-1.1011109206955082e-06,0.999223518231949,0.0,0.0,0.0,0.4264551103115082
1676469260.650326,435,1676469260,649556159,base_footprint,7,0.03940409172908522,2.015269228856324e-05,-7.947157459580438e-07,0.9992233569869368,0.0,0.0,0.0,0.42645689845085144
1676469260.65917,436,1676469260,657922983,base_footprint,7,0.03944400946622411,3.680603722069025e-05,-1.4529083606129718e-06,0.9992217815682528,0.0,0.0,0.0,0.42648211121559143
1676469260.6703346,437,1676469260,669449567,base_footprint,7,0.039445275881450276,1.3669429331485804e-05,-5.396143756362868e-07,0.9992217321613315,0.0,0.0,0.0,0.4264819920063019
1676469260.6820157,438,1676469260,679275751,base_footprint,7,0.03944730643074284,1.9878734864962324e-05,-7.847733725395359e-07,0.9992216518969047,0.0,0.0,0.0,0.4264827370643616
1676469260.6895304,439,1676469260,688737392,base_footprint,7,0.03943704150763797,3.1752872047274734e-05,-1.253214262459011e-06,0.9992220567758248,0.0,0.0,0.0,0.42646971344947815
1676469260.6980698,440,1676469260,697284698,base_footprint,7,0.03944202109464233,8.718053811675322e-06,-3.4412543987406857e-07,0.9992218606975365,0.0,0.0,0.0,0.42646998167037964
1676469260.7087781,441,1676469260,708147287,base_footprint,7,0.03944024498250253,1.528677523155243e-05,-6.03383634391876e-07,0.9992219307249368,0.0,0.0,0.0,0.42646992206573486
1676469260.7231581,442,1676469260,720097303,base_footprint,7,0.03944605017984648,3.76358783819615e-05,-1.4857430996179554e-06,0.9992217009785879,0.0,0.0,0.0,0.4264603555202484
1676469260.7289433,443,1676469260,728454113,base_footprint,7,0.03944605017984648,3.76358783819615e-05,-1.4857430996179554e-06,0.9992217009785879,0.0,0.0,0.0,0.4264603555202484
1676469260.7394638,444,1676469260,738056182,base_footprint,7,0.03944638152075445,2.0513105004522135e-05,-8.097980413951696e-07,0.9992216883972623,0.0,0.0,0.0,0.42645978927612305
1676469260.749228,445,1676469260,748148202,base_footprint,7,0.03944724999520107,2.703446935693499e-05,-1.067266173614077e-06,0.9992216539566257,0.0,0.0,0.0,0.426459938287735
1676469260.7596235,446,1676469260,757668018,base_footprint,7,0.03945045665608029,-3.9800393255327464e-05,1.5713669558703047e-06,0.9992215269313838,0.0,0.0,0.0,0.42648646235466003
1676469260.7683032,447,1676469260,767678976,base_footprint,7,0.039446404672903265,-2.9051441939101207e-05,1.1468675566787642e-06,0.9992216872711881,0.0,0.0,0.0,0.4264849126338959
1676469260.780561,448,1676469260,779430389,base_footprint,7,0.03945151556816834,-3.4179920011918e-05,1.3495002522096123e-06,0.9992214853320992,0.0,0.0,0.0,0.4264853000640869
1676469260.7909207,449,1676469260,790162801,base_footprint,7,0.03946437507964814,-2.317475588383629e-05,9.152902899949247e-07,0.9992209778430724,0.0,0.0,0.0,0.4264482855796814
1676469260.7999341,450,1676469260,799071550,base_footprint,7,0.03946254858839136,-2.3116011469244435e-05,9.129278509423502e-07,0.999221049980296,0.0,0.0,0.0,0.42644986510276794
1676469260.8081813,451,1676469260,807420492,base_footprint,7,0.03946512513329587,-2.614994076264356e-05,1.0328153011014049e-06,0.9992209481457678,0.0,0.0,0.0,0.42644861340522766
1676469260.8201077,452,1676469260,818336486,base_footprint,7,0.03947546921063174,4.4696585842318396e-05,-1.7657950668303917e-06,0.9992205388850339,0.0,0.0,0.0,0.42641329765319824
1676469260.830698,453,1676469260,829813957,base_footprint,7,0.03948083069520599,2.400017420643149e-05,-9.482861668890757e-07,0.999220327770962,0.0,0.0,0.0,0.4264143109321594
1676469260.839361,454,1676469260,838373899,base_footprint,7,0.03947831980242496,3.439492490761954e-05,-1.3589132175814295e-06,0.999220426673074,0.0,0.0,0.0,0.4264170229434967
1676469260.8485765,455,1676469260,847454309,base_footprint,7,0.03947958479293162,2.0232759907488807e-05,-7.994041941937986e-07,0.9992203770813395,0.0,0.0,0.0,0.4264138340950012
1676469260.8584354,456,1676469260,856577634,base_footprint,7,0.03945264970047509,2.3917551501940637e-05,-9.443460103241981e-07,0.9992214408521619,0.0,0.0,0.0,0.42634695768356323
1676469260.8702557,457,1676469260,867504835,base_footprint,7,0.039451188427793146,2.053430949748384e-05,-8.107340708108002e-07,0.9992214986224625,0.0,0.0,0.0,0.42635008692741394
1676469260.8804414,458,1676469260,878720998,base_footprint,7,0.03945466947052583,1.6368407967753658e-05,-6.463133707582179e-07,0.999221361255167,0.0,0.0,0.0,0.4263491630554199
1676469260.8919811,459,1676469260,891290426,base_footprint,7,0.039484131742977456,-1.7092200324593778e-05,6.753973659629764e-07,0.9992201974779652,0.0,0.0,0.0,0.42638322710990906
1676469260.8993127,460,1676469260,897363185,base_footprint,7,0.039482391648011726,-3.511279672981441e-05,1.3874190104446785e-06,0.999220265764721,0.0,0.0,0.0,0.4263872504234314
1676469260.9076455,461,1676469260,907042980,base_footprint,7,0.039483437625522734,-9.053685776093689e-06,3.5774960181327103e-07,0.9992202250110704,0.0,0.0,0.0,0.42638835310935974
1676469260.920873,462,1676469260,920123338,base_footprint,7,0.03950562393331495,-0.00011788302573783207,4.660680884626764e-06,0.9992193411656471,0.0,0.0,0.0,0.42642438411712646
1676469260.929892,463,1676469260,929021596,base_footprint,7,0.039504844789577644,-0.00012121366893431974,4.79226815839013e-06,0.9992193715708438,0.0,0.0,0.0,0.42642077803611755
1676469260.9418585,464,1676469260,938903808,base_footprint,7,0.03949782557210381,-0.00011011950815209013,4.3528778918508325e-06,0.9992196503421168,0.0,0.0,0.0,0.42642533779144287
1676469260.9477658,465,1676469260,947220325,base_footprint,7,0.03950561595003677,-0.00013137555488861632,5.1941270649479754e-06,0.9992193397957692,0.0,0.0,0.0,0.4264216721057892
1676469260.96017,466,1676469260,956650733,base_footprint,7,0.039526901741764646,-0.00012430149005771284,4.9170954993592595e-06,0.9992184989098524,0.0,0.0,0.0,0.4264476001262665
1676469260.971404,467,1676469260,969813346,base_footprint,7,0.03952901133833866,-0.00012994746820444366,5.140712849445477e-06,0.9992184147371594,0.0,0.0,0.0,0.4264443814754486
1676469260.9794817,468,1676469260,978520154,base_footprint,7,0.039531204781662624,-0.00013251431455920545,5.242548460649783e-06,0.99921832762464,0.0,0.0,0.0,0.4264449179172516
1676469260.989865,469,1676469260,989192485,base_footprint,7,0.03951960521441794,-0.0001731549903949018,6.848366940925675e-06,0.9992187802349122,0.0,0.0,0.0,0.4264760911464691
1676469260.99914,470,1676469260,998298168,base_footprint,7,0.03951907997166183,-0.00018254775231712215,7.219759303243859e-06,0.9992187993339531,0.0,0.0,0.0,0.4264731705188751
1676469261.0083785,471,1676469261,7812023,base_footprint,7,0.0395228680574414,-0.00019596752262105856,7.751255006741295e-06,0.9992186469622962,0.0,0.0,0.0,0.4264726936817169
1676469261.0206888,472,1676469261,19967794,base_footprint,7,0.03951757238115382,-0.0001714758104213033,6.78160512671386e-06,0.9992188609224489,0.0,0.0,0.0,0.42647600173950195
1676469261.031336,473,1676469261,30583143,base_footprint,7,0.03963204421684348,-0.00018375874619630072,7.288461116296552e-06,0.9992143249827815,0.0,0.0,0.0,0.4264600872993469
1676469261.0399737,474,1676469261,38295030,base_footprint,7,0.03963597276489647,-0.00020398096272464334,8.091342341287459e-06,0.9992141652264931,0.0,0.0,0.0,0.4264606833457947
1676469261.0505922,475,1676469261,47058343,base_footprint,7,0.03963561952581803,-0.00020366460527232143,8.078721231798483e-06,0.9992141793030498,0.0,0.0,0.0,0.42646297812461853
1676469261.059334,476,1676469261,58680534,base_footprint,7,0.03957148304062038,-0.00026160759872920534,1.0360315810780282e-05,0.9992167078187264,0.0,0.0,0.0,0.42646661400794983
1676469261.070199,477,1676469261,69388866,base_footprint,7,0.03957627279609805,-0.00026586203303089856,1.053007848287583e-05,0.9992165169962243,0.0,0.0,0.0,0.4264659285545349
1676469261.0807183,478,1676469261,79612970,base_footprint,7,0.039573209388461233,-0.0002593493628457174,1.027133279151114e-05,0.9992166400391382,0.0,0.0,0.0,0.42646560072898865
1676469261.0898995,479,1676469261,89049816,base_footprint,7,0.039569067850238816,-0.0004188089414043622,1.658486952015007e-05,0.9992167498563441,0.0,0.0,0.0,0.4264622926712036
1676469261.0995634,480,1676469261,98484754,base_footprint,7,0.03956586678508462,-0.00042031741769600926,1.6643256690107907e-05,0.9992168759792918,0.0,0.0,0.0,0.4264628291130066
1676469261.1088321,481,1676469261,107350349,base_footprint,7,0.03957110148764778,-0.0004342677604876489,1.7197925399298957e-05,0.9992166627127461,0.0,0.0,0.0,0.42646151781082153
1676469261.123334,482,1676469261,121652841,base_footprint,7,0.03945978351207527,-0.00042240617453499606,1.668104957085638e-05,0.9992210700240195,0.0,0.0,0.0,0.42649903893470764
1676469261.1303978,483,1676469261,129183769,base_footprint,7,0.039458174314692,-0.0004184557179027434,1.6524368908683054e-05,0.9992211352355937,0.0,0.0,0.0,0.42650020122528076
1676469261.138017,484,1676469261,137183666,base_footprint,7,0.039461488346210875,-0.00042567422002902914,1.6810833890558384e-05,0.9992210013086976,0.0,0.0,0.0,0.4264991879463196
1676469261.1537979,485,1676469261,150968551,base_footprint,7,0.0394602361780319,-0.0004177449561593977,1.6497165031120227e-05,0.9992210541105352,0.0,0.0,0.0,0.4264991581439972
1676469261.1607237,486,1676469261,157997608,base_footprint,7,0.03948390747122133,-0.00048021787524016123,1.897567745531371e-05,0.9992200909116669,0.0,0.0,0.0,0.4265528917312622
1676469261.1722157,487,1676469261,170327663,base_footprint,7,0.03948550793380632,-0.0005024341245563722,1.9854352674357393e-05,0.9992200167275295,0.0,0.0,0.0,0.4265526831150055
1676469261.1830657,488,1676469261,182562351,base_footprint,7,0.03948749426625823,-0.0004906827405445075,1.9390957935298405e-05,0.9992199440818879,0.0,0.0,0.0,0.42655348777770996
1676469261.192888,489,1676469261,192245006,base_footprint,7,0.03944306481248183,-0.0004472249078492415,1.7653660529367248e-05,0.9992217192977885,0.0,0.0,0.0,0.4265841245651245
1676469261.1988802,490,1676469261,197581291,base_footprint,7,0.03944261977029559,-0.0004443414316441283,1.753964056958295e-05,0.9992217381536037,0.0,0.0,0.0,0.426582396030426
1676469261.2100074,491,1676469261,208199977,base_footprint,7,0.039442841848791495,-0.0004440367189430475,1.75277113806227e-05,0.9992217295230638,0.0,0.0,0.0,0.4265820384025574
1676469261.2214262,492,1676469261,220767974,base_footprint,7,0.039528042377714685,-0.0005190348547132135,2.0532481428892275e-05,0.999218326516794,0.0,0.0,0.0,0.4266018569469452
1676469261.2303197,493,1676469261,229600906,base_footprint,7,0.03952491268768515,-0.0005105814651766718,2.0196472289430208e-05,0.9992184546813078,0.0,0.0,0.0,0.4265998899936676
1676469261.2381957,494,1676469261,237622737,base_footprint,7,0.039526332236488715,-0.000512793071141189,2.0284683860251976e-05,0.9992183973945479,0.0,0.0,0.0,0.42660006880760193
1676469261.248209,495,1676469261,247686624,base_footprint,7,0.03952467545025913,-0.0005128977892130264,2.0287974462988174e-05,0.9992184628772667,0.0,0.0,0.0,0.4266040325164795
1676469261.258478,496,1676469261,257538080,base_footprint,7,0.03956171559295418,-0.00045375483919226397,1.7965386332889767e-05,0.9992170256971871,0.0,0.0,0.0,0.4266042113304138
1676469261.2720401,497,1676469261,270099163,base_footprint,7,0.03956268282809099,-0.0004608534039969496,1.82468846525208e-05,0.9992169841474049,0.0,0.0,0.0,0.42660588026046753
1676469261.279876,498,1676469261,279106855,base_footprint,7,0.039555002830431986,-0.00044972199612227954,1.7802689113977175e-05,0.9992172932772305,0.0,0.0,0.0,0.4266078472137451
1676469261.2911313,499,1676469261,290057420,base_footprint,7,0.03947432298637943,-0.0005532019454137706,2.1854309194566876e-05,0.999220431794088,0.0,0.0,0.0,0.4265752136707306
1676469261.2984514,500,1676469261,297538757,base_footprint,7,0.03947321894662699,-0.0005541961118229221,2.1892970582380484e-05,0.9992204748569552,0.0,0.0,0.0,0.4265731871128082
1676469261.3086689,501,1676469261,307711839,base_footprint,7,0.039472033588877596,-0.000550417601279923,2.1743050236361e-05,0.999220523774438,0.0,0.0,0.0,0.4265742003917694
1676469261.3223097,502,1676469261,321428298,base_footprint,7,0.03942915779643455,-0.0006496017426163697,2.563318821257893e-05,0.9992221569180597,0.0,0.0,0.0,0.42659369111061096
1676469261.3322363,503,1676469261,331095457,base_footprint,7,0.03943164710965256,-0.0006452650276877988,2.546367203478014e-05,0.9992220615012788,0.0,0.0,0.0,0.42659422755241394
1676469261.339673,504,1676469261,339035987,base_footprint,7,0.039429456752825685,-0.000622235906023177,2.4553522395492417e-05,0.9992221625643513,0.0,0.0,0.0,0.42659568786621094
1676469261.350011,505,1676469261,348180770,base_footprint,7,0.039434143479731676,-0.0006413899018424747,2.531235530180575e-05,0.9992219654842953,0.0,0.0,0.0,0.42659443616867065
1676469261.3589575,506,1676469261,357487678,base_footprint,7,0.03944147513958368,-0.0007027273561203381,2.7738193991360378e-05,0.9992216347956389,0.0,0.0,0.0,0.42659491300582886
1676469261.3695989,507,1676469261,368557929,base_footprint,7,0.039442875186908095,-0.0007053586327946369,2.7843046164062157e-05,0.9992215776748188,0.0,0.0,0.0,0.426596462726593
1676469261.3801734,508,1676469261,378849506,base_footprint,7,0.03944146973817424,-0.0007058817686941102,2.7862701832389384e-05,0.9992216327819825,0.0,0.0,0.0,0.42659708857536316
1676469261.389008,509,1676469261,387547492,base_footprint,7,0.03947975417207619,-0.0007493003266238141,2.9605282175141074e-05,0.9992200892111108,0.0,0.0,0.0,0.42658111453056335
1676469261.3995595,510,1676469261,397888660,base_footprint,7,0.039478102300777085,-0.0007296129512473139,2.8826214302872877e-05,0.9992201690682189,0.0,0.0,0.0,0.4265820384025574
1676469261.4095345,511,1676469261,407746315,base_footprint,7,0.03947532450356246,-0.0007410576192174853,2.9276317606544345e-05,0.9992202703767777,0.0,0.0,0.0,0.42658281326293945
1676469261.4194655,512,1676469261,418119907,base_footprint,7,0.039474513249781504,-0.0007225652897287501,2.8545169315291736e-05,0.9992203159905568,0.0,0.0,0.0,0.42658382654190063
1676469261.430894,513,1676469261,430127382,base_footprint,7,0.03949755145180555,-0.0007633057949580584,3.017226312505223e-05,0.999219375254108,0.0,0.0,0.0,0.42657986283302307
1676469261.4402282,514,1676469261,437965154,base_footprint,7,0.039496814235751285,-0.0007708507024814607,3.0469931871076316e-05,0.9992193985937244,0.0,0.0,0.0,0.4265827536582947
1676469261.4567053,515,1676469261,449926614,base_footprint,7,0.03949662722327334,-0.0007733327650803425,3.056789711815327e-05,0.9992194040650051,0.0,0.0,0.0,0.42658039927482605
1676469261.46238,516,1676469261,461069345,base_footprint,7,0.03943215360211963,-0.0007654235680870339,3.0205801132835025e-05,0.9992219565625396,0.0,0.0,0.0,0.4265711009502411
1676469261.4690726,517,1676469261,468247652,base_footprint,7,0.03943215360211963,-0.0007654235680870339,3.0205801132835025e-05,0.9992219565625396,0.0,0.0,0.0,0.4265711009502411
1676469261.4790463,518,1676469261,477882385,base_footprint,7,0.03943358333068305,-0.0007510383631677473,2.9639195808575756e-05,0.9992219110731095,0.0,0.0,0.0,0.4265722930431366
1676469261.490632,519,1676469261,489213943,base_footprint,7,0.03941359393422104,-0.0007862555397204216,3.101326403072329e-05,0.9992226726078587,0.0,0.0,0.0,0.4265940487384796
1676469261.4984312,520,1676469261,497601270,base_footprint,7,0.0394078747709846,-0.0007919401395950093,3.123294916935666e-05,0.9992228936835628,0.0,0.0,0.0,0.42659279704093933
1676469261.509573,521,1676469261,507465124,base_footprint,7,0.03940866676976678,-0.0007783035982177643,3.069576164753223e-05,0.9992228731793067,0.0,0.0,0.0,0.42658913135528564
1676469261.5201933,522,1676469261,519104719,base_footprint,7,0.0393977971261261,-0.0007781653048213388,3.0681829327885086e-05,0.9992233019195421,0.0,0.0,0.0,0.42660990357398987
1676469261.5287852,523,1676469261,528156042,base_footprint,7,0.03939473418645872,-0.000760735401887366,2.9992259849124497e-05,0.999223436124519,0.0,0.0,0.0,0.42661064863204956
1676469261.5392668,524,1676469261,538358211,base_footprint,7,0.039393270779711574,-0.0007706070021114422,3.0380321036151358e-05,0.9992234862427728,0.0,0.0,0.0,0.4266098141670227
1676469261.5482097,525,1676469261,547566652,base_footprint,7,0.039393270779711574,-0.0007706070021114422,3.0380321036151358e-05,0.9992234862427728,0.0,0.0,0.0,0.4266098141670227
1676469261.5586457,526,1676469261,557316780,base_footprint,7,0.039415924201974976,-0.0008537103471323405,3.367596454517826e-05,0.9992225252484437,0.0,0.0,0.0,0.4266284108161926
1676469261.5692992,527,1676469261,568726062,base_footprint,7,0.03941346825730357,-0.0008364809722354368,3.299426477697388e-05,0.9992226367186104,0.0,0.0,0.0,0.4266306757926941
1676469261.5863545,528,1676469261,577485561,base_footprint,7,0.03941427020555834,-0.000843809437564195,3.3284008198249786e-05,0.999222598914762,0.0,0.0,0.0,0.42663004994392395
1676469261.5915952,529,1676469261,588621139,base_footprint,7,0.039391362413709156,-0.0008497275502175827,3.3497937124641106e-05,0.9992234972258061,0.0,0.0,0.0,0.42664018273353577
1676469261.5991182,530,1676469261,597834825,base_footprint,7,0.03939455083606358,-0.0008541176106087801,3.3673731736206005e-05,0.9992233677780018,0.0,0.0,0.0,0.42663878202438354
1676469261.6093035,531,1676469261,608046531,base_footprint,7,0.03939095429821883,-0.0008540455553686477,3.366781217214074e-05,0.9992235096274223,0.0,0.0,0.0,0.4266372621059418
1676469261.6229548,532,1676469261,617655515,base_footprint,7,0.03939382449522326,-0.0008453876850702394,3.3328937220427355e-05,0.9992234038494512,0.0,0.0,0.0,0.42663708329200745
1676469261.6316786,533,1676469261,631014823,base_footprint,7,0.03931227346601916,-0.0009117754446749958,3.5871710338186705e-05,0.9992265571599325,0.0,0.0,0.0,0.4266417622566223
1676469261.639099,534,1676469261,638269424,base_footprint,7,0.03931322022448119,-0.0009233112020164739,3.6326434779988167e-05,0.9992265093022682,0.0,0.0,0.0,0.4266407787799835
1676469261.6490266,535,1676469261,648268222,base_footprint,7,0.039312702814376745,-0.0009104027549020259,3.581809675546711e-05,0.9992265415216494,0.0,0.0,0.0,0.42664405703544617
1676469261.659325,536,1676469261,658332824,base_footprint,7,0.03931587993488459,-0.0009229465403442917,3.631454811958829e-05,0.9992264049933243,0.0,0.0,0.0,0.42664045095443726
1676469261.6708705,537,1676469261,668367624,base_footprint,7,0.03930446904208454,-0.0009019665834022898,3.5478747228445306e-05,0.999226873092823,0.0,0.0,0.0,0.426642507314682
1676469261.6859868,538,1676469261,682724237,base_footprint,7,0.03925050362655824,-0.00019769577916828947,7.765643237895419e-06,0.9992293824848903,0.0,0.0,0.0,0.4257465600967407
1676469261.6901906,539,1676469261,689425945,base_footprint,7,0.03925117559735481,-0.00024149565994324934,9.486299204603302e-06,0.9992293464485928,0.0,0.0,0.0,0.4257379174232483
1676469261.7023551,540,1676469261,700290441,base_footprint,7,0.03924075093122188,-0.00023682488908646613,9.300350016362937e-06,0.9992297570097827,0.0,0.0,0.0,0.42573848366737366
1676469261.7102082,541,1676469261,708183050,base_footprint,7,0.03924239808921323,-0.00024048811905248775,9.444605764187455e-06,0.9992296914466021,0.0,0.0,0.0,0.42573651671409607
1676469261.7211545,542,1676469261,720410823,base_footprint,7,0.038769310607058155,-8.80744436168445e-05,3.417154533332005e-06,0.9992481837793197,0.0,0.0,0.0,0.42659446597099304
1676469261.7290683,543,1676469261,728203296,base_footprint,7,0.038751542169680145,-7.165081627488013e-05,2.7786667563135562e-06,0.9992488743240651,0.0,0.0,0.0,0.42659711837768555
1676469261.7411005,544,1676469261,736442804,base_footprint,7,0.038751542169680145,-7.165081627488013e-05,2.7786667563135562e-06,0.9992488743240651,0.0,0.0,0.0,0.42659711837768555
1676469261.7509937,545,1676469261,749539375,base_footprint,7,0.03836619226662706,0.00013396380670752139,-5.1434681069904594e-06,0.9992637376179542,0.0,0.0,0.0,0.4265473783016205
1676469261.7605772,546,1676469261,759943246,base_footprint,7,0.03834056801160627,0.0001887271776040475,-7.241231577345685e-06,0.9992647122630542,0.0,0.0,0.0,0.4265483319759369
1676469261.7692378,547,1676469261,768464088,base_footprint,7,0.03831168648481594,0.00021951382550247246,-8.416123864607441e-06,0.9992658136960046,0.0,0.0,0.0,0.4265401065349579
1676469261.7831814,548,1676469261,776842832,base_footprint,7,0.038290897882298565,0.0002370428849675267,-9.083246495949189e-06,0.999266606500754,0.0,0.0,0.0,0.42654019594192505
1676469261.7897735,549,1676469261,787575960,base_footprint,7,0.037346719340476786,-0.0037379842920784137,0.00013969988740583132,0.9992953670021077,0.0,0.0,0.0,0.4265139698982239
1676469261.7995203,550,1676469261,797966480,base_footprint,7,0.037278199420336014,-0.0038644834406812347,0.00014416226647783045,0.9992974436237467,0.0,0.0,0.0,0.4265076518058777
1676469261.8101985,551,1676469261,807484626,base_footprint,7,0.037184693290899254,-0.004207655996791417,0.0001565700688585717,0.9992995395284078,0.0,0.0,0.0,0.42648109793663025
1676469261.8209019,552,1676469261,820157766,base_footprint,7,0.03632282173119341,-0.01834758834273355,0.0006669888184100703,0.9991714436218668,0.0,0.0,0.0,0.42486971616744995
1676469261.828926,553,1676469261,828446626,base_footprint,7,0.036174260671855,-0.019273028478337895,0.0006977741121041479,0.999159389862001,0.0,0.0,0.0,0.42482203245162964
1676469261.8398652,554,1676469261,838873147,base_footprint,7,0.03607735039526764,-0.020000093198239217,0.0007221652308875611,0.9991485873171708,0.0,0.0,0.0,0.42476749420166016
1676469261.849338,555,1676469261,848725557,base_footprint,7,0.03763009024482677,-0.034983491493215994,0.0013181741416100103,0.9986783236097811,0.0,0.0,0.0,0.42388927936553955
1676469261.8601449,556,1676469261,859329462,base_footprint,7,0.03753254795798852,-0.036214862043875015,0.0013610897935076775,0.9986380420580313,0.0,0.0,0.0,0.42386189103126526
1676469261.8684816,557,1676469261,866959571,base_footprint,7,0.03753254795798852,-0.036214862043875015,0.0013610897935076775,0.9986380420580313,0.0,0.0,0.0,0.42386189103126526
1676469261.8830893,558,1676469261,882515430,base_footprint,7,0.04082033614994225,-0.04421426220137048,0.001808120760025528,0.998186119856368,0.0,0.0,0.0,0.4238586723804474
1676469261.8903112,559,1676469261,889143466,base_footprint,7,0.040757200130570395,-0.045161929977936256,0.0018440923844155058,0.9981462067460168,0.0,0.0,0.0,0.42386922240257263
1676469261.9020462,560,1676469261,900486230,base_footprint,7,0.0407573541042806,-0.045603385380497255,0.0018621628424208743,0.9981260950790759,0.0,0.0,0.0,0.4238569438457489
1676469261.9086165,561,1676469261,907761812,base_footprint,7,0.0407681371383647,-0.0471669115759623,0.0019266585760515202,0.9980528690572379,0.0,0.0,0.0,0.4238247871398926
1676469261.9207768,562,1676469261,920117139,base_footprint,7,0.04028740547061411,-0.041878134078604676,0.0016900196727006383,0.9983087151177469,0.0,0.0,0.0,0.42440420389175415
1676469261.928252,563,1676469261,927126884,base_footprint,7,0.040296078688604624,-0.042208964938256835,0.0017037616935738958,0.9982944087378504,0.0,0.0,0.0,0.4244142174720764
1676469261.9420645,564,1676469261,940564393,base_footprint,7,0.04026712548442195,-0.04337592628520535,0.0017496937500510149,0.9982454739170638,0.0,0.0,0.0,0.4243956208229065
1676469261.950679,565,1676469261,950041294,base_footprint,7,0.038256005131328354,-0.03316873461261527,0.0012705339791522548,0.9987165257764575,0.0,0.0,0.0,0.42493999004364014
1676469261.960093,566,1676469261,958134412,base_footprint,7,0.03824190636638126,-0.03337047776098072,0.001277798616934575,0.9987103359043419,0.0,0.0,0.0,0.42493319511413574
1676469261.9712589,567,1676469261,968653917,base_footprint,7,0.038192604131904964,-0.03390516125537106,0.0012966195414830085,0.9986941893330689,0.0,0.0,0.0,0.4249228835105896
1676469261.9809954,568,1676469261,979962825,base_footprint,7,0.03813071247616421,-0.034287450212667325,0.0013091283911285138,0.9986834862491866,0.0,0.0,0.0,0.42490968108177185
1676469261.9911497,569,1676469261,990447044,base_footprint,7,0.035913695488020335,-0.02084184291899598,0.0007491539256190313,0.9991372592534669,0.0,0.0,0.0,0.4259090721607208
1676469261.9993372,570,1676469261,997783660,base_footprint,7,0.03583667340127292,-0.0210124459621098,0.0007536669938636039,0.9991364481092072,0.0,0.0,0.0,0.42589664459228516
1676469262.00836,571,1676469262,7396936,base_footprint,7,0.03577849713145998,-0.02104110286798675,0.0007534685811691928,0.9991379301268719,0.0,0.0,0.0,0.4258906841278076
1676469262.0202487,572,1676469262,19066572,base_footprint,7,0.03614495078481412,-0.01468037463081941,0.0005310257501980906,0.9992385836951628,0.0,0.0,0.0,0.4262925982475281
1676469262.0320158,573,1676469262,29083251,base_footprint,7,0.036102612181656515,-0.014576598046398909,0.0005266526606933905,0.9992416358519243,0.0,0.0,0.0,0.4262825548648834
1676469262.0405545,574,1676469262,40056943,base_footprint,7,0.03608773194016522,-0.014524660021719751,0.0005245591649893701,0.9992429307692653,0.0,0.0,0.0,0.42628613114356995
1676469262.0495718,575,1676469262,48395633,base_footprint,7,0.037175519303466235,-0.012262965347869892,0.00045623185128943665,0.9992334023129393,0.0,0.0,0.0,0.42660510540008545
1676469262.0615203,576,1676469262,57542324,base_footprint,7,0.037173876407326736,-0.012161605926074235,0.0004524402863804339,0.9992347039369375,0.0,0.0,0.0,0.4266098141670227
1676469262.0716155,577,1676469262,70353746,base_footprint,7,0.037186902849116035,-0.012130998040269621,0.0004514597966443463,0.9992345917386414,0.0,0.0,0.0,0.42661258578300476
1676469262.0827932,578,1676469262,82192420,base_footprint,7,0.03741046685173305,-0.012216491375656596,0.0004573790218215351,0.9992252024007572,0.0,0.0,0.0,0.4257931411266327
1676469262.0928338,579,1676469262,89257478,base_footprint,7,0.0373975989433449,-0.01219301604005111,0.0004563427461618248,0.9992259712919884,0.0,0.0,0.0,0.4257909953594208
1676469262.10086,580,1676469262,100192546,base_footprint,7,0.03739673949653415,-0.012116921474206947,0.00045348393051056966,0.9992269304023691,0.0,0.0,0.0,0.42578554153442383
1676469262.1078994,581,1676469262,107122898,base_footprint,7,0.03739673949653415,-0.012116921474206947,0.00045348393051056966,0.9992269304023691,0.0,0.0,0.0,0.42578554153442383
1676469262.1209207,582,1676469262,116596937,base_footprint,7,0.03637055724436798,-0.01454673387257873,0.0005294792703452965,0.9992323527343762,0.0,0.0,0.0,0.4257435202598572
1676469262.1296346,583,1676469262,127456665,base_footprint,7,0.03635996505179841,-0.014529137711502755,0.0005286844432209148,0.9992329946471702,0.0,0.0,0.0,0.42573630809783936
1676469262.1416976,584,1676469262,140950441,base_footprint,7,0.03632121396998001,-0.014535795297162257,0.0005283622943588347,0.9992343073094077,0.0,0.0,0.0,0.42573556303977966
1676469262.1523035,585,1676469262,151826143,base_footprint,7,0.03605876766987166,-0.017213202592081495,0.0006211830595467551,0.9992012235091892,0.0,0.0,0.0,0.4257007837295532
1676469262.1599479,586,1676469262,158736944,base_footprint,7,0.03605824270081813,-0.017213603141446293,0.0006211884630907586,0.9992012355502324,0.0,0.0,0.0,0.4257017970085144
1676469262.1683974,587,1676469262,167849540,base_footprint,7,0.036002428866228495,-0.017313833054849598,0.0006238381685199674,0.9992015147739821,0.0,0.0,0.0,0.4256967306137085
1676469262.1818898,588,1676469262,179601430,base_footprint,7,0.03596936556784312,-0.01737443239036302,0.0006254466338461353,0.9992016526488874,0.0,0.0,0.0,0.42568346858024597
1676469262.1902616,589,1676469262,189007282,base_footprint,7,0.03374857856124855,-0.02238376512786208,0.0007560406797233953,0.9991793777426987,0.0,0.0,0.0,0.4250783920288086
1676469262.1987278,590,1676469262,198115825,base_footprint,7,0.033488924960591374,-0.022625381688581123,0.0007583195065023566,0.9991826704661946,0.0,0.0,0.0,0.4250265657901764
1676469262.2100081,591,1676469262,208995342,base_footprint,7,0.033348701587942446,-0.022793166806573745,0.0007607436308960869,0.9991835451599741,0.0,0.0,0.0,0.42611604928970337
1676469262.222036,592,1676469262,221295595,base_footprint,7,0.014864324923976326,-0.029832302833281737,0.0004436836019846827,0.9994442899417051,0.0,0.0,0.0,0.41429969668388367
1676469262.2298937,593,1676469262,228615760,base_footprint,7,0.013789376224670143,-0.030251262865476723,0.0004173768053979,0.9994471171577718,0.0,0.0,0.0,0.4149627387523651
1676469262.2390103,594,1676469262,238126993,base_footprint,7,0.013083608405285841,-0.030370695440120242,0.0003975757635035457,0.9994529913823326,0.0,0.0,0.0,0.4156462848186493
1676469262.2475936,595,1676469262,246399164,base_footprint,7,0.007770443730079867,-0.020291510656392845,0.00015771127784529099,0.9997638970910442,0.0,0.0,0.0,0.3494616746902466
1676469262.2609692,596,1676469262,258070468,base_footprint,7,0.006930733126570364,-0.020015889512357353,0.00013875592120109247,0.9997756297550725,0.0,0.0,0.0,0.34805169701576233
1676469262.2702463,597,1676469262,267809391,base_footprint,7,0.006716172635622829,-0.019938321232430493,0.00013393885553479349,0.9997786447168913,0.0,0.0,0.0,0.34808599948883057
1676469262.2816377,598,1676469262,278446197,base_footprint,7,0.00573452445523877,-0.019468235995195583,0.00011166407552764303,0.9997940240607772,0.0,0.0,0.0,0.34513047337532043
1676469262.289619,599,1676469262,288195848,base_footprint,7,-0.00719130145429134,-0.01606149220401358,-0.00011552092202710704,0.9998451381621508,0.0,0.0,0.0,0.21001379191875458
1676469262.3001554,600,1676469262,299058914,base_footprint,7,-0.008117808809125058,-0.015687112579194223,-0.00012736485118649014,0.9998439875586895,0.0,0.0,0.0,0.2062927931547165
1676469262.3089364,601,1676469262,308045864,base_footprint,7,-0.008830733501665461,-0.015471124119895525,-0.00013664305805582026,0.9998413093051137,0.0,0.0,0.0,0.20348571240901947
1676469262.3198984,602,1676469262,317405700,base_footprint,7,-0.026135187852002556,-0.00947356626665132,-0.0002476891667665253,0.9996134963815808,0.0,0.0,0.0,0.10797785222530365
1676469262.3294537,603,1676469262,328471899,base_footprint,7,-0.027379599699297864,-0.009090880016477752,-0.0002490083081951388,0.999583739071267,0.0,0.0,0.0,0.10252450406551361
1676469262.3414686,604,1676469262,340139865,base_footprint,7,-0.028741271623591573,-0.0086503882593014,-0.00024873523308481874,0.9995494225996062,0.0,0.0,0.0,0.09663455188274384
1676469262.3498547,605,1676469262,349135875,base_footprint,7,-0.03999906032517115,-0.004347403857990105,-0.00017403299332439403,0.9991902446307791,0.0,0.0,0.0,0.03935231640934944
1676469262.3598566,606,1676469262,359250068,base_footprint,7,-0.041525815326299065,-0.003942928753683463,-0.00016387596271458108,0.9991296377943146,0.0,0.0,0.0,0.03282159939408302
1676469262.3681793,607,1676469262,367085456,base_footprint,7,-0.042508463822414744,-0.0035778302793986684,-0.0001522266425974342,0.9990896888973478,0.0,0.0,0.0,0.02809540368616581
1676469262.3833714,608,1676469262,381837844,base_footprint,7,-0.04351231371639239,-0.0032522861575873217,-0.00014164940431607147,0.9990475870173761,0.0,0.0,0.0,0.023412171751260757
1676469262.3925714,609,1676469262,391891956,base_footprint,7,-0.047702743811426966,-0.0017214788706830185,-8.221298100219456e-05,0.9988600892939836,0.0,0.0,0.0,0.026224616914987564
1676469262.4009864,610,1676469262,398681879,base_footprint,7,-0.0482690830254923,-0.0015912927048877632,-7.68999744303049e-05,0.998833097918666,0.0,0.0,0.0,0.02356039360165596
1676469262.4090366,611,1676469262,407686233,base_footprint,7,-0.04978787965570806,-0.0012580376162219743,-6.271285081934764e-05,0.9987590202085003,0.0,0.0,0.0,0.017385751008987427
1676469262.421652,612,1676469262,421044826,base_footprint,7,-0.0494873206909238,-0.00035971600111081977,-1.782322012808097e-05,0.9987746869927997,0.0,0.0,0.0,0.051267895847558975
1676469262.4287205,613,1676469262,427387714,base_footprint,7,-0.05051200301918632,5.616087539948353e-05,2.840424244469642e-06,0.998723452407561,0.0,0.0,0.0,0.047323018312454224
1676469262.4399107,614,1676469262,438317537,base_footprint,7,-0.052028175930871334,0.0004463266617109657,2.3253057943568264e-05,0.9986455172688219,0.0,0.0,0.0,0.0419587641954422
1676469262.4489205,615,1676469262,447734594,base_footprint,7,-0.05375742036587144,0.002615681875800475,0.00014081641104230855,0.9985505886707342,0.0,0.0,0.0,0.08388536423444748
1676469262.4607458,616,1676469262,459336280,base_footprint,7,-0.055284353916779654,0.0031209514967588787,0.00017280491164733703,0.9984657580569408,0.0,0.0,0.0,0.07927360385656357
1676469262.4682148,617,1676469262,466983795,base_footprint,7,-0.055880846824741176,0.003309153010307328,0.00018520869014556615,0.9984319436808126,0.0,0.0,0.0,0.0774308443069458
1676469262.4811544,618,1676469262,479165792,base_footprint,7,-0.05796726449743231,0.0037566533502996916,0.00021813125647669455,0.9983113924127307,0.0,0.0,0.0,0.07206173241138458
1676469262.4906118,619,1676469262,490043640,base_footprint,7,-0.05992680096724534,0.005375038399950805,0.0003226934961783271,0.9981882504602719,0.0,0.0,0.0,0.13029618561267853
1676469262.4997883,620,1676469262,498937129,base_footprint,7,-0.062047799641257444,0.005925308728750607,0.00036836865344849133,0.9980555222935659,0.0,0.0,0.0,0.12597738206386566
1676469262.5087283,621,1676469262,507953405,base_footprint,7,-0.06315027009713538,0.006365739952504298,0.00040281040557948295,0.9979836464017299,0.0,0.0,0.0,0.12385400384664536
1676469262.5209768,622,1676469262,519411802,base_footprint,7,-0.0633555601886568,0.00751205085076635,0.00047690181436391556,0.9979626318905215,0.0,0.0,0.0,0.16228795051574707
1676469262.5293226,623,1676469262,528710842,base_footprint,7,-0.06496496350385218,0.00803357147351248,0.0005230225240308317,0.9978550704855703,0.0,0.0,0.0,0.1597365289926529
1676469262.5411265,624,1676469262,538897514,base_footprint,7,-0.06658829575903129,0.008396239948695997,0.000560354880299128,0.9977450516164136,0.0,0.0,0.0,0.1573924720287323
1676469262.5508509,625,1676469262,549476623,base_footprint,7,-0.06619847052254753,0.008938420986073142,0.0005930344812694144,0.9977662629297781,0.0,0.0,0.0,0.1923423409461975
1676469262.5601566,626,1676469262,559283018,base_footprint,7,-0.06773046054922299,0.009460827283501175,0.0006422900525634374,0.997658591364997,0.0,0.0,0.0,0.1904541403055191
1676469262.571388,627,1676469262,569283246,base_footprint,7,-0.06881908657559205,0.009687860720416618,0.0006683258093783355,0.9975818923868734,0.0,0.0,0.0,0.18928928673267365
1676469262.5815535,628,1676469262,578540563,base_footprint,7,-0.06942820924454922,0.009811590848968718,0.0006828821203945188,0.9975384654829693,0.0,0.0,0.0,0.1886906772851944
1676469262.5891793,629,1676469262,587622642,base_footprint,7,-0.06558067745521397,0.008684579535117113,0.0005707910332764295,0.9978093139575365,0.0,0.0,0.0,0.19976653158664703
1676469262.6003458,630,1676469262,598833322,base_footprint,7,-0.06749438400425775,0.009249769436184769,0.0006257613968101636,0.9976765800177617,0.0,0.0,0.0,0.19762864708900452
1676469262.608796,631,1676469262,607987880,base_footprint,7,-0.06892719249465866,0.00962594891488389,0.0006651024872446113,0.9975750302012244,0.0,0.0,0.0,0.1960408240556717
1676469262.6221433,632,1676469262,620425939,base_footprint,7,-0.06775758368267795,0.011037713651677383,0.000749657642598801,0.9976404746922848,0.0,0.0,0.0,0.194627046585083
1676469262.6293252,633,1676469262,628369331,base_footprint,7,-0.06952948157158433,0.011602612468068247,0.0008087356886204703,0.9975120934218734,0.0,0.0,0.0,0.19241555035114288
1676469262.6398203,634,1676469262,639040470,base_footprint,7,-0.0704294953854834,0.011966558963771424,0.0008449578962499869,0.9974446218675332,0.0,0.0,0.0,0.19130122661590576
1676469262.6528685,635,1676469262,651808738,base_footprint,7,-0.06449839257028134,0.010570273573014917,0.0006832266708101303,0.9978615935457972,0.0,0.0,0.0,0.18068861961364746
1676469262.6605198,636,1676469262,659461259,base_footprint,7,-0.06533466552550277,0.010841568087764191,0.0007098889575518281,0.9978042583291259,0.0,0.0,0.0,0.17944024503231049
1676469262.6687586,637,1676469262,667816638,base_footprint,7,-0.06613849580706697,0.011229603897415081,0.0007443862254134183,0.9977469825851809,0.0,0.0,0.0,0.1781238317489624
1676469262.6852252,638,1676469262,682468652,base_footprint,7,-0.05942221218928232,0.009312522793642008,0.0005543744858920273,0.9981893459092214,0.0,0.0,0.0,0.15825478732585907
1676469262.6902251,639,1676469262,689652204,base_footprint,7,-0.05983547082664391,0.009541548122064637,0.0005719740346873371,0.9981624858388999,0.0,0.0,0.0,0.1574367731809616
1676469262.7008922,640,1676469262,699515342,base_footprint,7,-0.06107558231084035,0.00990816971853796,0.0006063090561542557,0.9980837809560623,0.0,0.0,0.0,0.1545124500989914
1676469262.7089634,641,1676469262,707615852,base_footprint,7,-0.06175280082593976,0.01006576387508999,0.0006228094930701006,0.9980405222715649,0.0,0.0,0.0,0.15291985869407654
1676469262.720428,642,1676469262,719472408,base_footprint,7,-0.05571506012524774,0.008857787697381393,0.0004942994471810599,0.9984072953160973,0.0,0.0,0.0,0.1416071206331253
1676469262.7286572,643,1676469262,727990388,base_footprint,7,-0.056768875713948466,0.00931771939431854,0.0005298340048151298,0.9983437254429911,0.0,0.0,0.0,0.13843823969364166
1676469262.7391486,644,1676469262,737512111,base_footprint,7,-0.05687341260774764,0.00931766386398246,0.0005308096662210671,0.9983377756649124,0.0,0.0,0.0,0.13820187747478485
1676469262.7517595,645,1676469262,750924110,base_footprint,7,-0.05138738954600158,0.008750572789591671,0.0004502813149129471,0.9986403561434111,0.0,0.0,0.0,0.13152575492858887
1676469262.7594192,646,1676469262,758462667,base_footprint,7,-0.051658297974585175,0.008811464822943663,0.00045581163301448163,0.9986258411305999,0.0,0.0,0.0,0.1305135041475296
1676469262.7676277,647,1676469262,766832113,base_footprint,7,-0.0521566731626023,0.008902047086556526,0.0004649524992208599,0.9985991281898116,0.0,0.0,0.0,0.1287718117237091
1676469262.7782965,648,1676469262,776804447,base_footprint,7,-0.052738121270071575,0.009165520463255198,0.0004840663856059226,0.9985661968438924,0.0,0.0,0.0,0.12632419168949127
1676469262.787984,649,1676469262,787229537,base_footprint,7,-0.044999163916961536,0.005750064196740041,0.00025901475191151467,0.9989704424655746,0.0,0.0,0.0,0.13262814283370972
1676469262.799752,650,1676469262,798686742,base_footprint,7,-0.04566056649921371,0.005963913580937588,0.0002726048594258572,0.9989391723665464,0.0,0.0,0.0,0.12958531081676483
1676469262.808622,651,1676469262,807856082,base_footprint,7,-0.04611261183027178,0.006156462767799635,0.00028419829756589336,0.9989172359248323,0.0,0.0,0.0,0.12731145322322845
1676469262.8200674,652,1676469262,818089246,base_footprint,7,-0.04389643771759468,0.007908634068915368,0.00034750672847845093,0.9990047224622829,0.0,0.0,0.0,0.13753975927829742
1676469262.82873,653,1676469262,827381610,base_footprint,7,-0.04418880371608508,0.008016183677279763,0.00035458335114297245,0.9989909732805599,0.0,0.0,0.0,0.13604514300823212
1676469262.840385,654,1676469262,839609384,base_footprint,7,-0.04474744221805534,0.008247103529312017,0.0003694194254552749,0.9989642211949369,0.0,0.0,0.0,0.13283225893974304
1676469262.8498232,655,1676469262,848970413,base_footprint,7,-0.039426953940151145,0.00820478961378353,0.00032375251714764026,0.9991887168671905,0.0,0.0,0.0,0.14961817860603333
1676469262.8603175,656,1676469262,859345197,base_footprint,7,-0.03971188687602772,0.008338237784300997,0.00033140012137104167,0.999176325783071,0.0,0.0,0.0,0.14781522750854492
1676469262.8689609,657,1676469262,867805480,base_footprint,7,-0.039814432503410886,0.00839527492268508,0.0003345301759486767,0.9991717662208862,0.0,0.0,0.0,0.1471075415611267
1676469262.8811226,658,1676469262,880161762,base_footprint,7,-0.040049423548077376,0.008488261828067629,0.00034023525073043005,0.9991615871942731,0.0,0.0,0.0,0.14543426036834717
1676469262.8882453,659,1676469262,887509822,base_footprint,7,-0.03526377983059354,0.00305339161939233,0.00010774164403773133,0.9993733691786149,0.0,0.0,0.0,0.15646561980247498
1676469262.8990989,660,1676469262,898117780,base_footprint,7,-0.0354568340717774,0.0030599755092535707,0.00010856581836633428,0.9993665181908749,0.0,0.0,0.0,0.15450900793075562
1676469262.908309,661,1676469262,907292366,base_footprint,7,-0.035513400606704715,0.0031086899890228857,0.00011047037243023593,0.9993643590904153,0.0,0.0,0.0,0.15390197932720184
1676469262.9222488,662,1676469262,920922279,base_footprint,7,-0.03187071618246,0.00584027224293758,0.0001862314456507825,0.9994749191390417,0.0,0.0,0.0,0.16299860179424286
1676469262.9300003,663,1676469262,929466962,base_footprint,7,-0.0319018905669756,0.005845254065345497,0.00018657281234477885,0.9994738953938467,0.0,0.0,0.0,0.16168299317359924
1676469262.9411936,664,1676469262,940101385,base_footprint,7,-0.0319653633047638,0.005782180895404562,0.000184927111146392,0.9994722345992663,0.0,0.0,0.0,0.1612110584974289
1676469262.9504366,665,1676469262,949890851,base_footprint,7,-0.02675121676792818,0.0038018230401231003,0.00010174053900805122,0.999634887442345,0.0,0.0,0.0,0.16873598098754883
1676469262.960064,666,1676469262,958770751,base_footprint,7,-0.026714497253670325,0.0037703572203156665,0.00010075987534138853,0.9996359886930654,0.0,0.0,0.0,0.16755345463752747
1676469262.9682722,667,1676469262,967146635,base_footprint,7,-0.02668210440553735,0.0037384541349436006,9.978604849787525e-05,0.9996369737599333,0.0,0.0,0.0,0.16675034165382385
1676469262.98201,668,1676469262,981175661,base_footprint,7,-0.0266493265166885,0.003661366602907404,9.760827524768192e-05,0.9996381336580907,0.0,0.0,0.0,0.16596810519695282
1676469262.9896173,669,1676469262,988975048,base_footprint,7,-0.023193802465812284,0.00125843074497444,2.9195671250534663e-05,0.9997301951160871,0.0,0.0,0.0,0.16850902140140533
1676469262.9998584,670,1676469262,999013900,base_footprint,7,-0.023004231188796246,0.0011172386739371689,2.5708035983491613e-05,0.999734743051503,0.0,0.0,0.0,0.16701580584049225
1676469263.0116446,671,1676469263,8516550,base_footprint,7,-0.02292905244126056,0.0010339010209459622,2.3712617584589835e-05,0.9997365598199041,0.0,0.0,0.0,0.1662333905696869
1676469263.0225472,672,1676469263,19371271,base_footprint,7,-0.020471388806910205,-0.0003742701808363857,-7.663436884065138e-06,0.9997903690791484,0.0,0.0,0.0,0.16475406289100647
1676469263.0296113,673,1676469263,28092145,base_footprint,7,-0.020309067277473034,-0.0005364401335045666,-1.0896847809496461e-05,0.9997936056504667,0.0,0.0,0.0,0.1635926067829132
1676469263.041193,674,1676469263,40161371,base_footprint,7,-0.020192799286791657,-0.0006731659037570957,-1.3595879200325639e-05,0.9997958779269803,0.0,0.0,0.0,0.16277989745140076
1676469263.0519059,675,1676469263,50420045,base_footprint,7,-0.017760119573887238,-0.0021524281086805703,-3.823349950935248e-05,0.9998399590655284,0.0,0.0,0.0,0.1598365157842636
