Time,header.seq,header.stamp.secs,header.stamp.nsecs,header.frame_id,orientation.x,orientation.y,orientation.z,orientation.w,orientation_covariance_0,orientation_covariance_1,orientation_covariance_2,orientation_covariance_3,orientation_covariance_4,orientation_covariance_5,orientation_covariance_6,orientation_covariance_7,orientation_covariance_8,angular_velocity.x,angular_velocity.y,angular_velocity.z,angular_velocity_covariance_0,angular_velocity_covariance_1,angular_velocity_covariance_2,angular_velocity_covariance_3,angular_velocity_covariance_4,angular_velocity_covariance_5,angular_velocity_covariance_6,angular_velocity_covariance_7,angular_velocity_covariance_8,linear_acceleration.x,linear_acceleration.y,linear_acceleration.z,linear_acceleration_covariance_0,linear_acceleration_covariance_1,linear_acceleration_covariance_2,linear_acceleration_covariance_3,linear_acceleration_covariance_4,linear_acceleration_covariance_5,linear_acceleration_covariance_6,linear_acceleration_covariance_7,linear_acceleration_covariance_8
1676469259.5766606,7098,1676469259,179530688,base_link,0.012800142772550338,0.09672324782373817,0.01405327658007855,-0.9951298302465981,1.0,0.0,0.0,0.0,1.0,0.0,0.0,0.0,1.0,0.0011339026968926191,0.001172902761027217,-0.0003348956233821811,1.2184696791468346e-07,0.0,0.0,0.0,1.2184696791468346e-07,0.0,0.0,0.0,1.2184696791468346e-07,1.8843799829483032,-0.22942215204238775,9.626115798950195,8.999999999999999e-08,0.0,0.0,0.0,8.999999999999999e-08,0.0,0.0,0.0,8.999999999999999e-08
1676469259.5766902,7099,1676469259,194530688,base_link,0.012807036416459902,0.09672695411222909,0.014054920307170482,-0.9951293666312645,1.0,0.0,0.0,0.0,1.0,0.0,0.0,0.0,1.0,0.0011974603403359652,0.0002594345714896917,-0.0006162159843370318,1.2184696791468346e-07,0.0,0.0,0.0,1.2184696791468346e-07,0.0,0.0,0.0,1.2184696791468346e-07,1.9040213823318481,-0.2322829663753498,9.630653381347656,8.999999999999999e-08,0.0,0.0,0.0,8.999999999999999e-08,0.0,0.0,0.0,8.999999999999999e-08
1676469259.5767522,7100,1676469259,219530688,base_link,0.012808474677665339,0.09672967785231411,0.014048682573590847,-0.9951291980438705,1.0,0.0,0.0,0.0,1.0,0.0,0.0,0.0,1.0,-0.0006561486516147852,0.0006016216939315201,0.0012526196660473943,1.2184696791468346e-07,0.0,0.0,0.0,1.2184696791468346e-07,0.0,0.0,0.0,1.2184696791468346e-07,1.9026483297348022,-0.21093186736106756,9.631280899047852,8.999999999999999e-08,0.0,0.0,0.0,8.999999999999999e-08,0.0,0.0,0.0,8.999999999999999e-08
1676469259.5767817,7101,1676469259,239530688,base_link,0.012810916560700939,0.09672721489585426,0.014056142565777304,-0.995129240190719,1.0,0.0,0.0,0.0,1.0,0.0,0.0,0.0,1.0,-0.0017190026119351387,-2.886913716793082e-05,-0.0017819332424551249,1.2184696791468346e-07,0.0,0.0,0.0,1.2184696791468346e-07,0.0,0.0,0.0,1.2184696791468346e-07,1.9077303409576416,-0.2254208177328098,9.611306190490723,8.999999999999999e-08,0.0,0.0,0.0,8.999999999999999e-08,0.0,0.0,0.0,8.999999999999999e-08
1676469259.5768518,7102,1676469259,254530688,base_link,0.012802903391127801,0.09672553429026988,0.014061916684023262,-0.9951294509249615,1.0,0.0,0.0,0.0,1.0,0.0,0.0,0.0,1.0,-0.0021003629080951214,0.0005858150543645024,0.0001196677039843052,1.2184696791468346e-07,0.0,0.0,0.0,1.2184696791468346e-07,0.0,0.0,0.0,1.2184696791468346e-07,1.8819233179092407,-0.23939874768257025,9.625173568725586,8.999999999999999e-08,0.0,0.0,0.0,8.999999999999999e-08,0.0,0.0,0.0,8.999999999999999e-08
1676469259.5769167,7103,1676469259,279529152,base_link,0.012807581691312513,0.09672480725713307,0.014065836340934793,-0.995129408778113,1.0,0.0,0.0,0.0,1.0,0.0,0.0,0.0,1.0,0.0012252137530595064,-0.0014412173768505454,0.00010669071343727427,1.2184696791468346e-07,0.0,0.0,0.0,1.2184696791468346e-07,0.0,0.0,0.0,1.2184696791468346e-07,1.8885834217071533,-0.21565963327884557,9.631274223327637,8.999999999999999e-08,0.0,0.0,0.0,8.999999999999999e-08,0.0,0.0,0.0,8.999999999999999e-08
1676469259.5769327,7104,1676469259,299529152,base_link,0.012822338356647388,0.09672717274900575,0.01407089396275612,-0.9951289030159309,1.0,0.0,0.0,0.0,1.0,0.0,0.0,0.0,1.0,-0.0029551261104643345,-0.0006118362653069199,-0.0005437282961793243,1.2184696791468346e-07,0.0,0.0,0.0,1.2184696791468346e-07,0.0,0.0,0.0,1.2184696791468346e-07,1.8674631118774414,-0.2267759591341007,9.630950927734375,8.999999999999999e-08,0.0,0.0,0.0,8.999999999999999e-08,0.0,0.0,0.0,8.999999999999999e-08
1676469259.577017,7105,1676469259,314529152,base_link,0.012822641287121057,0.09672989385491274,0.014075235088152706,-0.9951286079879913,1.0,0.0,0.0,0.0,1.0,0.0,0.0,0.0,1.0,0.0026508986484259367,0.0001364931231364607,-0.000579018727876246,1.2184696791468346e-07,0.0,0.0,0.0,1.2184696791468346e-07,0.0,0.0,0.0,1.2184696791468346e-07,1.8998879194259644,-0.21669656038284185,9.629559516906738,8.999999999999999e-08,0.0,0.0,0.0,8.999999999999999e-08,0.0,0.0,0.0,8.999999999999999e-08
1676469259.5770593,7106,1676469259,339529152,base_link,0.012817438785507994,0.09672797353912746,0.014075319381849727,-0.9951287765753853,1.0,0.0,0.0,0.0,1.0,0.0,0.0,0.0,1.0,0.001348245656117797,0.0006434906972572207,0.000121487391879782,1.2184696791468346e-07,0.0,0.0,0.0,1.2184696791468346e-07,0.0,0.0,0.0,1.2184696791468346e-07,1.8969221115112305,-0.23839768767356753,9.638504981994629,8.999999999999999e-08,0.0,0.0,0.0,8.999999999999999e-08,0.0,0.0,0.0,8.999999999999999e-08
1676469259.5771496,7107,1676469259,354529152,base_link,0.012824356137019849,0.09673292052547142,0.014076625934153573,-0.9951282286663548,1.0,0.0,0.0,0.0,1.0,0.0,0.0,0.0,1.0,-0.0006808822508901358,-0.0003553704591467975,0.0011378555791452527,1.2184696791468346e-07,0.0,0.0,0.0,1.2184696791468346e-07,0.0,0.0,0.0,1.2184696791468346e-07,1.8948990106582642,-0.24717471003532293,9.622472763061523,8.999999999999999e-08,0.0,0.0,0.0,8.999999999999999e-08,0.0,0.0,0.0,8.999999999999999e-08
1676469259.5772042,7108,1676469259,379527360,base_link,0.012826047279316348,0.09673626593157197,0.014065246285055642,-0.9951280600789606,1.0,0.0,0.0,0.0,1.0,0.0,0.0,0.0,1.0,0.0005156775005161762,0.0006103807827457785,-0.0005572097143158318,1.2184696791468346e-07,0.0,0.0,0.0,1.2184696791468346e-07,0.0,0.0,0.0,1.2184696791468346e-07,1.8992971181869507,-0.2378169596195209,9.634207725524902,8.999999999999999e-08,0.0,0.0,0.0,8.999999999999999e-08,0.0,0.0,0.0,8.999999999999999e-08
1676469259.5772474,7109,1676469259,399527360,base_link,0.012830135523621904,0.09673746711675453,0.014065962781480331,-0.9951278493447181,1.0,0.0,0.0,0.0,1.0,0.0,0.0,0.0,1.0,-0.0026594572700560093,0.0010833481792360544,6.805307930335389e-05,1.2184696791468346e-07,0.0,0.0,0.0,1.2184696791468346e-07,0.0,0.0,0.0,1.2184696791468346e-07,1.8743964433670044,-0.22241522371768835,9.628439903259277,8.999999999999999e-08,0.0,0.0,0.0,8.999999999999999e-08,0.0,0.0,0.0,8.999999999999999e-08
1676469259.577333,7110,1676469259,414527360,base_link,0.0128270166568321,0.0967357074858292,0.014065119844510109,-0.9951281022258092,1.0,0.0,0.0,0.0,1.0,0.0,0.0,0.0,1.0,-0.0028320900164544582,-0.00034711556509137154,-0.00017920602113008494,1.2184696791468346e-07,0.0,0.0,0.0,1.2184696791468346e-07,0.0,0.0,0.0,1.2184696791468346e-07,1.8888046741485596,-0.22892975807189825,9.625757217407227,8.999999999999999e-08,0.0,0.0,0.0,8.999999999999999e-08,0.0,0.0,0.0,8.999999999999999e-08
1676469259.5773854,7111,1676469259,439527360,base_link,0.012837764103202377,0.09673366336367642,0.014070556787968036,-0.9951280600789607,1.0,0.0,0.0,0.0,1.0,0.0,0.0,0.0,1.0,0.002105725696310401,-6.821111310273405e-05,0.0003665634721983224,1.2184696791468346e-07,0.0,0.0,0.0,1.2184696791468346e-07,0.0,0.0,0.0,1.2184696791468346e-07,1.8819632530212402,-0.22645483911037328,9.599247932434082,8.999999999999999e-08,0.0,0.0,0.0,8.999999999999999e-08,0.0,0.0,0.0,8.999999999999999e-08
1676469259.5774512,7112,1676469259,459527360,base_link,0.012846404207147109,0.09673520172364707,0.014064824816570532,-0.9951278914915666,1.0,0.0,0.0,0.0,1.0,0.0,0.0,0.0,1.0,-0.001839453587308526,0.00015933474060148003,0.00011317993630655109,1.2184696791468346e-07,0.0,0.0,0.0,1.2184696791468346e-07,0.0,0.0,0.0,1.2184696791468346e-07,1.8942688703536987,-0.2268132567405689,9.61196517944336,8.999999999999999e-08,0.0,0.0,0.0,8.999999999999999e-08,0.0,0.0,0.0,8.999999999999999e-08
1676469259.5775366,7113,1676469259,474525568,base_link,0.012848187545674725,0.0967345774234535,0.014062633180447957,-0.9951279757852637,1.0,0.0,0.0,0.0,1.0,0.0,0.0,0.0,1.0,0.002018423518165946,0.0010755499824881554,-0.00011288444511592402,1.2184696791468346e-07,0.0,0.0,0.0,1.2184696791468346e-07,0.0,0.0,0.0,1.2184696791468346e-07,1.870811939239502,-0.2110725194215763,9.612054824829102,8.999999999999999e-08,0.0,0.0,0.0,8.999999999999999e-08,0.0,0.0,0.0,8.999999999999999e-08
1676469259.580524,7114,1676469259,498525568,base_link,0.012843514513846079,0.09673023102970082,0.014060525838022402,-0.9951284815474458,1.0,0.0,0.0,0.0,1.0,0.0,0.0,0.0,1.0,0.0005913630593568087,0.00038126588333398125,0.0016310480423271656,1.2184696791468346e-07,0.0,0.0,0.0,1.2184696791468346e-07,0.0,0.0,0.0,1.2184696791468346e-07,1.891274333000183,-0.2325026392936695,9.612076759338379,8.999999999999999e-08,0.0,0.0,0.0,8.999999999999999e-08,0.0,0.0,0.0,8.999999999999999e-08
1676469259.5892022,7115,1676469259,518525568,base_link,0.012848774967375846,0.09673070254756853,0.014061705949780711,-0.9951283129600518,1.0,0.0,0.0,0.0,1.0,0.0,0.0,0.0,1.0,0.0020915509667247534,-0.001034313696436584,-0.00016008174861781286,1.2184696791468346e-07,0.0,0.0,0.0,1.2184696791468346e-07,0.0,0.0,0.0,1.2184696791468346e-07,1.882150650024414,-0.19938540458679083,9.621454238891602,8.999999999999999e-08,0.0,0.0,0.0,8.999999999999999e-08,0.0,0.0,0.0,8.999999999999999e-08
1676469259.5895798,7116,1676469259,533525568,base_link,0.012860149348117722,0.09673460639941185,0.014067817242814818,-0.9951277650510211,1.0,0.0,0.0,0.0,1.0,0.0,0.0,0.0,1.0,0.0007994875777512789,-0.0007926691323518754,-0.0005225298227742313,1.2184696791468346e-07,0.0,0.0,0.0,1.2184696791468346e-07,0.0,0.0,0.0,1.2184696791468346e-07,1.8757882118225098,-0.22885411977767828,9.61480712890625,8.999999999999999e-08,0.0,0.0,0.0,8.999999999999999e-08,0.0,0.0,0.0,8.999999999999999e-08
1676469259.5915804,7117,1676469259,558525568,base_link,0.012860288959553417,0.09673185368336848,0.01407026176002846,-0.9951279336384151,1.0,0.0,0.0,0.0,1.0,0.0,0.0,0.0,1.0,-0.0012771388282999396,0.0007940002251416445,0.00041108616278506805,1.2184696791468346e-07,0.0,0.0,0.0,1.2184696791468346e-07,0.0,0.0,0.0,1.2184696791468346e-07,1.8921936750411987,-0.20234875380992773,9.577268600463867,8.999999999999999e-08,0.0,0.0,0.0,8.999999999999999e-08,0.0,0.0,0.0,8.999999999999999e-08
1676469259.5991714,7118,1676469259,578524032,base_link,0.0128471048985036,0.09673379507257802,0.014069671704149304,-0.9951279336384151,1.0,0.0,0.0,0.0,1.0,0.0,0.0,0.0,1.0,0.0027557217981666327,0.0006156923482194543,0.00031681198743171984,1.2184696791468346e-07,0.0,0.0,0.0,1.2184696791468346e-07,0.0,0.0,0.0,1.2184696791468346e-07,1.8844083547592163,-0.19543193280696752,9.598554611206055,8.999999999999999e-08,0.0,0.0,0.0,8.999999999999999e-08,0.0,0.0,0.0,8.999999999999999e-08
1676469259.6033363,7119,1676469259,598524032,base_link,0.012848366669780897,0.0967332497977254,0.014071020403301658,-0.9951279336384151,1.0,0.0,0.0,0.0,1.0,0.0,0.0,0.0,1.0,0.0013997310306876898,0.00015882414299994713,0.0003430887882132083,1.2184696791468346e-07,0.0,0.0,0.0,1.2184696791468346e-07,0.0,0.0,0.0,1.2184696791468346e-07,1.8858110904693604,-0.22711592912673834,9.624746322631836,8.999999999999999e-08,0.0,0.0,0.0,8.999999999999999e-08,0.0,0.0,0.0,8.999999999999999e-08
1676469259.6204355,7120,1676469259,613524032,base_link,0.012857725904328349,0.09673474337666951,0.014073759948454823,-0.9951276386104756,1.0,0.0,0.0,0.0,1.0,0.0,0.0,0.0,1.0,0.0005799259524792433,0.0006310812896117568,-0.00014160331920720645,1.2184696791468346e-07,0.0,0.0,0.0,1.2184696791468346e-07,0.0,0.0,0.0,1.2184696791468346e-07,1.8712753057479858,-0.21501956880092504,9.606819152832031,8.999999999999999e-08,0.0,0.0,0.0,8.999999999999999e-08,0.0,0.0,0.0,8.999999999999999e-08
1676469259.642504,7121,1676469259,638524032,base_link,0.012864614279881845,0.09673222773664902,0.014073464920515245,-0.9951278493447181,1.0,0.0,0.0,0.0,1.0,0.0,0.0,0.0,1.0,-0.003500254824757576,-9.290920570492736e-05,0.0006659756181761622,1.2184696791468346e-07,0.0,0.0,0.0,1.2184696791468346e-07,0.0,0.0,0.0,1.2184696791468346e-07,1.8745492696762085,-0.22205305099487188,9.620763778686523,8.999999999999999e-08,0.0,0.0,0.0,8.999999999999999e-08,0.0,0.0,0.0,8.999999999999999e-08
1676469259.6615984,7122,1676469259,658524032,base_link,0.012862201372804596,0.09672229161711257,0.014068660179785034,-0.9951289451627794,1.0,0.0,0.0,0.0,1.0,0.0,0.0,0.0,1.0,0.0010989487636834383,0.0015233773738145828,-0.0005357443587854507,1.2184696791468346e-07,0.0,0.0,0.0,1.2184696791468346e-07,0.0,0.0,0.0,1.2184696791468346e-07,1.8916001319885254,-0.22787836194038272,9.639246940612793,8.999999999999999e-08,0.0,0.0,0.0,8.999999999999999e-08,0.0,0.0,0.0,8.999999999999999e-08
1676469259.6835814,7123,1676469259,678522496,base_link,0.012860115103803306,0.0967170127243366,0.014068449445542478,-0.9951294087781131,1.0,0.0,0.0,0.0,1.0,0.0,0.0,0.0,1.0,0.002531310310587287,0.0015222218353301287,0.0003734359343070535,1.2184696791468346e-07,0.0,0.0,0.0,1.2184696791468346e-07,0.0,0.0,0.0,1.2184696791468346e-07,1.890533447265625,-0.21242801845073583,9.60351276397705,8.999999999999999e-08,0.0,0.0,0.0,8.999999999999999e-08,0.0,0.0,0.0,8.999999999999999e-08
1676469259.7032423,7124,1676469259,698522496,base_link,0.012864785501453918,0.0967210561876156,0.014071188990695697,-0.9951289451627794,1.0,0.0,0.0,0.0,1.0,0.0,0.0,0.0,1.0,-2.8581824153661728e-05,-0.0007293694652616979,-0.0012299352092668414,1.2184696791468346e-07,0.0,0.0,0.0,1.2184696791468346e-07,0.0,0.0,0.0,1.2184696791468346e-07,1.8897061347961426,-0.25169804692268255,9.626516342163086,8.999999999999999e-08,0.0,0.0,0.0,8.999999999999999e-08,0.0,0.0,0.0,8.999999999999999e-08
1676469259.7215106,7125,1676469259,719522496,base_link,0.01286747499722452,0.09672369826818163,0.01407123113754421,-0.9951286501348399,1.0,0.0,0.0,0.0,1.0,0.0,0.0,0.0,1.0,-0.0013109755236655474,-0.00150675920303911,-0.0010824144119396804,1.2184696791468346e-07,0.0,0.0,0.0,1.2184696791468346e-07,0.0,0.0,0.0,1.2184696791468346e-07,1.8806604146957397,-0.2095538526773441,9.623759269714355,8.999999999999999e-08,0.0,0.0,0.0,8.999999999999999e-08,0.0,0.0,0.0,8.999999999999999e-08
1676469259.7423577,7126,1676469259,738522496,base_link,0.012855323533963228,0.09672482833055733,0.014072158368211454,-0.9951286501348399,1.0,0.0,0.0,0.0,1.0,0.0,0.0,0.0,1.0,0.0011945588048547506,-6.175483576953425e-05,-0.0010656168451532722,1.2184696791468346e-07,0.0,0.0,0.0,1.2184696791468346e-07,0.0,0.0,0.0,1.2184696791468346e-07,1.9121006727218628,-0.22684964537620428,9.63105583190918,8.999999999999999e-08,0.0,0.0,0.0,8.999999999999999e-08,0.0,0.0,0.0,8.999999999999999e-08
1676469259.762877,7127,1676469259,758522496,base_link,0.012848724917993238,0.0967269383071609,0.014074687179122063,-0.9951284815474458,1.0,0.0,0.0,0.0,1.0,0.0,0.0,0.0,1.0,0.003582970006391406,-0.0012656168546527624,0.00018250479479320364,1.2184696791468346e-07,0.0,0.0,0.0,1.2184696791468346e-07,0.0,0.0,0.0,1.2184696791468346e-07,1.8844549655914307,-0.2239051163196552,9.610641479492188,8.999999999999999e-08,0.0,0.0,0.0,8.999999999999999e-08,0.0,0.0,0.0,8.999999999999999e-08
1676469259.7816553,7128,1676469259,778520960,base_link,0.012861988004384015,0.09673420073599494,0.014077005255790174,-0.995127596463627,1.0,0.0,0.0,0.0,1.0,0.0,0.0,0.0,1.0,-0.0007869440596550703,-0.002104351297020912,-0.0006499719456769524,1.2184696791468346e-07,0.0,0.0,0.0,1.2184696791468346e-07,0.0,0.0,0.0,1.2184696791468346e-07,1.8897943496704102,-0.21586272120475652,9.596875190734863,8.999999999999999e-08,0.0,0.0,0.0,8.999999999999999e-08,0.0,0.0,0.0,8.999999999999999e-08
1676469259.8036988,7129,1676469259,798520960,base_link,0.01286743285037601,0.09673465644879446,0.014081009206398725,-0.9951274700230816,1.0,0.0,0.0,0.0,1.0,0.0,0.0,0.0,1.0,0.0017193940002471209,0.0015032009687274694,-0.00040525337681174295,1.2184696791468346e-07,0.0,0.0,0.0,1.2184696791468346e-07,0.0,0.0,0.0,1.2184696791468346e-07,1.8961007595062256,-0.2345286309719074,9.624422073364258,8.999999999999999e-08,0.0,0.0,0.0,8.999999999999999e-08,0.0,0.0,0.0,8.999999999999999e-08
1676469259.8220537,7130,1676469259,818520960,base_link,0.012870369958881614,0.09673902128179337,0.014082484346096614,-0.9951270064077479,1.0,0.0,0.0,0.0,1.0,0.0,0.0,0.0,1.0,-0.0003705273848026991,0.0011467726435512302,-0.0022338135167956352,1.2184696791468346e-07,0.0,0.0,0.0,1.2184696791468346e-07,0.0,0.0,0.0,1.2184696791468346e-07,1.876281499862671,-0.22859820723533514,9.62149429321289,8.999999999999999e-08,0.0,0.0,0.0,8.999999999999999e-08,0.0,0.0,0.0,8.999999999999999e-08
1676469259.8431795,7131,1676469259,838520960,base_link,0.012871629095980877,0.09673747765346666,0.014078606836033597,-0.9951271749951419,1.0,0.0,0.0,0.0,1.0,0.0,0.0,0.0,1.0,0.0027379945386201143,0.002161166165024042,-0.0007032076828181746,1.2184696791468346e-07,0.0,0.0,0.0,1.2184696791468346e-07,0.0,0.0,0.0,1.2184696791468346e-07,1.8965157270431519,-0.22346517443656805,9.624670028686523,8.999999999999999e-08,0.0,0.0,0.0,8.999999999999999e-08,0.0,0.0,0.0,8.999999999999999e-08
1676469259.86155,7132,1676469259,858520960,base_link,0.01287083620839327,0.09673748028764469,0.014079955535185951,-0.9951271749951419,1.0,0.0,0.0,0.0,1.0,0.0,0.0,0.0,1.0,0.0022158597130328417,-0.0010610901517793536,-0.00019818599685095237,1.2184696791468346e-07,0.0,0.0,0.0,1.2184696791468346e-07,0.0,0.0,0.0,1.2184696791468346e-07,1.9077905416488647,-0.24081239104270818,9.611592292785645,8.999999999999999e-08,0.0,0.0,0.0,8.999999999999999e-08,0.0,0.0,0.0,8.999999999999999e-08
1676469259.8847508,7133,1676469259,878519424,base_link,0.012875314311047548,0.09672490999007632,0.014076035878274417,-0.9951283972537488,1.0,0.0,0.0,0.0,1.0,0.0,0.0,0.0,1.0,-0.003015157300978899,7.747509516775634e-05,0.0021332241594791412,1.2184696791468346e-07,0.0,0.0,0.0,1.2184696791468346e-07,0.0,0.0,0.0,1.2184696791468346e-07,1.9006801843643188,-0.2227359563112247,9.634374618530273,8.999999999999999e-08,0.0,0.0,0.0,8.999999999999999e-08,0.0,0.0,0.0,8.999999999999999e-08
1676469259.9024646,7134,1676469259,898519424,base_link,0.012875035088176166,0.09672950926492006,0.01407966050724637,-0.9951278914915666,1.0,0.0,0.0,0.0,1.0,0.0,0.0,0.0,1.0,-0.0010706954635679722,-0.0005558799603022635,-0.00028288154862821097,1.2184696791468346e-07,0.0,0.0,0.0,1.2184696791468346e-07,0.0,0.0,0.0,1.2184696791468346e-07,1.9073808193206787,-0.21808651089668157,9.614912033081055,8.999999999999999e-08,0.0,0.0,0.0,8.999999999999999e-08,0.0,0.0,0.0,8.999999999999999e-08
1676469259.9222922,7135,1676469259,918519424,base_link,0.01286310489586955,0.09672524453068637,0.014074897913364618,-0.9951285236942943,1.0,0.0,0.0,0.0,1.0,0.0,0.0,0.0,1.0,0.003147060750052333,-0.0004116109339520334,0.0010528013808652759,1.2184696791468346e-07,0.0,0.0,0.0,1.2184696791468346e-07,0.0,0.0,0.0,1.2184696791468346e-07,1.8908970355987549,-0.23706409335136297,9.625205993652344,8.999999999999999e-08,0.0,0.0,0.0,8.999999999999999e-08,0.0,0.0,0.0,8.999999999999999e-08
1676469259.941454,7136,1676469259,938519424,base_link,0.012864598474813652,0.09671942036305778,0.014078311808094011,-0.9951289873096278,1.0,0.0,0.0,0.0,1.0,0.0,0.0,0.0,1.0,0.001359384274110198,0.0008350030984729526,-0.0014201615704223514,1.2184696791468346e-07,0.0,0.0,0.0,1.2184696791468346e-07,0.0,0.0,0.0,1.2184696791468346e-07,1.888672113418579,-0.23737898468971136,9.620832443237305,8.999999999999999e-08,0.0,0.0,0.0,8.999999999999999e-08,0.0,0.0,0.0,8.999999999999999e-08
1676469259.9624107,7137,1676469259,958519424,base_link,0.012862182933558376,0.09671947568079645,0.014086024681371536,-0.9951289451627794,1.0,0.0,0.0,0.0,1.0,0.0,0.0,0.0,1.0,-0.002056476194411516,-0.0012997048906981945,-2.1425512386485775e-05,1.2184696791468346e-07,0.0,0.0,0.0,1.2184696791468346e-07,0.0,0.0,0.0,1.2184696791468346e-07,1.9080027341842651,-0.2342866659164417,9.621733665466309,8.999999999999999e-08,0.0,0.0,0.0,8.999999999999999e-08,0.0,0.0,0.0,8.999999999999999e-08
1676469259.9848552,7138,1676469259,978517888,base_link,0.012852275789980284,0.09671546382765381,0.01408846919858512,-0.9951293666312645,1.0,0.0,0.0,0.0,1.0,0.0,0.0,0.0,1.0,-0.0007166028954088688,0.001285690814256668,0.0003199445491190998,1.2184696791468346e-07,0.0,0.0,0.0,1.2184696791468346e-07,0.0,0.0,0.0,1.2184696791468346e-07,1.8916471004486084,-0.2262505292892444,9.643239974975586,8.999999999999999e-08,0.0,0.0,0.0,8.999999999999999e-08,0.0,0.0,0.0,8.999999999999999e-08
1676469260.0014212,7139,1676469259,998517888,base_link,0.012845727223392901,0.09670709240986833,0.014089607163494916,-0.9951302517150832,1.0,0.0,0.0,0.0,1.0,0.0,0.0,0.0,1.0,0.0020006701815873384,0.0016492530703544617,0.00013373667025007289,1.2184696791468346e-07,0.0,0.0,0.0,1.2184696791468346e-07,0.0,0.0,0.0,1.2184696791468346e-07,1.9082709550857544,-0.226266101002692,9.631789207458496,8.999999999999999e-08,0.0,0.0,0.0,8.999999999999999e-08,0.0,0.0,0.0,8.999999999999999e-08
1676469260.0216894,7140,1676469260,18517888,base_link,0.012845887908252848,0.09670700548199328,0.014092262414951113,-0.9951302095682347,1.0,0.0,0.0,0.0,1.0,0.0,0.0,0.0,1.0,0.0019898677710443735,0.00012123910710215548,-0.0016491163987666368,1.2184696791468346e-07,0.0,0.0,0.0,1.2184696791468346e-07,0.0,0.0,0.0,1.2184696791468346e-07,1.8743852376937866,-0.23629775643348577,9.625805854797363,8.999999999999999e-08,0.0,0.0,0.0,8.999999999999999e-08,0.0,0.0,0.0,8.999999999999999e-08
1676469260.043103,7141,1676469260,38517888,base_link,0.012849736442357498,0.09670650762234526,0.014093442526709422,-0.9951302095682347,1.0,0.0,0.0,0.0,1.0,0.0,0.0,0.0,1.0,-0.0023288140073418617,-0.00011397874914109715,-0.0006516058929264545,1.2184696791468346e-07,0.0,0.0,0.0,1.2184696791468346e-07,0.0,0.0,0.0,1.2184696791468346e-07,1.8832275867462158,-0.2478197515010822,9.601750373840332,8.999999999999999e-08,0.0,0.0,0.0,8.999999999999999e-08,0.0,0.0,0.0,8.999999999999999e-08
1676469260.0615983,7142,1676469260,58517888,base_link,0.012848066373485257,0.09670309899597193,0.014088806373373204,-0.9951306310367198,1.0,0.0,0.0,0.0,1.0,0.0,0.0,0.0,1.0,-0.001806803746148944,-0.0008753305883146822,-0.00012760341633111228,1.2184696791468346e-07,0.0,0.0,0.0,1.2184696791468346e-07,0.0,0.0,0.0,1.2184696791468346e-07,1.8809009790420532,-0.24584177136421087,9.604169845581055,8.999999999999999e-08,0.0,0.0,0.0,8.999999999999999e-08,0.0,0.0,0.0,8.999999999999999e-08
1676469260.0821753,7143,1676469260,78516096,base_link,0.012848227058345206,0.09670151585497473,0.01408914354816129,-0.9951307996241139,1.0,0.0,0.0,0.0,1.0,0.0,0.0,0.0,1.0,0.0013940057251602411,-4.456413444131621e-05,-0.0006760534597560763,1.2184696791468346e-07,0.0,0.0,0.0,1.2184696791468346e-07,0.0,0.0,0.0,1.2184696791468346e-07,1.8918755054473877,-0.21761871874332311,9.613016128540039,8.999999999999999e-08,0.0,0.0,0.0,8.999999999999999e-08,0.0,0.0,0.0,8.999999999999999e-08
1676469260.1028256,7144,1676469260,98516096,base_link,0.01284944931695202,0.09669483557948576,0.014092894617678774,-0.9951313475331445,1.0,0.0,0.0,0.0,1.0,0.0,0.0,0.0,1.0,0.0008624454494565725,-0.0003735559294000269,-0.0008439198136329651,1.2184696791468346e-07,0.0,0.0,0.0,1.2184696791468346e-07,0.0,0.0,0.0,1.2184696791468346e-07,1.8738164901733398,-0.24953234195709112,9.615981101989746,8.999999999999999e-08,0.0,0.0,0.0,8.999999999999999e-08,0.0,0.0,0.0,8.999999999999999e-08
1676469260.1206336,7145,1676469260,118516096,base_link,0.012861703513156561,0.09669787015257855,0.01408952286979789,-0.9951310103583564,1.0,0.0,0.0,0.0,1.0,0.0,0.0,0.0,1.0,-0.0012219888158142567,-0.0013266897294670343,0.0008466619765385986,1.2184696791468346e-07,0.0,0.0,0.0,1.2184696791468346e-07,0.0,0.0,0.0,1.2184696791468346e-07,1.8845851421356201,-0.22064264118671298,9.634478569030762,8.999999999999999e-08,0.0,0.0,0.0,8.999999999999999e-08,0.0,0.0,0.0,8.999999999999999e-08
1676469260.1417086,7146,1676469260,138516096,base_link,0.012857080530710528,0.09669505421626241,0.014095254841195393,-0.9951312632394474,1.0,0.0,0.0,0.0,1.0,0.0,0.0,0.0,1.0,-0.00057957973331213,0.0011160795111209154,0.0003171537246089427,1.2184696791468346e-07,0.0,0.0,0.0,1.2184696791468346e-07,0.0,0.0,0.0,1.2184696791468346e-07,1.900724172592163,-0.2324561178684223,9.627825736999512,8.999999999999999e-08,0.0,0.0,0.0,8.999999999999999e-08,0.0,0.0,0.0,8.999999999999999e-08
1676469260.1626039,7147,1676469260,158516096,base_link,0.012848669600254572,0.09668929326890659,0.014092515296042172,-0.9951318954421752,1.0,0.0,0.0,0.0,1.0,0.0,0.0,0.0,1.0,0.0008817126508802176,0.0011869126465171576,-0.0007177757215686144,1.2184696791468346e-07,0.0,0.0,0.0,1.2184696791468346e-07,0.0,0.0,0.0,1.2184696791468346e-07,1.8998174667358398,-0.21583646535873297,9.626093864440918,8.999999999999999e-08,0.0,0.0,0.0,8.999999999999999e-08,0.0,0.0,0.0,8.999999999999999e-08
1676469260.1809156,7148,1676469260,178514816,base_link,0.012845095020665236,0.09669855767304489,0.014096139925014127,-0.995131052505205,1.0,0.0,0.0,0.0,1.0,0.0,0.0,0.0,1.0,0.004075857810676098,-0.0008445816347375511,0.000578398583456874,1.2184696791468346e-07,0.0,0.0,0.0,1.2184696791468346e-07,0.0,0.0,0.0,1.2184696791468346e-07,1.8755137920379639,-0.23503103852271917,9.622940063476562,8.999999999999999e-08,0.0,0.0,0.0,8.999999999999999e-08,0.0,0.0,0.0,8.999999999999999e-08
1676469260.2018616,7149,1676469260,198514816,base_link,0.012853318924480927,0.09669967983288648,0.014096940715135838,-0.9951308417709623,1.0,0.0,0.0,0.0,1.0,0.0,0.0,0.0,1.0,-0.0030296233016997576,-0.0011488177115097642,-0.00048433174379169925,1.2184696791468346e-07,0.0,0.0,0.0,1.2184696791468346e-07,0.0,0.0,0.0,1.2184696791468346e-07,1.9011383056640625,-0.2407680451869953,9.627449035644531,8.999999999999999e-08,0.0,0.0,0.0,8.999999999999999e-08,0.0,0.0,0.0,8.999999999999999e-08
1676469260.2230973,7150,1676469260,218514816,base_link,0.012850497719808729,0.0966973801954646,0.014095971337620082,-0.995131052505205,1.0,0.0,0.0,0.0,1.0,0.0,0.0,0.0,1.0,0.003531416179612279,0.0004553189501166345,0.0009015572723001241,1.2184696791468346e-07,0.0,0.0,0.0,1.2184696791468346e-07,0.0,0.0,0.0,1.2184696791468346e-07,1.8965035676956177,-0.23450332880020022,9.638487815856934,8.999999999999999e-08,0.0,0.0,0.0,8.999999999999999e-08,0.0,0.0,0.0,8.999999999999999e-08
1676469260.2410989,7151,1676469260,238514816,base_link,0.012839125973244886,0.09669534924420199,0.014098205120591168,-0.9951313475331446,1.0,0.0,0.0,0.0,1.0,0.0,0.0,0.0,1.0,0.002610043389722705,0.0015650636050850153,-0.0004512383311521264,1.2184696791468346e-07,0.0,0.0,0.0,1.2184696791468346e-07,0.0,0.0,0.0,1.2184696791468346e-07,1.9152617454528809,-0.23809811472892645,9.628474235534668,8.999999999999999e-08,0.0,0.0,0.0,8.999999999999999e-08,0.0,0.0,0.0,8.999999999999999e-08
1676469260.2624342,7152,1676469260,258514816,base_link,0.012838517478119508,0.09669736965875247,0.014103389182957973,-0.995131136798902,1.0,0.0,0.0,0.0,1.0,0.0,0.0,0.0,1.0,0.0010607114527374506,-0.00040322332642972464,0.00033263748628087347,1.2184696791468346e-07,0.0,0.0,0.0,1.2184696791468346e-07,0.0,0.0,0.0,1.2184696791468346e-07,1.884948968887329,-0.22457683086395144,9.636331558227539,8.999999999999999e-08,0.0,0.0,0.0,8.999999999999999e-08,0.0,0.0,0.0,8.999999999999999e-08
1676469260.2807617,7153,1676469260,278513536,base_link,0.012842247474212722,0.0966968428231461,0.014104569294716283,-0.995131136798902,1.0,0.0,0.0,0.0,1.0,0.0,0.0,0.0,1.0,0.0005864850245416164,-0.0012820347910746932,0.00032785584335215406,1.2184696791468346e-07,0.0,0.0,0.0,1.2184696791468346e-07,0.0,0.0,0.0,1.2184696791468346e-07,1.9040653705596924,-0.20052410662174108,9.60623550415039,8.999999999999999e-08,0.0,0.0,0.0,8.999999999999999e-08,0.0,0.0,0.0,8.999999999999999e-08
1676469260.3026133,7154,1676469260,298513536,base_link,0.012847149679530146,0.09669764097908977,0.014110132678719743,-0.9951308839178109,1.0,0.0,0.0,0.0,1.0,0.0,0.0,0.0,1.0,-0.0028944287914782763,-0.0018300923984497786,0.000446025427663699,1.2184696791468346e-07,0.0,0.0,0.0,1.2184696791468346e-07,0.0,0.0,0.0,1.2184696791468346e-07,1.8955498933792114,-0.23995563387870672,9.600898742675781,8.999999999999999e-08,0.0,0.0,0.0,8.999999999999999e-08,0.0,0.0,0.0,8.999999999999999e-08
1676469260.3229163,7155,1676469260,318513536,base_link,0.012840148034321269,0.09669646613568753,0.014112956517569985,-0.9951310946520535,1.0,0.0,0.0,0.0,1.0,0.0,0.0,0.0,1.0,0.002087507164105773,-0.0004511767183430493,-4.293880192562932e-05,1.2184696791468346e-07,0.0,0.0,0.0,1.2184696791468346e-07,0.0,0.0,0.0,1.2184696791468346e-07,1.8765711784362793,-0.21478678286075475,9.617204666137695,8.999999999999999e-08,0.0,0.0,0.0,8.999999999999999e-08,0.0,0.0,0.0,8.999999999999999e-08
1676469260.3409534,7156,1676469260,338513536,base_link,0.012834811189628583,0.09669610261911912,0.014107140252475456,-0.9951312632394474,1.0,0.0,0.0,0.0,1.0,0.0,0.0,0.0,1.0,0.002139084739610553,0.0007182861445471644,-0.0002626794739626349,1.2184696791468346e-07,0.0,0.0,0.0,1.2184696791468346e-07,0.0,0.0,0.0,1.2184696791468346e-07,1.885960340499878,-0.221752420067786,9.595328330993652,8.999999999999999e-08,0.0,0.0,0.0,8.999999999999999e-08,0.0,0.0,0.0,8.999999999999999e-08
1676469260.3626857,7157,1676469260,358513536,base_link,0.012835609345572254,0.09669618954699417,0.01411156567156912,-0.995131136798902,1.0,0.0,0.0,0.0,1.0,0.0,0.0,0.0,1.0,-0.000343492953106761,0.00012816768139600762,0.0005875354399904609,1.2184696791468346e-07,0.0,0.0,0.0,1.2184696791468346e-07,0.0,0.0,0.0,1.2184696791468346e-07,1.8835461139678955,-0.21369192004203677,9.646818161010742,8.999999999999999e-08,0.0,0.0,0.0,8.999999999999999e-08,0.0,0.0,0.0,8.999999999999999e-08
1676469260.3818078,7158,1676469260,378512256,base_link,0.012836241548299918,0.09669361858923502,0.014116960468178534,-0.995131305386296,1.0,0.0,0.0,0.0,1.0,0.0,0.0,0.0,1.0,-0.0013724456075578928,-0.00010929745621979247,-0.0008905521826818585,1.2184696791468346e-07,0.0,0.0,0.0,1.2184696791468346e-07,0.0,0.0,0.0,1.2184696791468346e-07,1.899348258972168,-0.21285830438136938,9.62923812866211,8.999999999999999e-08,0.0,0.0,0.0,8.999999999999999e-08,0.0,0.0,0.0,8.999999999999999e-08
1676469260.401979,7159,1676469260,398512256,base_link,0.01283345722212017,0.09669028108566856,0.014115401034783624,-0.9951316847079327,1.0,0.0,0.0,0.0,1.0,0.0,0.0,0.0,1.0,0.0005962299183011055,0.0009440884459763764,-0.0006905577611178161,1.2184696791468346e-07,0.0,0.0,0.0,1.2184696791468346e-07,0.0,0.0,0.0,1.2184696791468346e-07,1.9242963790893555,-0.2242725491523731,9.628482818603516,8.999999999999999e-08,0.0,0.0,0.0,8.999999999999999e-08,0.0,0.0,0.0,8.999999999999999e-08
1676469260.4230847,7160,1676469260,418512256,base_link,0.012839004801055414,0.09668762056585631,0.014120458656604894,-0.9951317690016296,1.0,0.0,0.0,0.0,1.0,0.0,0.0,0.0,1.0,-0.0020916075445711613,-0.0002372332965023816,-0.0003145990194752812,1.2184696791468346e-07,0.0,0.0,0.0,1.2184696791468346e-07,0.0,0.0,0.0,1.2184696791468346e-07,1.8825596570968628,-0.21006427705287814,9.637687683105469,8.999999999999999e-08,0.0,0.0,0.0,8.999999999999999e-08,0.0,0.0,0.0,8.999999999999999e-08
1676469260.4408462,7161,1676469260,438512256,base_link,0.012841064728276386,0.09669304170424602,0.014122650292727471,-0.9951312632394474,1.0,0.0,0.0,0.0,1.0,0.0,0.0,0.0,1.0,0.00016962410882115364,-0.0008798094349913301,-0.0013717688852921128,1.2184696791468346e-07,0.0,0.0,0.0,1.2184696791468346e-07,0.0,0.0,0.0,1.2184696791468346e-07,1.8822897672653198,-0.20019704103469732,9.627935409545898,8.999999999999999e-08,0.0,0.0,0.0,8.999999999999999e-08,0.0,0.0,0.0,8.999999999999999e-08
1676469260.4624224,7162,1676469260,458512256,base_link,0.012846206643794714,0.09669856294140095,0.0141296045227318,-0.9951305467430228,1.0,0.0,0.0,0.0,1.0,0.0,0.0,0.0,1.0,-0.00280279153957963,-0.00040787219768390065,-0.00047260810970328743,1.2184696791468346e-07,0.0,0.0,0.0,1.2184696791468346e-07,0.0,0.0,0.0,1.2184696791468346e-07,1.8899949789047241,-0.219511106610297,9.624616622924805,8.999999999999999e-08,0.0,0.0,0.0,8.999999999999999e-08,0.0,0.0,0.0,8.999999999999999e-08
1676469260.486909,7163,1676469260,478510976,base_link,0.012841636344909311,0.09669180627474903,0.014131627571460272,-0.995131221092599,1.0,0.0,0.0,0.0,1.0,0.0,0.0,0.0,1.0,0.0009038911666721106,-0.0001166079891845585,-0.0008858069777488708,1.2184696791468346e-07,0.0,0.0,0.0,1.2184696791468346e-07,0.0,0.0,0.0,1.2184696791468346e-07,1.8962661027908325,-0.22620092332363012,9.622429847717285,8.999999999999999e-08,0.0,0.0,0.0,8.999999999999999e-08,0.0,0.0,0.0,8.999999999999999e-08
1676469260.5012918,7164,1676469260,498510976,base_link,0.012836929068766255,0.09669766205251402,0.014133819207582849,-0.9951306310367198,1.0,0.0,0.0,0.0,1.0,0.0,0.0,0.0,1.0,0.0027560435701161623,6.572948768734921e-05,-0.0009072127286344767,1.2184696791468346e-07,0.0,0.0,0.0,1.2184696791468346e-07,0.0,0.0,0.0,1.2184696791468346e-07,1.8969851732254028,-0.2078584432601917,9.620501518249512,8.999999999999999e-08,0.0,0.0,0.0,8.999999999999999e-08,0.0,0.0,0.0,8.999999999999999e-08
1676469260.5226545,7165,1676469260,518510976,base_link,0.01284616186276817,0.0966997562240494,0.014141574227708887,-0.9951302095682347,1.0,0.0,0.0,0.0,1.0,0.0,0.0,0.0,1.0,-0.0003973816055804491,0.00026320188771933333,0.0014077515807002783,1.2184696791468346e-07,0.0,0.0,0.0,1.2184696791468346e-07,0.0,0.0,0.0,1.2184696791468346e-07,1.8899242877960205,-0.20651605725288275,9.619197845458984,8.999999999999999e-08,0.0,0.0,0.0,8.999999999999999e-08,0.0,0.0,0.0,8.999999999999999e-08
1676469260.544621,7166,1676469260,538510976,base_link,0.012841905031068574,0.0966980387399726,0.01414098417182973,-0.9951304624493258,1.0,0.0,0.0,0.0,1.0,0.0,0.0,0.0,1.0,0.0005052222404628992,0.00013384572230279448,0.00015101433382369575,1.2184696791468346e-07,0.0,0.0,0.0,1.2184696791468346e-07,0.0,0.0,0.0,1.2184696791468346e-07,1.8980618715286255,-0.22340968251228216,9.619720458984375,8.999999999999999e-08,0.0,0.0,0.0,8.999999999999999e-08,0.0,0.0,0.0,8.999999999999999e-08
1676469260.5615551,7167,1676469260,558510976,base_link,0.012840221791306169,0.09669247272179111,0.014142290724133571,-0.9951310103583565,1.0,0.0,0.0,0.0,1.0,0.0,0.0,0.0,1.0,0.0002792745362967253,0.0005551077192649249,0.0022611282765865326,1.2184696791468346e-07,0.0,0.0,0.0,1.2184696791468346e-07,0.0,0.0,0.0,1.2184696791468346e-07,1.8944867849349976,-0.21483458578586462,9.624594688415527,8.999999999999999e-08,0.0,0.0,0.0,8.999999999999999e-08,0.0,0.0,0.0,8.999999999999999e-08
1676469260.5826132,7168,1676469260,578509696,base_link,0.01283821718182387,0.09668927219548233,0.014140351969102061,-0.9951313475331446,1.0,0.0,0.0,0.0,1.0,0.0,0.0,0.0,1.0,0.0013398609589785337,0.0016601679380983114,0.0007941093062981961,1.2184696791468346e-07,0.0,0.0,0.0,1.2184696791468346e-07,0.0,0.0,0.0,1.2184696791468346e-07,1.8905482292175293,-0.22109718620777014,9.608152389526367,8.999999999999999e-08,0.0,0.0,0.0,8.999999999999999e-08,0.0,0.0,0.0,8.999999999999999e-08
1676469260.6028569,7169,1676469260,597509696,base_link,0.012844876383888587,0.09668856623576977,0.01414347083589188,-0.9951313475331446,1.0,0.0,0.0,0.0,1.0,0.0,0.0,0.0,1.0,8.939346298575401e-05,0.0016380797605961561,-0.00044044328387826703,1.2184696791468346e-07,0.0,0.0,0.0,1.2184696791468346e-07,0.0,0.0,0.0,1.2184696791468346e-07,1.898440957069397,-0.24536210298538091,9.606609344482422,8.999999999999999e-08,0.0,0.0,0.0,8.999999999999999e-08,0.0,0.0,0.0,8.999999999999999e-08
1676469260.621396,7170,1676469260,617509696,base_link,0.012843227388440598,0.09668641147813965,0.014142459311527612,-0.9951316004142357,1.0,0.0,0.0,0.0,1.0,0.0,0.0,0.0,1.0,-0.0012897890992462635,0.00021201348863542093,0.0011310232803225517,1.2184696791468346e-07,0.0,0.0,0.0,1.2184696791468346e-07,0.0,0.0,0.0,1.2184696791468346e-07,1.9013503789901733,-0.2019557207822788,9.61867618560791,8.999999999999999e-08,0.0,0.0,0.0,8.999999999999999e-08,0.0,0.0,0.0,8.999999999999999e-08
1676469260.6421072,7171,1676469260,637509696,base_link,0.0128424766477015,0.09668451750413469,0.014142417164679101,-0.9951317268547811,1.0,0.0,0.0,0.0,1.0,0.0,0.0,0.0,1.0,-0.001511183101683855,0.0005303408252075315,-0.0003895768895745278,1.2184696791468346e-07,0.0,0.0,0.0,1.2184696791468346e-07,0.0,0.0,0.0,1.2184696791468346e-07,1.884958267211914,-0.2105846852064121,9.619112968444824,8.999999999999999e-08,0.0,0.0,0.0,8.999999999999999e-08,0.0,0.0,0.0,8.999999999999999e-08
1676469260.6609135,7172,1676469260,657509696,base_link,0.012844207302668475,0.09668204927931877,0.014142332870982079,-0.9951319797358722,1.0,0.0,0.0,0.0,1.0,0.0,0.0,0.0,1.0,0.003885543206706643,0.0017509490717202427,0.0008891531033441422,1.2184696791468346e-07,0.0,0.0,0.0,1.2184696791468346e-07,0.0,0.0,0.0,1.2184696791468346e-07,1.889754295349121,-0.217611253261565,9.622714042663574,8.999999999999999e-08,0.0,0.0,0.0,8.999999999999999e-08,0.0,0.0,0.0,8.999999999999999e-08
1676469260.6813376,7173,1676469260,677508416,base_link,0.012853548097969703,0.09668343485696357,0.014136600899584574,-0.9951318111484782,1.0,0.0,0.0,0.0,1.0,0.0,0.0,0.0,1.0,-0.00010772701352834702,-0.0007893004221841694,-0.0005860220990143715,1.2184696791468346e-07,0.0,0.0,0.0,1.2184696791468346e-07,0.0,0.0,0.0,1.2184696791468346e-07,1.8764097690582275,-0.2130151987075794,9.623215675354004,8.999999999999999e-08,0.0,0.0,0.0,8.999999999999999e-08,0.0,0.0,0.0,8.999999999999999e-08
1676469260.7016432,7174,1676469260,697508416,base_link,0.012852660379972946,0.09668326890374755,0.014137359542857773,-0.9951318111484782,1.0,0.0,0.0,0.0,1.0,0.0,0.0,0.0,1.0,-0.0018973747501149774,-0.0004726918414235116,-0.0008123141014948486,1.2184696791468346e-07,0.0,0.0,0.0,1.2184696791468346e-07,0.0,0.0,0.0,1.2184696791468346e-07,1.8886481523513794,-0.25767922401428106,9.616278648376465,8.999999999999999e-08,0.0,0.0,0.0,8.999999999999999e-08,0.0,0.0,0.0,8.999999999999999e-08
1676469260.7206519,7175,1676469260,717508416,base_link,0.012849280729557976,0.09668243386931143,0.014135125759886687,-0.9951320218827207,1.0,0.0,0.0,0.0,1.0,0.0,0.0,0.0,1.0,0.00034948368556797504,0.001836315030232072,0.0019341055303812025,1.2184696791468346e-07,0.0,0.0,0.0,1.2184696791468346e-07,0.0,0.0,0.0,1.2184696791468346e-07,1.9014941453933716,-0.22589150071143987,9.626255989074707,8.999999999999999e-08,0.0,0.0,0.0,8.999999999999999e-08,0.0,0.0,0.0,8.999999999999999e-08
1676469260.7415664,7176,1676469260,738508416,base_link,0.012845237266278963,0.09668337953922489,0.014131922599399846,-0.9951320218827207,1.0,0.0,0.0,0.0,1.0,0.0,0.0,0.0,1.0,0.0014960609842091799,-0.0006862714653834703,-0.001581650460138917,1.2184696791468346e-07,0.0,0.0,0.0,1.2184696791468346e-07,0.0,0.0,0.0,1.2184696791468346e-07,1.898270606994629,-0.23460847139358404,9.62298583984375,8.999999999999999e-08,0.0,0.0,0.0,8.999999999999999e-08,0.0,0.0,0.0,8.999999999999999e-08
1676469260.7619197,7177,1676469260,757508416,base_link,0.012854709770481787,0.0966863087451964,0.01413988835376844,-0.9951314739736901,1.0,0.0,0.0,0.0,1.0,0.0,0.0,0.0,1.0,0.0020876468624919653,-0.00019471714040264504,-0.0013071679277345538,1.2184696791468346e-07,0.0,0.0,0.0,1.2184696791468346e-07,0.0,0.0,0.0,1.2184696791468346e-07,1.907221794128418,-0.2104984372854221,9.620583534240723,8.999999999999999e-08,0.0,0.0,0.0,8.999999999999999e-08,0.0,0.0,0.0,8.999999999999999e-08
1676469260.7845345,7178,1676469260,777506880,base_link,0.012860973845841717,0.09668509175494565,0.014142164283588035,-0.9951314739736901,1.0,0.0,0.0,0.0,1.0,0.0,0.0,0.0,1.0,0.002826186129823327,0.0006897319108247757,-0.00024510285584256064,1.2184696791468346e-07,0.0,0.0,0.0,1.2184696791468346e-07,0.0,0.0,0.0,1.2184696791468346e-07,1.8890941143035889,-0.23143300414085272,9.620079040527344,8.999999999999999e-08,0.0,0.0,0.0,8.999999999999999e-08,0.0,0.0,0.0,8.999999999999999e-08
1676469260.8008084,7179,1676469260,797506880,base_link,0.012851662026498843,0.09668238118575079,0.014140183381708015,-0.9951319375890236,1.0,0.0,0.0,0.0,1.0,0.0,0.0,0.0,1.0,-0.0020963605493307114,0.00016388134099543076,-0.0014393511228263378,1.2184696791468346e-07,0.0,0.0,0.0,1.2184696791468346e-07,0.0,0.0,0.0,1.2184696791468346e-07,1.8826148509979248,-0.21812003850936773,9.61653995513916,8.999999999999999e-08,0.0,0.0,0.0,8.999999999999999e-08,0.0,0.0,0.0,8.999999999999999e-08
1676469260.8220253,7180,1676469260,817506880,base_link,0.012844918530737097,0.09668111678029546,0.014143091514255277,-0.9951320640295692,1.0,0.0,0.0,0.0,1.0,0.0,0.0,0.0,1.0,0.0025331161450594664,0.0005853443872183561,-1.7494166968390417e-05,1.2184696791468346e-07,0.0,0.0,0.0,1.2184696791468346e-07,0.0,0.0,0.0,1.2184696791468346e-07,1.8919020891189575,-0.21983495354652288,9.620582580566406,8.999999999999999e-08,0.0,0.0,0.0,8.999999999999999e-08,0.0,0.0,0.0,8.999999999999999e-08
1676469260.8427517,7181,1676469260,837506880,base_link,0.012850726893297507,0.09667937558861636,0.014145283150377852,-0.9951321483232662,1.0,0.0,0.0,0.0,1.0,0.0,0.0,0.0,1.0,-0.0027727442793548107,-0.0007180055836215614,0.0008717100135982038,1.2184696791468346e-07,0.0,0.0,0.0,1.2184696791468346e-07,0.0,0.0,0.0,1.2184696791468346e-07,1.8878448009490967,-0.2138188630342472,9.624406814575195,8.999999999999999e-08,0.0,0.0,0.0,8.999999999999999e-08,0.0,0.0,0.0,8.999999999999999e-08
1676469260.861841,7182,1676469260,857506880,base_link,0.012852852674969273,0.09668058994468907,0.014145704618862963,-0.9951319797358722,1.0,0.0,0.0,0.0,1.0,0.0,0.0,0.0,1.0,-0.0016194663476198912,-1.0906136594712716e-05,0.0001581298711244017,1.2184696791468346e-07,0.0,0.0,0.0,1.2184696791468346e-07,0.0,0.0,0.0,1.2184696791468346e-07,1.8999801874160767,-0.23023821413516882,9.619959831237793,8.999999999999999e-08,0.0,0.0,0.0,8.999999999999999e-08,0.0,0.0,0.0,8.999999999999999e-08
1676469260.881703,7183,1676469260,877505600,base_link,0.012849209606751117,0.09667442333391633,0.014145198856680828,-0.9951326540854484,1.0,0.0,0.0,0.0,1.0,0.0,0.0,0.0,1.0,0.00044802017509937286,0.0015169621910899878,-3.7433143006637875e-05,1.2184696791468346e-07,0.0,0.0,0.0,1.2184696791468346e-07,0.0,0.0,0.0,1.2184696791468346e-07,1.9006223678588867,-0.23007594048976782,9.615708351135254,8.999999999999999e-08,0.0,0.0,0.0,8.999999999999999e-08,0.0,0.0,0.0,8.999999999999999e-08
1676469260.9006996,7184,1676469260,897505600,base_link,0.012843066703580654,0.09667029294276226,0.014149202807289322,-0.9951330334070849,1.0,0.0,0.0,0.0,1.0,0.0,0.0,0.0,1.0,0.0031752826180309057,0.001513324910774827,0.000664044404402375,1.2184696791468346e-07,0.0,0.0,0.0,1.2184696791468346e-07,0.0,0.0,0.0,1.2184696791468346e-07,1.909257411956787,-0.2274449616670597,9.62088394165039,8.999999999999999e-08,0.0,0.0,0.0,8.999999999999999e-08,0.0,0.0,0.0,8.999999999999999e-08
1676469260.9226518,7185,1676469260,917505600,base_link,0.012838659723733234,0.0966674822748022,0.014155398394020446,-0.9951333284350246,1.0,0.0,0.0,0.0,1.0,0.0,0.0,0.0,1.0,0.002423527417704463,0.0009697279892861842,-0.0012548915110528471,1.2184696791468346e-07,0.0,0.0,0.0,1.2184696791468346e-07,0.0,0.0,0.0,1.2184696791468346e-07,1.9027934074401855,-0.22446039319038275,9.601004600524902,8.999999999999999e-08,0.0,0.0,0.0,8.999999999999999e-08,0.0,0.0,0.0,8.999999999999999e-08
1676469260.9410324,7186,1676469260,937505600,base_link,0.012841733809496493,0.09666724256460128,0.014155988449899602,-0.9951332441413275,1.0,0.0,0.0,0.0,1.0,0.0,0.0,0.0,1.0,-0.0008762958459556103,-0.0011686076177284122,0.00047522856038995103,1.2184696791468346e-07,0.0,0.0,0.0,1.2184696791468346e-07,0.0,0.0,0.0,1.2184696791468346e-07,1.8796207904815674,-0.22720822691917303,9.616018295288086,8.999999999999999e-08,0.0,0.0,0.0,8.999999999999999e-08,0.0,0.0,0.0,8.999999999999999e-08
1676469260.9624197,7187,1676469260,957505600,base_link,0.012835604077216189,0.09666931566271242,0.01415666279947578,-0.9951331598476305,1.0,0.0,0.0,0.0,1.0,0.0,0.0,0.0,1.0,-0.0006322611588984728,0.00023148336913436649,-0.00017759508045855912,1.2184696791468346e-07,0.0,0.0,0.0,1.2184696791468346e-07,0.0,0.0,0.0,1.2184696791468346e-07,1.8882365226745605,-0.21924650669097784,9.61594295501709,8.999999999999999e-08,0.0,0.0,0.0,8.999999999999999e-08,0.0,0.0,0.0,8.999999999999999e-08
1676469260.9841669,7188,1676469260,977504576,base_link,0.012836020277345239,0.09667360937290446,0.014157758617537068,-0.9951326540854484,1.0,0.0,0.0,0.0,1.0,0.0,0.0,0.0,1.0,-0.002012710552662611,-0.0009627597173675894,0.0011660913005471232,1.2184696791468346e-07,0.0,0.0,0.0,1.2184696791468346e-07,0.0,0.0,0.0,1.2184696791468346e-07,1.910770297050476,-0.21876408159732702,9.607852935791016,8.999999999999999e-08,0.0,0.0,0.0,8.999999999999999e-08,0.0,0.0,0.0,8.999999999999999e-08
1676469261.0006857,7189,1676469260,997504576,base_link,0.012838567527502115,0.09667621457497805,0.014154344722807672,-0.9951324433512058,1.0,0.0,0.0,0.0,1.0,0.0,0.0,0.0,1.0,0.0022941723000258207,0.0016374222468584776,0.0005466886796057222,1.2184696791468346e-07,0.0,0.0,0.0,1.2184696791468346e-07,0.0,0.0,0.0,1.2184696791468346e-07,1.8723933696746826,-0.21791006624698522,9.620219230651855,8.999999999999999e-08,0.0,0.0,0.0,8.999999999999999e-08,0.0,0.0,0.0,8.999999999999999e-08
1676469261.0220544,7190,1676469261,17504576,base_link,0.012842682113587993,0.09667240555354387,0.014159486638326021,-0.9951326962322968,1.0,0.0,0.0,0.0,1.0,0.0,0.0,0.0,1.0,-0.0009219055064022541,0.00039670104160904873,-0.0008329222910106182,1.2184696791468346e-07,0.0,0.0,0.0,1.2184696791468346e-07,0.0,0.0,0.0,1.2184696791468346e-07,1.8931643962860107,-0.20892354846000555,9.604827880859375,8.999999999999999e-08,0.0,0.0,0.0,8.999999999999999e-08,0.0,0.0,0.0,8.999999999999999e-08
1676469261.0428145,7191,1676469261,37504576,base_link,0.012850800650282403,0.09667826923384296,0.01416231047717621,-0.9951319797358722,1.0,0.0,0.0,0.0,1.0,0.0,0.0,0.0,1.0,0.001997797517105937,0.0011360438074916601,0.00033014526707120223,1.2184696791468346e-07,0.0,0.0,0.0,1.2184696791468346e-07,0.0,0.0,0.0,1.2184696791468346e-07,1.9034464359283447,-0.22633405029773596,9.61933708190918,8.999999999999999e-08,0.0,0.0,0.0,8.999999999999999e-08,0.0,0.0,0.0,8.999999999999999e-08
1676469261.0627015,7192,1676469261,57504576,base_link,0.012850958700964317,0.09667408615912824,0.014158896582446867,-0.9951324433512058,1.0,0.0,0.0,0.0,1.0,0.0,0.0,0.0,1.0,0.00012257369235157967,0.0011311480775475504,0.0010468296241015194,1.2184696791468346e-07,0.0,0.0,0.0,1.2184696791468346e-07,0.0,0.0,0.0,1.2184696791468346e-07,1.8997889757156372,-0.2447394430637348,9.61826229095459,8.999999999999999e-08,0.0,0.0,0.0,8.999999999999999e-08,0.0,0.0,0.0,8.999999999999999e-08
1676469261.081861,7193,1676469261,77503552,base_link,0.01285425405768226,0.09667719712338396,0.014159444491477513,-0.9951320640295692,1.0,0.0,0.0,0.0,1.0,0.0,0.0,0.0,1.0,0.0024850054178386927,-0.00015330442693084473,0.00047262708540074527,1.2184696791468346e-07,0.0,0.0,0.0,1.2184696791468346e-07,0.0,0.0,0.0,1.2184696791468346e-07,1.9008461236953735,-0.22839707136154058,9.62880802154541,8.999999999999999e-08,0.0,0.0,0.0,8.999999999999999e-08,0.0,0.0,0.0,8.999999999999999e-08
1676469261.1029904,7194,1676469261,97503552,base_link,0.012861927418289273,0.09667284282709718,0.014154513310201717,-0.9951324433512058,1.0,0.0,0.0,0.0,1.0,0.0,0.0,0.0,1.0,0.002091461094096303,0.001062976894900203,0.0009927926585078237,1.2184696791468346e-07,0.0,0.0,0.0,1.2184696791468346e-07,0.0,0.0,0.0,1.2184696791468346e-07,1.9078471660614014,-0.22863084077834966,9.610284805297852,8.999999999999999e-08,0.0,0.0,0.0,8.999999999999999e-08,0.0,0.0,0.0,8.999999999999999e-08
1676469261.1208375,7195,1676469261,117503552,base_link,0.01286048915708384,0.09666553561723659,0.014150214331653586,-0.995133286288176,1.0,0.0,0.0,0.0,1.0,0.0,0.0,0.0,1.0,-0.0016672747442498803,0.000951932743191719,-0.0007143815746530892,1.2184696791468346e-07,0.0,0.0,0.0,1.2184696791468346e-07,0.0,0.0,0.0,1.2184696791468346e-07,1.8973724842071533,-0.23877319693565252,9.60871696472168,8.999999999999999e-08,0.0,0.0,0.0,8.999999999999999e-08,0.0,0.0,0.0,8.999999999999999e-08
1676469261.142064,7196,1676469261,137503552,base_link,0.012853234630783902,0.09666756393432119,0.01415830652656771,-0.9951330334070849,1.0,0.0,0.0,0.0,1.0,0.0,0.0,0.0,1.0,0.0008735295850783587,-0.0010760240256786349,-0.0014327635290101168,1.2184696791468346e-07,0.0,0.0,0.0,1.2184696791468346e-07,0.0,0.0,0.0,1.2184696791468346e-07,1.88565993309021,-0.22867469489574316,9.594457626342773,8.999999999999999e-08,0.0,0.0,0.0,8.999999999999999e-08,0.0,0.0,0.0,8.999999999999999e-08
1676469261.1627967,7197,1676469261,157503552,base_link,0.012847399926443178,0.09666182932874566,0.014159865959962617,-0.9951336656098126,1.0,0.0,0.0,0.0,1.0,0.0,0.0,0.0,1.0,-0.0016359073342755437,-0.0010878398315981028,0.001052361447364092,1.2184696791468346e-07,0.0,0.0,0.0,1.2184696791468346e-07,0.0,0.0,0.0,1.2184696791468346e-07,1.8887217044830322,-0.22104817628860357,9.621225357055664,8.999999999999999e-08,0.0,0.0,0.0,8.999999999999999e-08,0.0,0.0,0.0,8.999999999999999e-08
1676469261.1807468,7198,1676469261,177502016,base_link,0.012853750929678165,0.0966608836588322,0.014159065169840907,-0.9951337077566611,1.0,0.0,0.0,0.0,1.0,0.0,0.0,0.0,1.0,0.0003000744618475437,-0.00017081020632758745,-0.0007700007408857346,1.2184696791468346e-07,0.0,0.0,0.0,1.2184696791468346e-07,0.0,0.0,0.0,1.2184696791468346e-07,1.8770991563796997,-0.2300335615873325,9.614021301269531,8.999999999999999e-08,0.0,0.0,0.0,8.999999999999999e-08,0.0,0.0,0.0,8.999999999999999e-08
1676469261.2016537,7199,1676469261,197502016,base_link,0.012861363704190446,0.09665369235280503,0.014162015449236679,-0.9951342135188432,1.0,0.0,0.0,0.0,1.0,0.0,0.0,0.0,1.0,-0.0008643358014523983,-0.00014979986008256677,-0.00011579584679566322,1.2184696791468346e-07,0.0,0.0,0.0,1.2184696791468346e-07,0.0,0.0,0.0,1.2184696791468346e-07,1.8774079084396362,-0.21898607909679296,9.617463111877441,8.999999999999999e-08,0.0,0.0,0.0,8.999999999999999e-08,0.0,0.0,0.0,8.999999999999999e-08
1676469261.2235413,7200,1676469261,217502016,base_link,0.012858202690552123,0.09665194325859183,0.01416981261621117,-0.9951343399593887,1.0,0.0,0.0,0.0,1.0,0.0,0.0,0.0,1.0,0.0007748566567897797,-0.0012468775967136025,-0.000179746391950175,1.2184696791468346e-07,0.0,0.0,0.0,1.2184696791468346e-07,0.0,0.0,0.0,1.2184696791468346e-07,1.896522879600525,-0.21767261624336126,9.625350952148438,8.999999999999999e-08,0.0,0.0,0.0,8.999999999999999e-08,0.0,0.0,0.0,8.999999999999999e-08
1676469261.2411687,7201,1676469261,237502016,base_link,0.012849939274065962,0.09665629755487862,0.014170444818938836,-0.9951340449314492,1.0,0.0,0.0,0.0,1.0,0.0,0.0,0.0,1.0,0.002717355964705348,0.0004441540222615004,0.00047334391274489457,1.2184696791468346e-07,0.0,0.0,0.0,1.2184696791468346e-07,0.0,0.0,0.0,1.2184696791468346e-07,1.8909032344818115,-0.22013543546199682,9.625662803649902,8.999999999999999e-08,0.0,0.0,0.0,8.999999999999999e-08,0.0,0.0,0.0,8.999999999999999e-08
1676469261.2617772,7202,1676469261,257502016,base_link,0.012847592221439509,0.0966542507985478,0.014165808665602618,-0.9951342978125403,1.0,0.0,0.0,0.0,1.0,0.0,0.0,0.0,1.0,-0.0003543458878993988,0.0009922378230839968,0.0005904153222218155,1.2184696791468346e-07,0.0,0.0,0.0,1.2184696791468346e-07,0.0,0.0,0.0,1.2184696791468346e-07,1.8991683721542358,-0.2199225872755039,9.629307746887207,8.999999999999999e-08,0.0,0.0,0.0,8.999999999999999e-08,0.0,0.0,0.0,8.999999999999999e-08
1676469261.2840207,7203,1676469261,277500992,base_link,0.012848582672379514,0.0966531444437744,0.014170023350453725,-0.9951342978125403,1.0,0.0,0.0,0.0,1.0,0.0,0.0,0.0,1.0,0.002339476952329278,0.0009727475699037313,0.00020689665689133097,1.2184696791468346e-07,0.0,0.0,0.0,1.2184696791468346e-07,0.0,0.0,0.0,1.2184696791468346e-07,1.9089016914367676,-0.2558219134807575,9.624174118041992,8.999999999999999e-08,0.0,0.0,0.0,8.999999999999999e-08,0.0,0.0,0.0,8.999999999999999e-08
1676469261.301393,7204,1676469261,297500992,base_link,0.012844863212998431,0.09665281780569844,0.014169686175665636,-0.9951343821062373,1.0,0.0,0.0,0.0,1.0,0.0,0.0,0.0,1.0,-2.362765371799469e-06,-0.00028796831611543894,-0.00022101156355347482,1.2184696791468346e-07,0.0,0.0,0.0,1.2184696791468346e-07,0.0,0.0,0.0,1.2184696791468346e-07,1.8976869583129883,-0.22369675338268163,9.614273071289062,8.999999999999999e-08,0.0,0.0,0.0,8.999999999999999e-08,0.0,0.0,0.0,8.999999999999999e-08
1676469261.3217695,7205,1676469261,317500992,base_link,0.012841209608068144,0.09665471177970339,0.014170318378393302,-0.9951342556656917,1.0,0.0,0.0,0.0,1.0,0.0,0.0,0.0,1.0,0.0013117867056280375,0.0010016539599746466,-0.0001923263480421157,1.2184696791468346e-07,0.0,0.0,0.0,1.2184696791468346e-07,0.0,0.0,0.0,1.2184696791468346e-07,1.8853981494903564,-0.2330175638198841,9.628275871276855,8.999999999999999e-08,0.0,0.0,0.0,8.999999999999999e-08,0.0,0.0,0.0,8.999999999999999e-08
1676469261.342818,7206,1676469261,337500992,base_link,0.012842176351405858,0.09665951915461167,0.014178916335489506,-0.9951336656098126,1.0,0.0,0.0,0.0,1.0,0.0,0.0,0.0,1.0,-0.0004926922265440226,1.525401603430491e-05,-0.001519101788289845,1.2184696791468346e-07,0.0,0.0,0.0,1.2184696791468346e-07,0.0,0.0,0.0,1.2184696791468346e-07,1.9078660011291504,-0.22694060206413152,9.59703254699707,8.999999999999999e-08,0.0,0.0,0.0,8.999999999999999e-08,0.0,0.0,0.0,8.999999999999999e-08
1676469261.3609276,7207,1676469261,357500992,base_link,0.012843353828986132,0.0966567506335001,0.014186544915070006,-0.9951337920503581,1.0,0.0,0.0,0.0,1.0,0.0,0.0,0.0,1.0,-0.003516538068652153,-0.00035458098864182835,-0.00025756546529009933,1.2184696791468346e-07,0.0,0.0,0.0,1.2184696791468346e-07,0.0,0.0,0.0,1.2184696791468346e-07,1.9042530059814453,-0.2154812812805164,9.62868881225586,8.999999999999999e-08,0.0,0.0,0.0,8.999999999999999e-08,0.0,0.0,0.0,8.999999999999999e-08
1676469261.3852108,7208,1676469261,377499968,base_link,0.01284010325329473,0.09665499627093084,0.014188610110647048,-0.9951340027846007,1.0,0.0,0.0,0.0,1.0,0.0,0.0,0.0,1.0,0.0021100265439599752,-0.0001610791077837348,4.780438030138614e-05,1.2184696791468346e-07,0.0,0.0,0.0,1.2184696791468346e-07,0.0,0.0,0.0,1.2184696791468346e-07,1.8854488134384155,-0.2141106575727451,9.624052047729492,8.999999999999999e-08,0.0,0.0,0.0,8.999999999999999e-08,0.0,0.0,0.0,8.999999999999999e-08
1676469261.4010518,7209,1676469261,397499968,base_link,0.012834861239011189,0.09665368445027094,0.014186797796161072,-0.9951342135188432,1.0,0.0,0.0,0.0,1.0,0.0,0.0,0.0,1.0,0.002174278488382697,0.0010279123671352863,-0.0001406254596076907,1.2184696791468346e-07,0.0,0.0,0.0,1.2184696791468346e-07,0.0,0.0,0.0,1.2184696791468346e-07,1.8989920616149902,-0.22579976916313055,9.629579544067383,8.999999999999999e-08,0.0,0.0,0.0,8.999999999999999e-08,0.0,0.0,0.0,8.999999999999999e-08
1676469261.4221706,7210,1676469261,417499968,base_link,0.012840356134385798,0.09666063341191918,0.014178832041792483,-0.9951335813161156,1.0,0.0,0.0,0.0,1.0,0.0,0.0,0.0,1.0,-0.0003289175219833851,-0.00040575454477220774,0.000102078338386491,1.2184696791468346e-07,0.0,0.0,0.0,1.2184696791468346e-07,0.0,0.0,0.0,1.2184696791468346e-07,1.891909122467041,-0.2266042083501804,9.62164306640625,8.999999999999999e-08,0.0,0.0,0.0,8.999999999999999e-08,0.0,0.0,0.0,8.999999999999999e-08
1676469261.443105,7211,1676469261,437499968,base_link,0.012840990971291493,0.09665309702856982,0.014185069775372117,-0.9951342556656918,1.0,0.0,0.0,0.0,1.0,0.0,0.0,0.0,1.0,0.0035323642659932375,0.0012161885388195517,0.0013179300585761664,1.2184696791468346e-07,0.0,0.0,0.0,1.2184696791468346e-07,0.0,0.0,0.0,1.2184696791468346e-07,1.875003457069397,-0.23501437902450442,9.632275581359863,8.999999999999999e-08,0.0,0.0,0.0,8.999999999999999e-08,0.0,0.0,0.0,8.999999999999999e-08
1676469261.4621603,7212,1676469261,457499968,base_link,0.012832082181187499,0.09665214345612226,0.014181950908582298,-0.9951345085467829,1.0,0.0,0.0,0.0,1.0,0.0,0.0,0.0,1.0,-0.0015152501873672009,0.001477350015193224,-3.387036849744636e-05,1.2184696791468346e-07,0.0,0.0,0.0,1.2184696791468346e-07,0.0,0.0,0.0,1.2184696791468346e-07,1.8993420600891113,-0.23220369219779852,9.627243995666504,8.999999999999999e-08,0.0,0.0,0.0,8.999999999999999e-08,0.0,0.0,0.0,8.999999999999999e-08
1676469261.4822285,7213,1676469261,477498944,base_link,0.01283265379782043,0.09665248853344444,0.014178916335489502,-0.9951345085467829,1.0,0.0,0.0,0.0,1.0,0.0,0.0,0.0,1.0,-0.00143797870259732,0.0006496531423181295,-0.0003327156882733107,1.2184696791468346e-07,0.0,0.0,0.0,1.2184696791468346e-07,0.0,0.0,0.0,1.2184696791468346e-07,1.898689866065979,-0.23717290163040045,9.609642028808594,8.999999999999999e-08,0.0,0.0,0.0,8.999999999999999e-08,0.0,0.0,0.0,8.999999999999999e-08
1676469261.5040462,7214,1676469261,497498944,base_link,0.01283923924290026,0.09665121359127699,0.014181866614885276,-0.9951345085467829,1.0,0.0,0.0,0.0,1.0,0.0,0.0,0.0,1.0,-0.000990504864603281,0.001649362966418266,-0.0009533186675980689,1.2184696791468346e-07,0.0,0.0,0.0,1.2184696791468346e-07,0.0,0.0,0.0,1.2184696791468346e-07,1.888514757156372,-0.22735273838043096,9.612101554870605,8.999999999999999e-08,0.0,0.0,0.0,8.999999999999999e-08,0.0,0.0,0.0,8.999999999999999e-08
1676469261.5216434,7215,1676469261,517498944,base_link,0.012841275462518936,0.09664596367445935,0.014183973957310827,-0.9951349300152679,1.0,0.0,0.0,0.0,1.0,0.0,0.0,0.0,1.0,0.0005226652137935162,0.0009791147895157337,-0.0005968271289020778,1.2184696791468346e-07,0.0,0.0,0.0,1.2184696791468346e-07,0.0,0.0,0.0,1.2184696791468346e-07,1.875162124633789,-0.2157857418060291,9.626347541809082,8.999999999999999e-08,0.0,0.0,0.0,8.999999999999999e-08,0.0,0.0,0.0,8.999999999999999e-08
1676469261.5430071,7216,1676469261,537498944,base_link,0.012842063081750484,0.09664549215659164,0.014182625258158473,-0.995135014308965,1.0,0.0,0.0,0.0,1.0,0.0,0.0,0.0,1.0,0.0038741722237318754,0.00016881560441106574,0.00127736059948802,1.2184696791468346e-07,0.0,0.0,0.0,1.2184696791468346e-07,0.0,0.0,0.0,1.2184696791468346e-07,1.9107476472854614,-0.24196007847785833,9.622194290161133,8.999999999999999e-08,0.0,0.0,0.0,8.999999999999999e-08,0.0,0.0,0.0,8.999999999999999e-08
1676469261.5614598,7217,1676469261,557498944,base_link,0.01283653921041753,0.0966486979512565,0.014184058251007851,-0.9951347614278738,1.0,0.0,0.0,0.0,1.0,0.0,0.0,0.0,1.0,0.003215925069525838,-4.2242114432156425e-05,-0.0027709617279469967,1.2184696791468346e-07,0.0,0.0,0.0,1.2184696791468346e-07,0.0,0.0,0.0,1.2184696791468346e-07,1.8901636600494385,-0.23221662640571478,9.602580070495605,8.999999999999999e-08,0.0,0.0,0.0,8.999999999999999e-08,0.0,0.0,0.0,8.999999999999999e-08
1676469261.5818617,7218,1676469261,577497920,base_link,0.01284075652944665,0.09664576611110695,0.014188020054767889,-0.995134930015268,1.0,0.0,0.0,0.0,1.0,0.0,0.0,0.0,1.0,-0.0034413672983646393,0.001059818547219038,0.0006793675711378454,1.2184696791468346e-07,0.0,0.0,0.0,1.2184696791468346e-07,0.0,0.0,0.0,1.2184696791468346e-07,1.88462233543396,-0.2384915649890888,9.609776496887207,8.999999999999999e-08,0.0,0.0,0.0,8.999999999999999e-08,0.0,0.0,0.0,8.999999999999999e-08
1676469261.6003742,7219,1676469261,597497920,base_link,0.012844396963486774,0.0966464141189028,0.0141888208448896,-0.9951348035747224,1.0,0.0,0.0,0.0,1.0,0.0,0.0,0.0,1.0,-0.0017418181523680687,0.0003315092762932181,-0.00043765676673501735,1.2184696791468346e-07,0.0,0.0,0.0,1.2184696791468346e-07,0.0,0.0,0.0,1.2184696791468346e-07,1.8865400552749634,-0.2252536863088596,9.629456520080566,8.999999999999999e-08,0.0,0.0,0.0,8.999999999999999e-08,0.0,0.0,0.0,8.999999999999999e-08
