Time,header.seq,header.stamp.secs,header.stamp.nsecs,header.frame_id,magnetic_field.x,magnetic_field.y,magnetic_field.z,magnetic_field_covariance_0,magnetic_field_covariance_1,magnetic_field_covariance_2,magnetic_field_covariance_3,magnetic_field_covariance_4,magnetic_field_covariance_5,magnetic_field_covariance_6,magnetic_field_covariance_7,magnetic_field_covariance_8
1676469259.5766652,6810,1676469259,179227688,base_link,1.4200440049171448e-05,1.4832988381385801e-05,-2.8872582316398627e-05,-1.0,0.0,0.0,0.0,0.0,0.0,0.0,0.0,0.0
1676469259.576702,6811,1676469259,194212688,base_link,1.4160533249378205e-05,1.5087406337261198e-05,-2.8787854313850407e-05,-1.0,0.0,0.0,0.0,0.0,0.0,0.0,0.0,0.0
1676469259.5767412,6812,1676469259,219190688,base_link,1.4196380972862245e-05,1.5051412582397458e-05,-2.868192791938782e-05,-1.0,0.0,0.0,0.0,0.0,0.0,0.0,0.0,0.0
1676469259.576785,6813,1676469259,239175688,base_link,1.4118620753288269e-05,1.5171027183532712e-05,-2.8466749191284184e-05,-1.0,0.0,0.0,0.0,0.0,0.0,0.0,0.0,0.0
1676469259.5768394,6814,1676469259,254160688,base_link,1.4102309942245485e-05,1.5367805957794187e-05,-2.8345230221748357e-05,-1.0,0.0,0.0,0.0,0.0,0.0,0.0,0.0,0.0
1676469259.5769181,6815,1676469259,279137152,base_link,1.4161315560340882e-05,1.5221151709556576e-05,-2.8290915489196782e-05,-1.0,0.0,0.0,0.0,0.0,0.0,0.0,0.0,0.0
1676469259.5769355,6816,1676469259,299120152,base_link,1.4211778342723847e-05,1.541062146425247e-05,-2.8370666503906256e-05,-1.0,0.0,0.0,0.0,0.0,0.0,0.0,0.0,0.0
1676469259.5770366,6817,1676469259,314109152,base_link,1.419057548046112e-05,1.506969779729843e-05,-2.873811721801758e-05,-1.0,0.0,0.0,0.0,0.0,0.0,0.0,0.0,0.0
1676469259.5770845,6818,1676469259,339085152,base_link,1.4125825464725495e-05,1.527215242385864e-05,-2.857226133346558e-05,-1.0,0.0,0.0,0.0,0.0,0.0,0.0,0.0,0.0
1676469259.5771577,6819,1676469259,354072152,base_link,1.423545777797699e-05,1.5349119901657103e-05,-2.8440535068511967e-05,-1.0,0.0,0.0,0.0,0.0,0.0,0.0,0.0,0.0
1676469259.5772085,6820,1676469259,379049360,base_link,1.4260700345039368e-05,1.5441183745861052e-05,-2.851493358612061e-05,-1.0,0.0,0.0,0.0,0.0,0.0,0.0,0.0,0.0
1676469259.5772636,6821,1676469259,399030360,base_link,1.4101502299308778e-05,1.5269346535205837e-05,-2.8509396314620977e-05,-1.0,0.0,0.0,0.0,0.0,0.0,0.0,0.0,0.0
1676469259.5773356,6822,1676469259,414017360,base_link,1.4099362492561341e-05,1.5059299767017362e-05,-2.8505498170852666e-05,-1.0,0.0,0.0,0.0,0.0,0.0,0.0,0.0,0.0
1676469259.5773797,6823,1676469259,438995360,base_link,1.4185073971748352e-05,1.5125605463981626e-05,-2.8724893927574164e-05,-1.0,0.0,0.0,0.0,0.0,0.0,0.0,0.0,0.0
1676469259.5774603,6824,1676469259,458978360,base_link,1.415403336286545e-05,1.5034061670303342e-05,-2.8869938850402837e-05,-1.0,0.0,0.0,0.0,0.0,0.0,0.0,0.0,0.0
1676469259.577515,6825,1676469259,473963568,base_link,1.41304150223732e-05,1.5103134512901303e-05,-2.878744006156922e-05,-1.0,0.0,0.0,0.0,0.0,0.0,0.0,0.0,0.0
1676469259.5776856,6826,1676469259,498942568,base_link,1.414276957511902e-05,1.5139433741569517e-05,-2.8680515289306646e-05,-1.0,0.0,0.0,0.0,0.0,0.0,0.0,0.0,0.0
1676469259.5790215,6827,1676469259,518924568,base_link,1.4192837476730348e-05,1.529489308595657e-05,-2.8716757893562322e-05,-1.0,0.0,0.0,0.0,0.0,0.0,0.0,0.0,0.0
1676469259.5793722,6828,1676469259,533911568,base_link,1.4125338196754457e-05,1.5229824185371397e-05,-2.852256894111634e-05,-1.0,0.0,0.0,0.0,0.0,0.0,0.0,0.0,0.0
1676469259.5923684,6829,1676469259,558889568,base_link,1.4171944558620454e-05,1.5057808160781858e-05,-2.844336330890656e-05,-1.0,0.0,0.0,0.0,0.0,0.0,0.0,0.0,0.0
1676469259.5956204,6830,1676469259,578872032,base_link,1.4204137027263642e-05,1.5220451354980467e-05,-2.866752147674561e-05,-1.0,0.0,0.0,0.0,0.0,0.0,0.0,0.0,0.0
1676469259.603361,6831,1676469259,598854032,base_link,1.42449289560318e-05,1.5048460662364958e-05,-2.8795218467712407e-05,-1.0,0.0,0.0,0.0,0.0,0.0,0.0,0.0,0.0
1676469259.6221678,6832,1676469259,613841032,base_link,1.4214903116226197e-05,1.5078592300415037e-05,-2.875074446201325e-05,-1.0,0.0,0.0,0.0,0.0,0.0,0.0,0.0,0.0
1676469259.6426058,6833,1676469259,638819032,base_link,1.4149339497089386e-05,1.5206441283226011e-05,-2.853556275367737e-05,-1.0,0.0,0.0,0.0,0.0,0.0,0.0,0.0,0.0
1676469259.662737,6834,1676469259,658801032,base_link,1.4229939877986908e-05,1.5446649491786953e-05,-2.8050565719604497e-05,-1.0,0.0,0.0,0.0,0.0,0.0,0.0,0.0,0.0
1676469259.6836114,6835,1676469259,678782496,base_link,1.4113301038742066e-05,1.5279597043991087e-05,-2.8151911497116092e-05,-1.0,0.0,0.0,0.0,0.0,0.0,0.0,0.0,0.0
1676469259.7033439,6836,1676469259,698766496,base_link,1.412593722343445e-05,1.5298978984355924e-05,-2.843399047851563e-05,-1.0,0.0,0.0,0.0,0.0,0.0,0.0,0.0,0.0
1676469259.7230282,6837,1676469259,718747496,base_link,1.4234021306037903e-05,1.5216794610023496e-05,-2.8360503911972052e-05,-1.0,0.0,0.0,0.0,0.0,0.0,0.0,0.0,0.0
1676469259.7424884,6838,1676469259,738729496,base_link,1.4148417115211488e-05,1.5135198831558224e-05,-2.836704254150391e-05,-1.0,0.0,0.0,0.0,0.0,0.0,0.0,0.0,0.0
1676469259.762945,6839,1676469259,758713496,base_link,1.4119271934032441e-05,1.5247508883476255e-05,-2.8359273076057437e-05,-1.0,0.0,0.0,0.0,0.0,0.0,0.0,0.0,0.0
1676469259.8062155,6840,1676469259,798675960,base_link,1.4050990343093872e-05,1.509665250778198e-05,-2.8241312503814702e-05,-1.0,0.0,0.0,0.0,0.0,0.0,0.0,0.0,0.0
1676469259.8431993,6841,1676469259,838641960,base_link,1.4083907008171083e-05,1.534968465566635e-05,-2.8301393985748295e-05,-1.0,0.0,0.0,0.0,0.0,0.0,0.0,0.0,0.0
1676469259.8623364,6842,1676469259,858623960,base_link,1.4131523668766022e-05,1.5269155800342556e-05,-2.8290134668350224e-05,-1.0,0.0,0.0,0.0,0.0,0.0,0.0,0.0,0.0
1676469259.8848205,6843,1676469259,878608424,base_link,1.4204454421997071e-05,1.5270495414733886e-05,-2.8503903746604924e-05,-1.0,0.0,0.0,0.0,0.0,0.0,0.0,0.0,0.0
1676469259.9026432,6844,1676469259,898588424,base_link,1.4167103171348572e-05,1.5190443396568295e-05,-2.8328931331634528e-05,-1.0,0.0,0.0,0.0,0.0,0.0,0.0,0.0,0.0
1676469259.9224787,6845,1676469259,918570424,base_link,1.4132663607597351e-05,1.5369948744773863e-05,-2.8389340639114384e-05,-1.0,0.0,0.0,0.0,0.0,0.0,0.0,0.0,0.0
1676469259.9415097,6846,1676469259,938553424,base_link,1.4145112037658692e-05,1.5384624898433682e-05,-2.8552317619323736e-05,-1.0,0.0,0.0,0.0,0.0,0.0,0.0,0.0,0.0
1676469259.9624705,6847,1676469259,958538424,base_link,1.4036419987678528e-05,1.543343663215637e-05,-2.839414477348328e-05,-1.0,0.0,0.0,0.0,0.0,0.0,0.0,0.0,0.0
1676469259.9849198,6848,1676469259,978517888,base_link,1.4180833101272584e-05,1.533347964286804e-05,-2.847164869308472e-05,-1.0,0.0,0.0,0.0,0.0,0.0,0.0,0.0,0.0
1676469260.0014484,6849,1676469259,998499888,base_link,1.4124026894569397e-05,1.513065993785858e-05,-2.8260296583175666e-05,-1.0,0.0,0.0,0.0,0.0,0.0,0.0,0.0,0.0
1676469260.0222342,6850,1676469260,18481888,base_link,1.4101138710975648e-05,1.5278194844722745e-05,-2.812047600746155e-05,-1.0,0.0,0.0,0.0,0.0,0.0,0.0,0.0,0.0
1676469260.0431404,6851,1676469260,38464888,base_link,1.4118772745132447e-05,1.521686017513275e-05,-2.8196561336517337e-05,-1.0,0.0,0.0,0.0,0.0,0.0,0.0,0.0,0.0
1676469260.0616813,6852,1676469260,58446888,base_link,1.419677734375e-05,1.512145102024078e-05,-2.8411471843719488e-05,-1.0,0.0,0.0,0.0,0.0,0.0,0.0,0.0,0.0
1676469260.082212,6853,1676469260,78428096,base_link,1.422746777534485e-05,1.517413556575775e-05,-2.8304499387741092e-05,-1.0,0.0,0.0,0.0,0.0,0.0,0.0,0.0,0.0
1676469260.1033397,6854,1676469260,98412096,base_link,1.4195442199707033e-05,1.5576712787151335e-05,-2.84940779209137e-05,-1.0,0.0,0.0,0.0,0.0,0.0,0.0,0.0,0.0
1676469260.12138,6855,1676469260,118394096,base_link,1.4107280969619751e-05,1.5256404876708981e-05,-2.8384160995483402e-05,-1.0,0.0,0.0,0.0,0.0,0.0,0.0,0.0,0.0
1676469260.1419363,6856,1676469260,138375096,base_link,1.4172686636447908e-05,1.513651907444e-05,-2.8392302989959723e-05,-1.0,0.0,0.0,0.0,0.0,0.0,0.0,0.0,0.0
1676469260.1626718,6857,1676469260,158358096,base_link,1.4222271740436555e-05,1.5243808925151823e-05,-2.8435361385345465e-05,-1.0,0.0,0.0,0.0,0.0,0.0,0.0,0.0,0.0
1676469260.1815755,6858,1676469260,178340816,base_link,1.4203508198261262e-05,1.5186583995819089e-05,-2.8423327207565312e-05,-1.0,0.0,0.0,0.0,0.0,0.0,0.0,0.0,0.0
1676469260.2018974,6859,1676469260,198321816,base_link,1.4136672019958496e-05,1.5168303251266478e-05,-2.8391665220260624e-05,-1.0,0.0,0.0,0.0,0.0,0.0,0.0,0.0,0.0
1676469260.2248333,6860,1676469260,218304816,base_link,1.4192688465118408e-05,1.530310213565826e-05,-2.8515982627868658e-05,-1.0,0.0,0.0,0.0,0.0,0.0,0.0,0.0,0.0
1676469260.241135,6861,1676469260,238287816,base_link,1.4196038246154786e-05,1.5042743086814879e-05,-2.8462535142898564e-05,-1.0,0.0,0.0,0.0,0.0,0.0,0.0,0.0,0.0
1676469260.2628088,6862,1676469260,258269816,base_link,1.4147344231605531e-05,1.4976008236408231e-05,-2.883291840553284e-05,-1.0,0.0,0.0,0.0,0.0,0.0,0.0,0.0,0.0
1676469260.281484,6863,1676469260,278251536,base_link,1.3980506360530854e-05,1.5253154933452604e-05,-2.8753224015235907e-05,-1.0,0.0,0.0,0.0,0.0,0.0,0.0,0.0,0.0
1676469260.3026931,6864,1676469260,298236536,base_link,1.416020840406418e-05,1.5073144435882565e-05,-2.8631234169006354e-05,-1.0,0.0,0.0,0.0,0.0,0.0,0.0,0.0,0.0
1676469260.3231053,6865,1676469260,318216536,base_link,1.4070384204387666e-05,1.5175819396972653e-05,-2.8604286909103398e-05,-1.0,0.0,0.0,0.0,0.0,0.0,0.0,0.0,0.0
1676469260.3410347,6866,1676469260,338200536,base_link,1.4148709177970887e-05,1.5118528902530667e-05,-2.876232266426087e-05,-1.0,0.0,0.0,0.0,0.0,0.0,0.0,0.0,0.0
1676469260.3629255,6867,1676469260,358183536,base_link,1.4068797230720521e-05,1.5003748238086697e-05,-2.874420285224915e-05,-1.0,0.0,0.0,0.0,0.0,0.0,0.0,0.0,0.0
1676469260.381831,6868,1676469260,378163256,base_link,1.4059275388717652e-05,1.5279069542884825e-05,-2.8565400838851933e-05,-1.0,0.0,0.0,0.0,0.0,0.0,0.0,0.0,0.0
1676469260.4020474,6869,1676469260,398146256,base_link,1.4131560921669007e-05,1.5246045589447019e-05,-2.8522431850433356e-05,-1.0,0.0,0.0,0.0,0.0,0.0,0.0,0.0,0.0
1676469260.4233098,6870,1676469260,418129256,base_link,1.4132899045944214e-05,1.5399995446205137e-05,-2.833255529403687e-05,-1.0,0.0,0.0,0.0,0.0,0.0,0.0,0.0,0.0
1676469260.4624908,6871,1676469260,458100256,base_link,1.4099566638469697e-05,1.507642865180969e-05,-2.853038907051087e-05,-1.0,0.0,0.0,0.0,0.0,0.0,0.0,0.0,0.0
1676469260.4869847,6872,1676469260,478075976,base_link,1.4155925810337067e-05,1.527394354343414e-05,-2.840315103530884e-05,-1.0,0.0,0.0,0.0,0.0,0.0,0.0,0.0,0.0
1676469260.5227451,6873,1676469260,518039976,base_link,1.4149290323257447e-05,1.5205201506614682e-05,-2.8504222631454474e-05,-1.0,0.0,0.0,0.0,0.0,0.0,0.0,0.0,0.0
1676469260.544645,6874,1676469260,538023976,base_link,1.3985848426818849e-05,1.522322595119476e-05,-2.8402417898178105e-05,-1.0,0.0,0.0,0.0,0.0,0.0,0.0,0.0,0.0
1676469260.5620654,6875,1676469260,558004976,base_link,1.4204925298690797e-05,1.533643007278442e-05,-2.8333833813667303e-05,-1.0,0.0,0.0,0.0,0.0,0.0,0.0,0.0,0.0
1676469260.5826344,6876,1676469260,577986696,base_link,1.4259552955627442e-05,1.534014195203781e-05,-2.8409466147422795e-05,-1.0,0.0,0.0,0.0,0.0,0.0,0.0,0.0,0.0
1676469260.6029997,6877,1676469260,597968696,base_link,1.4131754636764528e-05,1.5269012749195097e-05,-2.8490817546844486e-05,-1.0,0.0,0.0,0.0,0.0,0.0,0.0,0.0,0.0
1676469260.6214528,6878,1676469260,617951696,base_link,1.4150659739971162e-05,1.534188389778137e-05,-2.849013507366181e-05,-1.0,0.0,0.0,0.0,0.0,0.0,0.0,0.0,0.0
1676469260.642143,6879,1676469260,637934696,base_link,1.4022909104824067e-05,1.5301935374736784e-05,-2.833909690380097e-05,-1.0,0.0,0.0,0.0,0.0,0.0,0.0,0.0,0.0
1676469260.6611357,6880,1676469260,657916696,base_link,1.4061212539672852e-05,1.48929625749588e-05,-2.839421629905701e-05,-1.0,0.0,0.0,0.0,0.0,0.0,0.0,0.0,0.0
1676469260.681648,6881,1676469260,677898416,base_link,1.4179638028144838e-05,1.5219274163246152e-05,-2.8441584110260015e-05,-1.0,0.0,0.0,0.0,0.0,0.0,0.0,0.0,0.0
1676469260.702173,6882,1676469260,697880416,base_link,1.4148780703544617e-05,1.5174306929111478e-05,-2.833524942398072e-05,-1.0,0.0,0.0,0.0,0.0,0.0,0.0,0.0,0.0
1676469260.7212327,6883,1676469260,717863416,base_link,1.4148467779159547e-05,1.5184393525123594e-05,-2.7977669239044194e-05,-1.0,0.0,0.0,0.0,0.0,0.0,0.0,0.0,0.0
1676469260.7415872,6884,1676469260,737846416,base_link,1.4113904535770418e-05,1.533682346343994e-05,-2.817007899284363e-05,-1.0,0.0,0.0,0.0,0.0,0.0,0.0,0.0,0.0
1676469260.762,6885,1676469260,757828416,base_link,1.4169397950172424e-05,1.5386438369750976e-05,-2.8590109944343572e-05,-1.0,0.0,0.0,0.0,0.0,0.0,0.0,0.0,0.0
1676469260.784534,6886,1676469260,777809880,base_link,1.4144879579544067e-05,1.5384766459465025e-05,-2.8351634740829474e-05,-1.0,0.0,0.0,0.0,0.0,0.0,0.0,0.0,0.0
1676469260.8014386,6887,1676469260,797793880,base_link,1.4132091403007507e-05,1.5301537513732906e-05,-2.849672138690949e-05,-1.0,0.0,0.0,0.0,0.0,0.0,0.0,0.0,0.0
1676469260.8226626,6888,1676469260,817774880,base_link,1.4075709879398347e-05,1.5133470296859738e-05,-2.834769189357758e-05,-1.0,0.0,0.0,0.0,0.0,0.0,0.0,0.0,0.0
1676469260.8432837,6889,1676469260,837757880,base_link,1.4118067920207977e-05,1.513305306434631e-05,-2.8322938084602362e-05,-1.0,0.0,0.0,0.0,0.0,0.0,0.0,0.0,0.0
1676469260.8623514,6890,1676469260,857739880,base_link,1.4191603660583497e-05,1.5197707712650297e-05,-2.8504633903503423e-05,-1.0,0.0,0.0,0.0,0.0,0.0,0.0,0.0,0.0
1676469260.8819013,6891,1676469260,877721600,base_link,1.4124459028244018e-05,1.515957415103912e-05,-2.8379124402999882e-05,-1.0,0.0,0.0,0.0,0.0,0.0,0.0,0.0,0.0
1676469260.901506,6892,1676469260,897703600,base_link,1.4155736565589905e-05,1.5263149142265316e-05,-2.8334289789199835e-05,-1.0,0.0,0.0,0.0,0.0,0.0,0.0,0.0,0.0
1676469260.9227161,6893,1676469260,917688600,base_link,1.4052230119705201e-05,1.5206010639667508e-05,-2.8352957963943487e-05,-1.0,0.0,0.0,0.0,0.0,0.0,0.0,0.0,0.0
1676469260.9410985,6894,1676469260,937669600,base_link,1.4148141443729402e-05,1.510415971279144e-05,-2.8398752212524417e-05,-1.0,0.0,0.0,0.0,0.0,0.0,0.0,0.0,0.0
1676469260.962527,6895,1676469260,957653600,base_link,1.4197638630867005e-05,1.5209221839904783e-05,-2.8385394811630254e-05,-1.0,0.0,0.0,0.0,0.0,0.0,0.0,0.0,0.0
1676469260.9846952,6896,1676469260,977634576,base_link,1.4088049530982971e-05,1.5139329433441159e-05,-2.8491958975791936e-05,-1.0,0.0,0.0,0.0,0.0,0.0,0.0,0.0,0.0
1676469261.0010958,6897,1676469260,997620576,base_link,1.4154869318008424e-05,1.5181219577789303e-05,-2.830385565757752e-05,-1.0,0.0,0.0,0.0,0.0,0.0,0.0,0.0,0.0
1676469261.0227196,6898,1676469261,17603576,base_link,1.4154286682605744e-05,1.5142501890659329e-05,-2.81412422657013e-05,-1.0,0.0,0.0,0.0,0.0,0.0,0.0,0.0,0.0
1676469261.0428503,6899,1676469261,37585576,base_link,1.4233160018920898e-05,1.5111009776592252e-05,-2.854356765747071e-05,-1.0,0.0,0.0,0.0,0.0,0.0,0.0,0.0,0.0
1676469261.062764,6900,1676469261,57564576,base_link,1.4114072918891908e-05,1.5365138649940486e-05,-2.8069418668746954e-05,-1.0,0.0,0.0,0.0,0.0,0.0,0.0,0.0,0.0
1676469261.0824347,6901,1676469261,77547552,base_link,1.4226776361465456e-05,1.5114679932594297e-05,-2.822991609573365e-05,-1.0,0.0,0.0,0.0,0.0,0.0,0.0,0.0,0.0
1676469261.1035912,6902,1676469261,97530552,base_link,1.4122173190116883e-05,1.5524834394454953e-05,-2.8431391716003424e-05,-1.0,0.0,0.0,0.0,0.0,0.0,0.0,0.0,0.0
1676469261.1421287,6903,1676469261,137495552,base_link,1.4192451536655426e-05,1.5297158062458036e-05,-2.8365540504455572e-05,-1.0,0.0,0.0,0.0,0.0,0.0,0.0,0.0,0.0
1676469261.1629364,6904,1676469261,157478552,base_link,1.4179939031600952e-05,1.525689512491226e-05,-2.837217450141907e-05,-1.0,0.0,0.0,0.0,0.0,0.0,0.0,0.0,0.0
1676469261.201997,6905,1676469261,197441016,base_link,1.4154303073883058e-05,1.5118896961212156e-05,-2.8361004590988165e-05,-1.0,0.0,0.0,0.0,0.0,0.0,0.0,0.0,0.0
1676469261.2236297,6906,1676469261,217425016,base_link,1.419171690940857e-05,1.5224534273147581e-05,-2.8366360068321234e-05,-1.0,0.0,0.0,0.0,0.0,0.0,0.0,0.0,0.0
1676469261.2412214,6907,1676469261,237407016,base_link,1.4215141534805298e-05,1.5138581395149227e-05,-2.8430229425430304e-05,-1.0,0.0,0.0,0.0,0.0,0.0,0.0,0.0,0.0
1676469261.2618153,6908,1676469261,257391016,base_link,1.4126089215278626e-05,1.5308782458305356e-05,-2.847777903079987e-05,-1.0,0.0,0.0,0.0,0.0,0.0,0.0,0.0,0.0
1676469261.284073,6909,1676469261,277371992,base_link,1.4156623184680939e-05,1.5327560901641842e-05,-2.8534239530563358e-05,-1.0,0.0,0.0,0.0,0.0,0.0,0.0,0.0,0.0
1676469261.3014472,6910,1676469261,297354992,base_link,1.4154183864593507e-05,1.5109834074974058e-05,-2.8336024284362798e-05,-1.0,0.0,0.0,0.0,0.0,0.0,0.0,0.0,0.0
1676469261.3226345,6911,1676469261,317334992,base_link,1.414298713207245e-05,1.518091261386871e-05,-2.8504449129104618e-05,-1.0,0.0,0.0,0.0,0.0,0.0,0.0,0.0,0.0
1676469261.3428388,6912,1676469261,337317992,base_link,1.3972347974777222e-05,1.5091973543167111e-05,-2.8353640437126164e-05,-1.0,0.0,0.0,0.0,0.0,0.0,0.0,0.0,0.0
1676469261.3610146,6913,1676469261,357299992,base_link,1.415538638830185e-05,1.5224289894104e-05,-2.8372356295585638e-05,-1.0,0.0,0.0,0.0,0.0,0.0,0.0,0.0,0.0
1676469261.3852777,6914,1676469261,377282968,base_link,1.4190730452537537e-05,1.5139633417129513e-05,-2.8260710835456852e-05,-1.0,0.0,0.0,0.0,0.0,0.0,0.0,0.0,0.0
1676469261.4011185,6915,1676469261,397271968,base_link,1.4045450091362e-05,1.513964235782623e-05,-2.830976247787476e-05,-1.0,0.0,0.0,0.0,0.0,0.0,0.0,0.0,0.0
1676469261.4227111,6916,1676469261,417248968,base_link,1.4053755998611451e-05,1.539461016654968e-05,-2.8018447756767276e-05,-1.0,0.0,0.0,0.0,0.0,0.0,0.0,0.0,0.0
1676469261.44313,6917,1676469261,437229968,base_link,1.4041006565093995e-05,1.5306285023689267e-05,-2.8238844871521e-05,-1.0,0.0,0.0,0.0,0.0,0.0,0.0,0.0,0.0
1676469261.4622676,6918,1676469261,457213968,base_link,1.4126349985599519e-05,1.5345412492752073e-05,-2.838329672813416e-05,-1.0,0.0,0.0,0.0,0.0,0.0,0.0,0.0,0.0
1676469261.482313,6919,1676469261,477203944,base_link,1.4113742113113403e-05,1.5290743112564085e-05,-2.843399047851563e-05,-1.0,0.0,0.0,0.0,0.0,0.0,0.0,0.0,0.0
1676469261.5041428,6920,1676469261,497177944,base_link,1.4193809032440187e-05,1.5421417355537412e-05,-2.8445661067962652e-05,-1.0,0.0,0.0,0.0,0.0,0.0,0.0,0.0,0.0
1676469261.5221941,6921,1676469261,517160944,base_link,1.422874629497528e-05,1.528448462486267e-05,-2.8441217541694647e-05,-1.0,0.0,0.0,0.0,0.0,0.0,0.0,0.0,0.0
1676469261.5430312,6922,1676469261,537143944,base_link,1.418367922306061e-05,1.501837074756622e-05,-2.8462716937065128e-05,-1.0,0.0,0.0,0.0,0.0,0.0,0.0,0.0,0.0
1676469261.5615253,6923,1676469261,557126944,base_link,1.4173483848571778e-05,1.521671414375305e-05,-2.8378856182098392e-05,-1.0,0.0,0.0,0.0,0.0,0.0,0.0,0.0,0.0
1676469261.5819194,6924,1676469261,577108920,base_link,1.4123904705047608e-05,1.5103584527969358e-05,-2.8392302989959723e-05,-1.0,0.0,0.0,0.0,0.0,0.0,0.0,0.0,0.0
1676469261.600687,6925,1676469261,597090920,base_link,1.4135095477104188e-05,1.5008404850959774e-05,-2.8431099653244023e-05,-1.0,0.0,0.0,0.0,0.0,0.0,0.0,0.0,0.0
1676469261.6220684,6926,1676469261,617073920,base_link,1.4183950424194337e-05,1.5055248141288754e-05,-2.8374499082565314e-05,-1.0,0.0,0.0,0.0,0.0,0.0,0.0,0.0,0.0
1676469261.6411405,6927,1676469261,637056920,base_link,1.4156141877174378e-05,1.5297406911849972e-05,-2.838407158851624e-05,-1.0,0.0,0.0,0.0,0.0,0.0,0.0,0.0,0.0
1676469261.679424,6928,1676469261,672019544,base_link,1.822361946105957e-05,2.3916509747505185e-05,-3.474524617195129e-05,-1.0,0.0,0.0,0.0,0.0,0.0,0.0,0.0,0.0
1676469261.6963603,6929,1676469261,692000544,base_link,3.6590345203876496e-06,5.726737901568377e-07,-2.9819202423095704e-05,-1.0,0.0,0.0,0.0,0.0,0.0,0.0,0.0,0.0
1676469261.7174337,6930,1676469261,711982544,base_link,1.8365523219108584e-05,1.9150650501251217e-05,-3.174651265144348e-05,-1.0,0.0,0.0,0.0,0.0,0.0,0.0,0.0,0.0
1676469261.7385707,6931,1676469261,731965544,base_link,1.1484818160533906e-05,1.5717330574989317e-05,-2.9286864399909978e-05,-1.0,0.0,0.0,0.0,0.0,0.0,0.0,0.0,0.0
1676469261.7570806,6932,1676469261,751948544,base_link,1.0917656123638154e-05,1.4660099148750303e-05,-2.9890298843383792e-05,-1.0,0.0,0.0,0.0,0.0,0.0,0.0,0.0,0.0
1676469261.7798767,6933,1676469261,771929520,base_link,2.043747156858444e-05,7.966182380914683e-06,-4.685914516448975e-05,-1.0,0.0,0.0,0.0,0.0,0.0,0.0,0.0,0.0
1676469261.795828,6934,1676469261,791912520,base_link,1.7420980334281922e-05,6.9817781448364215e-06,-4.440763592720032e-05,-1.0,0.0,0.0,0.0,0.0,0.0,0.0,0.0,0.0
1676469261.818588,6935,1676469261,811894520,base_link,1.5160667896270752e-05,1.2354584783315656e-05,-3.2627010345458984e-05,-1.0,0.0,0.0,0.0,0.0,0.0,0.0,0.0,0.0
1676469261.8366349,6936,1676469261,831877520,base_link,1.3359309732913971e-05,1.3874167203903195e-05,-2.7359390258789067e-05,-1.0,0.0,0.0,0.0,0.0,0.0,0.0,0.0,0.0
1676469261.8573577,6937,1676469261,851860520,base_link,1.4131422340869904e-05,1.4765554666519163e-05,-2.7392816543579105e-05,-1.0,0.0,0.0,0.0,0.0,0.0,0.0,0.0,0.0
1676469261.8796203,6938,1676469261,871841496,base_link,1.4068692922592163e-05,1.3962993025779721e-05,-2.7326214313507085e-05,-1.0,0.0,0.0,0.0,0.0,0.0,0.0,0.0,0.0
1676469261.896825,6939,1676469261,891824496,base_link,1.588507890701294e-05,1.3552370667457577e-05,-3.062471151351929e-05,-1.0,0.0,0.0,0.0,0.0,0.0,0.0,0.0,0.0
1676469261.9174955,6940,1676469261,911808496,base_link,1.8662434816360474e-05,1.340345740318298e-05,-3.0008122324943545e-05,-1.0,0.0,0.0,0.0,0.0,0.0,0.0,0.0,0.0
1676469261.9388225,6941,1676469261,931790496,base_link,1.6551458835601808e-05,1.0609886050224302e-05,-3.049401640892029e-05,-1.0,0.0,0.0,0.0,0.0,0.0,0.0,0.0,0.0
1676469261.9558644,6942,1676469261,951772496,base_link,1.8059638142585755e-05,1.4073728024959561e-05,-2.654041945934296e-05,-1.0,0.0,0.0,0.0,0.0,0.0,0.0,0.0,0.0
1676469261.9796488,6943,1676469261,971754984,base_link,1.6643267869949342e-05,1.407678425312042e-05,-2.7093890309333807e-05,-1.0,0.0,0.0,0.0,0.0,0.0,0.0,0.0,0.0
1676469261.9979956,6944,1676469261,991736984,base_link,1.834237277507782e-05,1.4547929167747495e-05,-2.5985330343246463e-05,-1.0,0.0,0.0,0.0,0.0,0.0,0.0,0.0,0.0
1676469262.0159554,6945,1676469262,11720984,base_link,1.8627271056175233e-05,1.3840687274932858e-05,-2.719337344169617e-05,-1.0,0.0,0.0,0.0,0.0,0.0,0.0,0.0,0.0
1676469262.037472,6946,1676469262,31701984,base_link,1.868472248315811e-05,1.3528794050216672e-05,-2.7247536182403566e-05,-1.0,0.0,0.0,0.0,0.0,0.0,0.0,0.0,0.0
1676469262.0592332,6947,1676469262,51684984,base_link,1.766340434551239e-05,1.415089815855026e-05,-2.8831750154495242e-05,-1.0,0.0,0.0,0.0,0.0,0.0,0.0,0.0,0.0
1676469262.076987,6948,1676469262,71665704,base_link,1.853650212287903e-05,1.4462575316429135e-05,-2.7028816938400272e-05,-1.0,0.0,0.0,0.0,0.0,0.0,0.0,0.0,0.0
1676469262.0974953,6949,1676469262,91648704,base_link,1.940564215183258e-05,1.4164176583290098e-05,-2.7151784300804143e-05,-1.0,0.0,0.0,0.0,0.0,0.0,0.0,0.0,0.0
1676469262.118071,6950,1676469262,111630704,base_link,1.7380160093307497e-05,1.3831785321235654e-05,-2.759150266647339e-05,-1.0,0.0,0.0,0.0,0.0,0.0,0.0,0.0,0.0
1676469262.1362267,6951,1676469262,131613704,base_link,1.845468878746033e-05,1.4197736978530882e-05,-2.6686286926269536e-05,-1.0,0.0,0.0,0.0,0.0,0.0,0.0,0.0,0.0
1676469262.157168,6952,1676469262,151598704,base_link,1.9701579213142398e-05,1.412304490804672e-05,-2.682842910289765e-05,-1.0,0.0,0.0,0.0,0.0,0.0,0.0,0.0,0.0
1676469262.1794841,6953,1676469262,171577680,base_link,6.30078673362732e-05,-3.650878667831423e-05,-0.00014760591983795166,-1.0,0.0,0.0,0.0,0.0,0.0,0.0,0.0,0.0
1676469262.1960754,6954,1676469262,191560680,base_link,5.61830997467041e-05,-1.6490398347377795e-05,-0.00012907003164291383,-1.0,0.0,0.0,0.0,0.0,0.0,0.0,0.0,0.0
1676469262.2182899,6955,1676469262,211543680,base_link,3.830268979072571e-05,-1.2374954670667664e-05,-0.00012626419067382814,-1.0,0.0,0.0,0.0,0.0,0.0,0.0,0.0,0.0
1676469262.2366393,6956,1676469262,231526680,base_link,3.01865428686142e-05,-5.8161422610283e-06,-8.333237171173096e-05,-1.0,0.0,0.0,0.0,0.0,0.0,0.0,0.0,0.0
1676469262.2575543,6957,1676469262,251508680,base_link,3.940533399581909e-05,-3.8036331534385765e-06,-6.742647886276246e-05,-1.0,0.0,0.0,0.0,0.0,0.0,0.0,0.0,0.0
1676469262.2788985,6958,1676469262,271490656,base_link,2.5530228018760684e-05,4.475975036621088e-06,-5.1196229457855225e-05,-1.0,0.0,0.0,0.0,0.0,0.0,0.0,0.0,0.0
1676469262.2958682,6959,1676469262,291472656,base_link,2.571088671684265e-05,4.7551482915878235e-06,-5.309461355209351e-05,-1.0,0.0,0.0,0.0,0.0,0.0,0.0,0.0,0.0
1676469262.3180099,6960,1676469262,311455656,base_link,1.8540170788764955e-05,1.3673233985900877e-05,-2.6661556959152224e-05,-1.0,0.0,0.0,0.0,0.0,0.0,0.0,0.0,0.0
1676469262.3383965,6961,1676469262,331438656,base_link,1.6462244093418122e-05,1.444536596536636e-05,-2.442931085824967e-05,-1.0,0.0,0.0,0.0,0.0,0.0,0.0,0.0,0.0
1676469262.3801897,6962,1676469262,371404376,base_link,1.5486210584640502e-05,1.589114964008331e-05,-2.1307364106178287e-05,-1.0,0.0,0.0,0.0,0.0,0.0,0.0,0.0,0.0
1676469262.399248,6963,1676469262,396382376,base_link,1.5870600938796997e-05,1.5406665205955502e-05,-2.2808383405208592e-05,-1.0,0.0,0.0,0.0,0.0,0.0,0.0,0.0,0.0
1676469262.4370384,6964,1676469262,431350376,base_link,1.6557209193706514e-05,1.547778099775314e-05,-2.41737112402916e-05,-1.0,0.0,0.0,0.0,0.0,0.0,0.0,0.0,0.0
1676469262.4572222,6965,1676469262,451332376,base_link,1.7834372818470003e-05,1.5814304351806637e-05,-2.592937350273133e-05,-1.0,0.0,0.0,0.0,0.0,0.0,0.0,0.0,0.0
1676469262.480319,6966,1676469262,471314352,base_link,1.9271087646484375e-05,1.461836993694305e-05,-2.7252191305160528e-05,-1.0,0.0,0.0,0.0,0.0,0.0,0.0,0.0,0.0
1676469262.4968312,6967,1676469262,491297352,base_link,1.773933917284012e-05,1.3040053844451901e-05,-3.0927020311355595e-05,-1.0,0.0,0.0,0.0,0.0,0.0,0.0,0.0,0.0
1676469262.5176363,6968,1676469262,511279352,base_link,1.9501084089279175e-05,1.4275501668453213e-05,-3.0142617225646977e-05,-1.0,0.0,0.0,0.0,0.0,0.0,0.0,0.0,0.0
1676469262.5382457,6969,1676469262,531262352,base_link,2.0524589717388154e-05,1.1131471395492549e-05,-3.6846303939819337e-05,-1.0,0.0,0.0,0.0,0.0,0.0,0.0,0.0,0.0
1676469262.5565672,6970,1676469262,551244352,base_link,2.112291753292084e-05,1.2892432510852809e-05,-3.606577515602112e-05,-1.0,0.0,0.0,0.0,0.0,0.0,0.0,0.0,0.0
1676469262.581304,6971,1676469262,571229328,base_link,2.1667912602424624e-05,1.3032346963882441e-05,-4.003804922103882e-05,-1.0,0.0,0.0,0.0,0.0,0.0,0.0,0.0,0.0
1676469262.598091,6972,1676469262,591208328,base_link,2.256613075733185e-05,1.1419741809368129e-05,-4.01887446641922e-05,-1.0,0.0,0.0,0.0,0.0,0.0,0.0,0.0,0.0
1676469262.6162825,6973,1676469262,611191328,base_link,2.2932925820350647e-05,1.2050572782754893e-05,-3.764455020427704e-05,-1.0,0.0,0.0,0.0,0.0,0.0,0.0,0.0,0.0
1676469262.6374507,6974,1676469262,631175328,base_link,2.2354702651500704e-05,1.3153070211410519e-05,-3.591550886631012e-05,-1.0,0.0,0.0,0.0,0.0,0.0,0.0,0.0,0.0
1676469262.6582317,6975,1676469262,651156328,base_link,2.1996866166591645e-05,1.331573277711868e-05,-3.4023272991180425e-05,-1.0,0.0,0.0,0.0,0.0,0.0,0.0,0.0,0.0
1676469262.6771755,6976,1676469262,671138304,base_link,2.1571215987205508e-05,1.3708361983299253e-05,-3.429772853851318e-05,-1.0,0.0,0.0,0.0,0.0,0.0,0.0,0.0,0.0
1676469262.6970174,6977,1676469262,691120304,base_link,2.0972150564193727e-05,1.4043949544429777e-05,-3.175573348999024e-05,-1.0,0.0,0.0,0.0,0.0,0.0,0.0,0.0,0.0
1676469262.718142,6978,1676469262,711103304,base_link,2.104909121990204e-05,1.478270888328552e-05,-2.897604405879975e-05,-1.0,0.0,0.0,0.0,0.0,0.0,0.0,0.0,0.0
1676469262.736551,6979,1676469262,731086304,base_link,1.9951535761356353e-05,1.5808939933776853e-05,-2.9169130325317386e-05,-1.0,0.0,0.0,0.0,0.0,0.0,0.0,0.0,0.0
1676469262.7573652,6980,1676469262,751075304,base_link,1.9921377301216126e-05,1.6027675569057463e-05,-2.7360302209854132e-05,-1.0,0.0,0.0,0.0,0.0,0.0,0.0,0.0,0.0
1676469262.7795694,6981,1676469262,771050280,base_link,1.9959819316864014e-05,1.5598320960998534e-05,-2.7716678380966192e-05,-1.0,0.0,0.0,0.0,0.0,0.0,0.0,0.0,0.0
1676469262.7965515,6982,1676469262,791034280,base_link,1.967056840658188e-05,1.5745458006858824e-05,-2.7656334638595586e-05,-1.0,0.0,0.0,0.0,0.0,0.0,0.0,0.0,0.0
1676469262.8174298,6983,1676469262,811016280,base_link,2.01301246881485e-05,1.560677886009216e-05,-2.82822996377945e-05,-1.0,0.0,0.0,0.0,0.0,0.0,0.0,0.0,0.0
1676469262.8393025,6984,1676469262,831000280,base_link,2.0061524212360382e-05,1.5954959392547604e-05,-2.8741875290870672e-05,-1.0,0.0,0.0,0.0,0.0,0.0,0.0,0.0,0.0
1676469262.8568666,6985,1676469262,850982280,base_link,2.0485319197177887e-05,1.5059307217597959e-05,-3.126381635665894e-05,-1.0,0.0,0.0,0.0,0.0,0.0,0.0,0.0,0.0
1676469262.8777885,6986,1676469262,870963256,base_link,2.0500463247299194e-05,1.4695023000240324e-05,-3.1845027208328246e-05,-1.0,0.0,0.0,0.0,0.0,0.0,0.0,0.0,0.0
1676469262.8958411,6987,1676469262,890945256,base_link,2.1164922416210176e-05,1.3912236690521237e-05,-3.20346474647522e-05,-1.0,0.0,0.0,0.0,0.0,0.0,0.0,0.0,0.0
1676469262.9178073,6988,1676469262,910927256,base_link,2.139774262905121e-05,1.4090827107429502e-05,-3.279949426651001e-05,-1.0,0.0,0.0,0.0,0.0,0.0,0.0,0.0,0.0
1676469262.9383452,6989,1676469262,930910256,base_link,2.1367619931697845e-05,1.4136494696140287e-05,-3.253535032272339e-05,-1.0,0.0,0.0,0.0,0.0,0.0,0.0,0.0,0.0
1676469262.9564517,6990,1676469262,950892256,base_link,2.1400225162506104e-05,1.3700577616691586e-05,-3.31363320350647e-05,-1.0,0.0,0.0,0.0,0.0,0.0,0.0,0.0,0.0
1676469262.978857,6991,1676469262,970874232,base_link,2.1678784489631653e-05,1.3589195907115933e-05,-3.410550653934479e-05,-1.0,0.0,0.0,0.0,0.0,0.0,0.0,0.0,0.0
1676469262.9952533,6992,1676469262,990857232,base_link,2.1296310424804687e-05,1.2988042831420895e-05,-3.331923484802246e-05,-1.0,0.0,0.0,0.0,0.0,0.0,0.0,0.0,0.0
1676469263.016366,6993,1676469263,10839232,base_link,2.118639349937439e-05,1.3548883795738218e-05,-3.28416645526886e-05,-1.0,0.0,0.0,0.0,0.0,0.0,0.0,0.0,0.0
1676469263.0372458,6994,1676469263,30822232,base_link,2.1765239536762237e-05,1.3215318322181698e-05,-3.3602461218833925e-05,-1.0,0.0,0.0,0.0,0.0,0.0,0.0,0.0,0.0
1676469263.0579402,6995,1676469263,50805232,base_link,2.044842541217804e-05,1.3736692070960997e-05,-3.191825151443482e-05,-1.0,0.0,0.0,0.0,0.0,0.0,0.0,0.0,0.0
1676469263.0980737,6996,1676469263,95767208,base_link,2.0398986339569092e-05,1.3048005104064938e-05,-3.18692684173584e-05,-1.0,0.0,0.0,0.0,0.0,0.0,0.0,0.0,0.0
1676469263.137555,6997,1676469263,130734208,base_link,2.0833732187747957e-05,1.3539375364780423e-05,-3.169769942760468e-05,-1.0,0.0,0.0,0.0,0.0,0.0,0.0,0.0,0.0
1676469263.156119,6998,1676469263,150717208,base_link,2.0207589864730836e-05,1.268942207098007e-05,-3.18467915058136e-05,-1.0,0.0,0.0,0.0,0.0,0.0,0.0,0.0,0.0
1676469263.1790175,6999,1676469263,175695184,base_link,2.0323678851127626e-05,1.3301610946655271e-05,-3.259326219558716e-05,-1.0,0.0,0.0,0.0,0.0,0.0,0.0,0.0,0.0
1676469263.196161,7000,1676469263,190681184,base_link,2.0507940649986267e-05,1.2999795377254484e-05,-3.224692940711975e-05,-1.0,0.0,0.0,0.0,0.0,0.0,0.0,0.0,0.0
1676469263.2186873,7001,1676469263,215659184,base_link,2.04268217086792e-05,1.3319641351699827e-05,-3.2606393098831175e-05,-1.0,0.0,0.0,0.0,0.0,0.0,0.0,0.0,0.0
1676469263.2360427,7002,1676469263,230646184,base_link,2.0330187678337098e-05,1.2734065949916837e-05,-3.273146748542786e-05,-1.0,0.0,0.0,0.0,0.0,0.0,0.0,0.0,0.0
1676469263.2587974,7003,1676469263,255624184,base_link,2.0140641927719117e-05,1.2572255730628965e-05,-3.258134126663208e-05,-1.0,0.0,0.0,0.0,0.0,0.0,0.0,0.0,0.0
1676469263.2785892,7004,1676469263,270610160,base_link,2.0449411869049073e-05,1.2489493191242215e-05,-3.324313759803772e-05,-1.0,0.0,0.0,0.0,0.0,0.0,0.0,0.0,0.0
1676469263.2970767,7005,1676469263,290593160,base_link,2.0292997360229494e-05,1.192899793386459e-05,-3.381899297237396e-05,-1.0,0.0,0.0,0.0,0.0,0.0,0.0,0.0,0.0
1676469263.31847,7006,1676469263,315573160,base_link,2.008795291185379e-05,1.2032482028007505e-05,-3.3646914362907414e-05,-1.0,0.0,0.0,0.0,0.0,0.0,0.0,0.0,0.0
1676469263.3365076,7007,1676469263,330558160,base_link,2.0349937677383423e-05,1.2213186919689176e-05,-3.3433651924133305e-05,-1.0,0.0,0.0,0.0,0.0,0.0,0.0,0.0,0.0
1676469263.3590782,7008,1676469263,355537160,base_link,2.0299974083900454e-05,1.198230683803558e-05,-3.4144541621208194e-05,-1.0,0.0,0.0,0.0,0.0,0.0,0.0,0.0,0.0
1676469263.3778257,7009,1676469263,370523136,base_link,2.0444883406162264e-05,1.1942943930625912e-05,-3.4121021628379827e-05,-1.0,0.0,0.0,0.0,0.0,0.0,0.0,0.0,0.0
1676469263.399601,7010,1676469263,395508136,base_link,1.9640937447547915e-05,1.2158125638961789e-05,-3.3504074811935424e-05,-1.0,0.0,0.0,0.0,0.0,0.0,0.0,0.0,0.0
1676469263.4184191,7011,1676469263,415490136,base_link,1.9963252544403076e-05,1.220760494470596e-05,-3.4239724278450015e-05,-1.0,0.0,0.0,0.0,0.0,0.0,0.0,0.0,0.0
1676469263.4368105,7012,1676469263,430470136,base_link,1.990916430950165e-05,1.1728566884994504e-05,-3.357374370098114e-05,-1.0,0.0,0.0,0.0,0.0,0.0,0.0,0.0,0.0
1676469263.4574609,7013,1676469263,450453136,base_link,2.01009601354599e-05,1.2079292535781857e-05,-3.40102106332779e-05,-1.0,0.0,0.0,0.0,0.0,0.0,0.0,0.0,0.0
1676469263.479471,7014,1676469263,475430112,base_link,2.013228237628937e-05,1.218994632363319e-05,-3.3940207958221434e-05,-1.0,0.0,0.0,0.0,0.0,0.0,0.0,0.0,0.0
1676469263.496374,7015,1676469263,490417112,base_link,2.0276471972465515e-05,1.2120323628187177e-05,-3.3559566736221315e-05,-1.0,0.0,0.0,0.0,0.0,0.0,0.0,0.0,0.0
1676469263.5168312,7016,1676469263,510399112,base_link,1.996493935585022e-05,1.2412343919277188e-05,-3.390503227710724e-05,-1.0,0.0,0.0,0.0,0.0,0.0,0.0,0.0,0.0
1676469263.5388608,7017,1676469263,535379112,base_link,1.95277214050293e-05,1.1135410517454144e-05,-3.360264301300049e-05,-1.0,0.0,0.0,0.0,0.0,0.0,0.0,0.0,0.0
1676469263.5560167,7018,1676469263,550365112,base_link,2.0575484633445742e-05,1.2306934595108029e-05,-3.389211893081665e-05,-1.0,0.0,0.0,0.0,0.0,0.0,0.0,0.0,0.0
1676469263.5806174,7019,1676469263,570346832,base_link,1.9810783863067627e-05,1.2143014371395108e-05,-3.3881825208663944e-05,-1.0,0.0,0.0,0.0,0.0,0.0,0.0,0.0,0.0
1676469263.5989616,7020,1676469263,595331832,base_link,2.0106364786624908e-05,1.2032835185527798e-05,-3.385399878025055e-05,-1.0,0.0,0.0,0.0,0.0,0.0,0.0,0.0,0.0
1676469263.6174343,7021,1676469263,610311832,base_link,2.0249143242836e-05,1.1777585744857785e-05,-3.3883088827133184e-05,-1.0,0.0,0.0,0.0,0.0,0.0,0.0,0.0,0.0
1676469263.6368535,7022,1676469263,630293832,base_link,2.0075777173042298e-05,1.1409693211317059e-05,-3.382323384284973e-05,-1.0,0.0,0.0,0.0,0.0,0.0,0.0,0.0,0.0
1676469263.6590204,7023,1676469263,655273832,base_link,2.021087110042572e-05,1.2217241525650022e-05,-3.3583045005798344e-05,-1.0,0.0,0.0,0.0,0.0,0.0,0.0,0.0,0.0
1676469263.6771283,7024,1676469263,670258808,base_link,1.989109218120575e-05,1.2363862991333006e-05,-3.331552147865296e-05,-1.0,0.0,0.0,0.0,0.0,0.0,0.0,0.0,0.0
1676469263.6978307,7025,1676469263,690240808,base_link,2.051382213830948e-05,1.2230412662029264e-05,-3.3610314130783084e-05,-1.0,0.0,0.0,0.0,0.0,0.0,0.0,0.0,0.0
1676469263.718773,7026,1676469263,715229808,base_link,1.981163024902344e-05,1.230843439698219e-05,-3.316503167152405e-05,-1.0,0.0,0.0,0.0,0.0,0.0,0.0,0.0,0.0
1676469263.7369418,7027,1676469263,730208808,base_link,2.0432531833648684e-05,1.2563812732696531e-05,-3.3699956536293034e-05,-1.0,0.0,0.0,0.0,0.0,0.0,0.0,0.0,0.0
1676469263.7571504,7028,1676469263,750189808,base_link,2.0764830708503724e-05,1.2475715577602384e-05,-3.3810129761695865e-05,-1.0,0.0,0.0,0.0,0.0,0.0,0.0,0.0,0.0
1676469263.7806468,7029,1676469263,775167784,base_link,2.005794644355774e-05,1.2075038254261015e-05,-3.350823223590851e-05,-1.0,0.0,0.0,0.0,0.0,0.0,0.0,0.0,0.0
1676469263.8191214,7030,1676469263,815132784,base_link,2.0464783906936646e-05,1.2788075208663938e-05,-3.344053626060486e-05,-1.0,0.0,0.0,0.0,0.0,0.0,0.0,0.0,0.0
1676469263.8361955,7031,1676469263,830118784,base_link,2.0212747156620026e-05,1.2426686286926267e-05,-3.336745500564575e-05,-1.0,0.0,0.0,0.0,0.0,0.0,0.0,0.0,0.0
1676469263.8574524,7032,1676469263,850100784,base_link,2.0226994156837466e-05,1.2612795829772947e-05,-3.3578667044639586e-05,-1.0,0.0,0.0,0.0,0.0,0.0,0.0,0.0,0.0
1676469263.8803637,7033,1676469263,875079760,base_link,2.0270620286464693e-05,1.2794539332389829e-05,-3.305642604827881e-05,-1.0,0.0,0.0,0.0,0.0,0.0,0.0,0.0,0.0
1676469263.8970819,7034,1676469263,890065760,base_link,1.9806484878063203e-05,1.2379345297813413e-05,-3.33272397518158e-05,-1.0,0.0,0.0,0.0,0.0,0.0,0.0,0.0,0.0
1676469263.9186158,7035,1676469263,915045760,base_link,2.061325013637543e-05,1.3054558634757994e-05,-3.380237519741059e-05,-1.0,0.0,0.0,0.0,0.0,0.0,0.0,0.0,0.0
1676469263.9366467,7036,1676469263,930030760,base_link,2.0463073253631592e-05,1.2696765363216397e-05,-3.276427388191223e-05,-1.0,0.0,0.0,0.0,0.0,0.0,0.0,0.0,0.0
1676469263.9568973,7037,1676469263,950014760,base_link,2.0115923881530764e-05,1.2487483769655224e-05,-3.289567530155182e-05,-1.0,0.0,0.0,0.0,0.0,0.0,0.0,0.0,0.0
1676469263.9781368,7038,1676469263,969997736,base_link,2.0895987749099732e-05,1.2937812507152554e-05,-3.320384323596954e-05,-1.0,0.0,0.0,0.0,0.0,0.0,0.0,0.0,0.0
1676469263.9969876,7039,1676469263,989977736,base_link,2.0656254887580873e-05,1.324455142021179e-05,-3.2671725749969486e-05,-1.0,0.0,0.0,0.0,0.0,0.0,0.0,0.0,0.0
1676469264.017271,7040,1676469264,9959736,base_link,2.0232100784778596e-05,1.257691979408264e-05,-3.30774188041687e-05,-1.0,0.0,0.0,0.0,0.0,0.0,0.0,0.0,0.0
1676469264.0356808,7041,1676469264,29942736,base_link,2.038587182760239e-05,1.2830501794815061e-05,-3.290639221668244e-05,-1.0,0.0,0.0,0.0,0.0,0.0,0.0,0.0,0.0
1676469264.0565562,7042,1676469264,49925736,base_link,2.0900948345661166e-05,1.2826165556907651e-05,-3.32365095615387e-05,-1.0,0.0,0.0,0.0,0.0,0.0,0.0,0.0,0.0
1676469264.0782962,7043,1676469264,69906968,base_link,2.0504415035247803e-05,1.2574675679206845e-05,-3.2929033041000365e-05,-1.0,0.0,0.0,0.0,0.0,0.0,0.0,0.0,0.0
1676469264.0985177,7044,1676469264,94885968,base_link,2.0427244901657106e-05,1.264318525791168e-05,-3.3667659759521485e-05,-1.0,0.0,0.0,0.0,0.0,0.0,0.0,0.0,0.0
1676469264.1161537,7045,1676469264,109872968,base_link,2.0456680655479433e-05,1.2598188221454617e-05,-3.333602547645569e-05,-1.0,0.0,0.0,0.0,0.0,0.0,0.0,0.0,0.0
1676469264.1387177,7046,1676469264,134850968,base_link,2.0748145878314974e-05,1.3278129696846005e-05,-3.3286628127098084e-05,-1.0,0.0,0.0,0.0,0.0,0.0,0.0,0.0,0.0
1676469264.156121,7047,1676469264,149837968,base_link,2.0187443494796753e-05,1.3002233207225797e-05,-3.262070715427399e-05,-1.0,0.0,0.0,0.0,0.0,0.0,0.0,0.0,0.0
1676469264.179517,7048,1676469264,174816944,base_link,2.0687380433082582e-05,1.3296207785606381e-05,-3.29473078250885e-05,-1.0,0.0,0.0,0.0,0.0,0.0,0.0,0.0,0.0
1676469264.1963344,7049,1676469264,189801944,base_link,2.0807337760925293e-05,1.3220170140266415e-05,-3.261672258377075e-05,-1.0,0.0,0.0,0.0,0.0,0.0,0.0,0.0,0.0
1676469264.21841,7050,1676469264,214781944,base_link,1.9964948296546937e-05,1.32496565580368e-05,-3.180719017982483e-05,-1.0,0.0,0.0,0.0,0.0,0.0,0.0,0.0,0.0
1676469264.2362077,7051,1676469264,229766944,base_link,2.040502727031708e-05,1.2951681017875668e-05,-3.269820809364319e-05,-1.0,0.0,0.0,0.0,0.0,0.0,0.0,0.0,0.0
1676469264.2576256,7052,1676469264,254746944,base_link,2.0786139369010927e-05,1.2885333597660061e-05,-3.2933932542800906e-05,-1.0,0.0,0.0,0.0,0.0,0.0,0.0,0.0,0.0
1676469264.2794452,7053,1676469264,274726920,base_link,2.0642718672752382e-05,1.3082364201545713e-05,-3.2861602306365965e-05,-1.0,0.0,0.0,0.0,0.0,0.0,0.0,0.0,0.0
1676469264.297499,7054,1676469264,289713920,base_link,2.0246708393096924e-05,1.2904137372970579e-05,-3.236515820026398e-05,-1.0,0.0,0.0,0.0,0.0,0.0,0.0,0.0,0.0
1676469264.3175352,7055,1676469264,314693920,base_link,2.0572277903556825e-05,1.3318005204200742e-05,-3.272041082382202e-05,-1.0,0.0,0.0,0.0,0.0,0.0,0.0,0.0,0.0
1676469264.33755,7056,1676469264,334675920,base_link,2.0647984743118287e-05,1.2966468930244444e-05,-3.3195337653160094e-05,-1.0,0.0,0.0,0.0,0.0,0.0,0.0,0.0,0.0
1676469264.3584886,7057,1676469264,354657920,base_link,2.0806849002838136e-05,1.2526760995388028e-05,-3.3044785261154174e-05,-1.0,0.0,0.0,0.0,0.0,0.0,0.0,0.0,0.0
1676469264.3770168,7058,1676469264,369643896,base_link,2.0910891890525818e-05,1.3230589032173154e-05,-3.30501139163971e-05,-1.0,0.0,0.0,0.0,0.0,0.0,0.0,0.0,0.0
1676469264.3984609,7059,1676469264,394622896,base_link,2.0385849475860597e-05,1.3373000919818875e-05,-3.3358013629913334e-05,-1.0,0.0,0.0,0.0,0.0,0.0,0.0,0.0,0.0
1676469264.4163752,7060,1676469264,409608896,base_link,2.1191594004631043e-05,1.3419325649738308e-05,-3.323826193809509e-05,-1.0,0.0,0.0,0.0,0.0,0.0,0.0,0.0,0.0
1676469264.4376266,7061,1676469264,434586896,base_link,2.1267771720886232e-05,1.2482646107673643e-05,-3.4020870923995976e-05,-1.0,0.0,0.0,0.0,0.0,0.0,0.0,0.0,0.0
1676469264.458499,7062,1676469264,454570896,base_link,2.034612149000168e-05,1.2455817312002179e-05,-3.3242723345756534e-05,-1.0,0.0,0.0,0.0,0.0,0.0,0.0,0.0,0.0
1676469264.478905,7063,1676469264,474550872,base_link,2.0751821994781495e-05,1.3061973452568051e-05,-3.3126068115234374e-05,-1.0,0.0,0.0,0.0,0.0,0.0,0.0,0.0,0.0
1676469264.5184653,7064,1676469264,514516872,base_link,2.027878165245056e-05,1.3009764254093167e-05,-3.298505544662476e-05,-1.0,0.0,0.0,0.0,0.0,0.0,0.0,0.0,0.0
1676469264.5365827,7065,1676469264,529502872,base_link,2.0207157731056215e-05,1.3083487749099728e-05,-3.3240783214569094e-05,-1.0,0.0,0.0,0.0,0.0,0.0,0.0,0.0,0.0
1676469264.5575123,7066,1676469264,554481872,base_link,2.0795133709907533e-05,1.2596635520458218e-05,-3.277423977851868e-05,-1.0,0.0,0.0,0.0,0.0,0.0,0.0,0.0,0.0
1676469264.579022,7067,1676469264,574462336,base_link,2.0370519161224366e-05,1.2532415986061093e-05,-3.27215313911438e-05,-1.0,0.0,0.0,0.0,0.0,0.0,0.0,0.0,0.0
1676469264.5962946,7068,1676469264,589449336,base_link,2.0651254057884216e-05,1.3331106305122372e-05,-3.282121121883392e-05,-1.0,0.0,0.0,0.0,0.0,0.0,0.0,0.0,0.0
1676469264.6183155,7069,1676469264,614428336,base_link,2.0331048965454103e-05,1.3352900743484495e-05,-3.327629566192627e-05,-1.0,0.0,0.0,0.0,0.0,0.0,0.0,0.0,0.0
1676469264.638318,7070,1676469264,634410336,base_link,2.073493301868439e-05,1.3142134249210355e-05,-3.352637887001038e-05,-1.0,0.0,0.0,0.0,0.0,0.0,0.0,0.0,0.0
1676469264.656859,7071,1676469264,649397336,base_link,2.0152513682842254e-05,1.3169352710247037e-05,-3.2367688417434695e-05,-1.0,0.0,0.0,0.0,0.0,0.0,0.0,0.0,0.0
1676469264.6788962,7072,1676469264,674376800,base_link,2.037658989429474e-05,1.2400803714990612e-05,-3.388324975967407e-05,-1.0,0.0,0.0,0.0,0.0,0.0,0.0,0.0,0.0
1676469264.6963897,7073,1676469264,689361800,base_link,2.0136231184005738e-05,1.2631805241107937e-05,-3.3477413654327396e-05,-1.0,0.0,0.0,0.0,0.0,0.0,0.0,0.0,0.0
1676469264.717397,7074,1676469264,714339800,base_link,2.052433490753174e-05,1.3330230116844175e-05,-3.3046007156372075e-05,-1.0,0.0,0.0,0.0,0.0,0.0,0.0,0.0,0.0
1676469264.7382822,7075,1676469264,734324800,base_link,2.0558477938175204e-05,1.2468108534812924e-05,-3.348252773284912e-05,-1.0,0.0,0.0,0.0,0.0,0.0,0.0,0.0,0.0
1676469264.75615,7076,1676469264,749309800,base_link,1.9590029120445252e-05,1.3181525468826291e-05,-3.286491632461548e-05,-1.0,0.0,0.0,0.0,0.0,0.0,0.0,0.0,0.0
1676469264.779204,7077,1676469264,774290520,base_link,2.049498558044434e-05,1.3359437882900235e-05,-3.35910439491272e-05,-1.0,0.0,0.0,0.0,0.0,0.0,0.0,0.0,0.0
1676469264.796164,7078,1676469264,789273520,base_link,2.0270535349845886e-05,1.3395434617996213e-05,-3.294296860694886e-05,-1.0,0.0,0.0,0.0,0.0,0.0,0.0,0.0,0.0
1676469264.81754,7079,1676469264,814252520,base_link,2.0133918523788454e-05,1.303235292434692e-05,-3.319690227508545e-05,-1.0,0.0,0.0,0.0,0.0,0.0,0.0,0.0,0.0
1676469264.8389683,7080,1676469264,834237520,base_link,2.0543596148490907e-05,1.3436117768287657e-05,-3.306376338005066e-05,-1.0,0.0,0.0,0.0,0.0,0.0,0.0,0.0,0.0
1676469264.8568525,7081,1676469264,849221520,base_link,1.984684467315674e-05,1.2847533822059628e-05,-3.2701370120048526e-05,-1.0,0.0,0.0,0.0,0.0,0.0,0.0,0.0,0.0
1676469264.8790634,7082,1676469264,874199240,base_link,2.0644119381904604e-05,1.2532679736614224e-05,-3.3658045530319215e-05,-1.0,0.0,0.0,0.0,0.0,0.0,0.0,0.0,0.0
1676469264.898125,7083,1676469264,894183240,base_link,2.057407796382904e-05,1.289848983287811e-05,-3.2725203037261967e-05,-1.0,0.0,0.0,0.0,0.0,0.0,0.0,0.0,0.0
1676469264.9157753,7084,1676469264,909169240,base_link,1.9835323095321655e-05,1.2850308418273922e-05,-3.318413197994232e-05,-1.0,0.0,0.0,0.0,0.0,0.0,0.0,0.0,0.0
1676469264.9376438,7085,1676469264,934147240,base_link,2.0854568481445312e-05,1.3003876805305479e-05,-3.345988988876343e-05,-1.0,0.0,0.0,0.0,0.0,0.0,0.0,0.0,0.0
1676469264.9586186,7086,1676469264,954130240,base_link,1.9894683361053467e-05,1.2700645625591275e-05,-3.3462226390838624e-05,-1.0,0.0,0.0,0.0,0.0,0.0,0.0,0.0,0.0
1676469264.9773407,7087,1676469264,969115704,base_link,2.0724262297153473e-05,1.2635391950607297e-05,-3.3983594179153446e-05,-1.0,0.0,0.0,0.0,0.0,0.0,0.0,0.0,0.0
1676469264.9974308,7088,1676469264,994092704,base_link,2.0314569771289827e-05,1.2960356473922727e-05,-3.294826149940491e-05,-1.0,0.0,0.0,0.0,0.0,0.0,0.0,0.0,0.0
1676469265.01639,7089,1676469265,9079704,base_link,1.9722777605056763e-05,1.260969042778015e-05,-3.2239055633544925e-05,-1.0,0.0,0.0,0.0,0.0,0.0,0.0,0.0,0.0
1676469265.0361047,7090,1676469265,29063704,base_link,2.0666281878948214e-05,1.283190846443176e-05,-3.4482604265213014e-05,-1.0,0.0,0.0,0.0,0.0,0.0,0.0,0.0,0.0
1676469265.057485,7091,1676469265,54042704,base_link,2.0920979976654055e-05,1.3041447103023527e-05,-3.295828104019165e-05,-1.0,0.0,0.0,0.0,0.0,0.0,0.0,0.0,0.0
1676469265.0798736,7092,1676469265,74023424,base_link,2.0455795526504517e-05,1.2449793517589567e-05,-3.387075960636139e-05,-1.0,0.0,0.0,0.0,0.0,0.0,0.0,0.0,0.0
1676469265.0962148,7093,1676469265,89010424,base_link,1.979307234287262e-05,1.2268336117267606e-05,-3.31778883934021e-05,-1.0,0.0,0.0,0.0,0.0,0.0,0.0,0.0,0.0
1676469265.1173213,7094,1676469265,113989424,base_link,2.0805150270462037e-05,1.2906885147094724e-05,-3.347315788269043e-05,-1.0,0.0,0.0,0.0,0.0,0.0,0.0,0.0,0.0
1676469265.1374638,7095,1676469265,133974424,base_link,2.0594510436058045e-05,1.2388864159584042e-05,-3.391641974449158e-05,-1.0,0.0,0.0,0.0,0.0,0.0,0.0,0.0,0.0
1676469265.1779146,7096,1676469265,168939400,base_link,2.044847011566162e-05,1.2990689277648924e-05,-3.3262509107589725e-05,-1.0,0.0,0.0,0.0,0.0,0.0,0.0,0.0,0.0
1676469265.1968036,7097,1676469265,193916400,base_link,2.054666876792908e-05,1.2511651217937466e-05,-3.336278796195984e-05,-1.0,0.0,0.0,0.0,0.0,0.0,0.0,0.0,0.0
1676469265.2189028,7098,1676469265,213898400,base_link,2.0073822140693664e-05,1.3079449534416196e-05,-3.3183360099792484e-05,-1.0,0.0,0.0,0.0,0.0,0.0,0.0,0.0,0.0
1676469265.2365804,7099,1676469265,228886400,base_link,2.105742692947388e-05,1.3310246169567105e-05,-3.338271081447601e-05,-1.0,0.0,0.0,0.0,0.0,0.0,0.0,0.0,0.0
1676469265.2576175,7100,1676469265,253864400,base_link,2.020728588104248e-05,1.3122737407684323e-05,-3.300830125808716e-05,-1.0,0.0,0.0,0.0,0.0,0.0,0.0,0.0,0.0
1676469265.280865,7101,1676469265,273845376,base_link,2.005709707736969e-05,1.2662696838378904e-05,-3.2855603098869324e-05,-1.0,0.0,0.0,0.0,0.0,0.0,0.0,0.0,0.0
1676469265.296027,7102,1676469265,288834376,base_link,2.0466026663780213e-05,1.3512484729290005e-05,-3.3388400077819824e-05,-1.0,0.0,0.0,0.0,0.0,0.0,0.0,0.0,0.0
1676469265.3180559,7103,1676469265,313811376,base_link,1.9922783970832825e-05,1.256182938814163e-05,-3.279927670955658e-05,-1.0,0.0,0.0,0.0,0.0,0.0,0.0,0.0,0.0
1676469265.3366058,7104,1676469265,328798376,base_link,2.0038767158985138e-05,1.2598356604576108e-05,-3.327636420726776e-05,-1.0,0.0,0.0,0.0,0.0,0.0,0.0,0.0,0.0
1676469265.3574264,7105,1676469265,353778376,base_link,2.062584310770035e-05,1.3132832944393155e-05,-3.353191912174225e-05,-1.0,0.0,0.0,0.0,0.0,0.0,0.0,0.0,0.0
1676469265.3794038,7106,1676469265,373758352,base_link,2.0933046936988832e-05,1.2395380437374112e-05,-3.33545446395874e-05,-1.0,0.0,0.0,0.0,0.0,0.0,0.0,0.0,0.0
1676469265.3964376,7107,1676469265,388744352,base_link,2.0177057385444643e-05,1.3684821128845213e-05,-3.335285782814026e-05,-1.0,0.0,0.0,0.0,0.0,0.0,0.0,0.0,0.0
1676469265.41718,7108,1676469265,413723352,base_link,2.0709247887134553e-05,1.2972953915596006e-05,-3.374760150909424e-05,-1.0,0.0,0.0,0.0,0.0,0.0,0.0,0.0,0.0
1676469265.4389439,7109,1676469265,433706352,base_link,1.9996023178100586e-05,1.2546993792057034e-05,-3.342085480690002e-05,-1.0,0.0,0.0,0.0,0.0,0.0,0.0,0.0,0.0
1676469265.4563105,7110,1676469265,453688352,base_link,2.04082265496254e-05,1.259753108024597e-05,-3.333565592765808e-05,-1.0,0.0,0.0,0.0,0.0,0.0,0.0,0.0,0.0
1676469265.4785752,7111,1676469265,473670072,base_link,2.0887289941310885e-05,1.2672932446002958e-05,-3.3244419097900395e-05,-1.0,0.0,0.0,0.0,0.0,0.0,0.0,0.0,0.0
1676469265.497574,7112,1676469265,493653072,base_link,1.9932565093040468e-05,1.229903623461723e-05,-3.3090817928314213e-05,-1.0,0.0,0.0,0.0,0.0,0.0,0.0,0.0,0.0
1676469265.518209,7113,1676469265,513635072,base_link,1.9442942738533022e-05,1.3009850680828092e-05,-3.285946249961853e-05,-1.0,0.0,0.0,0.0,0.0,0.0,0.0,0.0,0.0
1676469265.5370333,7114,1676469265,533618072,base_link,2.0450684428215026e-05,1.3232660293579099e-05,-3.30528199672699e-05,-1.0,0.0,0.0,0.0,0.0,0.0,0.0,0.0,0.0
1676469265.5568593,7115,1676469265,553602072,base_link,2.074686586856842e-05,1.3215735554695126e-05,-3.2729190587997435e-05,-1.0,0.0,0.0,0.0,0.0,0.0,0.0,0.0,0.0
1676469265.580419,7116,1676469265,573581536,base_link,2.1011215448379517e-05,1.2985205650329587e-05,-3.293452858924866e-05,-1.0,0.0,0.0,0.0,0.0,0.0,0.0,0.0,0.0
1676469265.5972633,7117,1676469265,593563536,base_link,2.088059484958649e-05,1.2650662660598753e-05,-3.288716375827789e-05,-1.0,0.0,0.0,0.0,0.0,0.0,0.0,0.0,0.0
1676469265.6170268,7118,1676469265,613546536,base_link,2.028051316738129e-05,1.3752648234367368e-05,-3.3196100592613224e-05,-1.0,0.0,0.0,0.0,0.0,0.0,0.0,0.0,0.0
1676469265.6383116,7119,1676469265,633529536,base_link,2.1582597494125368e-05,1.3762006163597105e-05,-3.319974541664124e-05,-1.0,0.0,0.0,0.0,0.0,0.0,0.0,0.0,0.0
1676469265.656455,7120,1676469265,653512536,base_link,2.0510661602020265e-05,1.323663294315338e-05,-3.252018690109253e-05,-1.0,0.0,0.0,0.0,0.0,0.0,0.0,0.0,0.0
1676469265.6787608,7121,1676469265,673493256,base_link,2.0227229595184327e-05,1.335380673408508e-05,-3.2516670227050784e-05,-1.0,0.0,0.0,0.0,0.0,0.0,0.0,0.0,0.0
1676469265.6980152,7122,1676469265,693476256,base_link,2.0217323303222657e-05,1.2938442826271055e-05,-3.283488154411316e-05,-1.0,0.0,0.0,0.0,0.0,0.0,0.0,0.0,0.0
1676469265.7162583,7123,1676469265,713459256,base_link,1.9444966316223147e-05,1.3277056813240048e-05,-3.226694464683533e-05,-1.0,0.0,0.0,0.0,0.0,0.0,0.0,0.0,0.0
1676469265.7377896,7124,1676469265,733442256,base_link,1.9961172342300415e-05,1.3409292697906492e-05,-3.2376024127006535e-05,-1.0,0.0,0.0,0.0,0.0,0.0,0.0,0.0,0.0
1676469265.7581987,7125,1676469265,753424256,base_link,1.9856798648834228e-05,1.3162136077880857e-05,-3.3306169509887696e-05,-1.0,0.0,0.0,0.0,0.0,0.0,0.0,0.0,0.0
1676469265.7793298,7126,1676469265,773405232,base_link,2.014211416244507e-05,1.324856877326965e-05,-3.31506073474884e-05,-1.0,0.0,0.0,0.0,0.0,0.0,0.0,0.0,0.0
1676469265.7971575,7127,1676469265,793390232,base_link,1.9643405079841616e-05,1.367266774177551e-05,-3.281583786010742e-05,-1.0,0.0,0.0,0.0,0.0,0.0,0.0,0.0,0.0
1676469265.818564,7128,1676469265,813371232,base_link,2.10562139749527e-05,1.3864639401435849e-05,-3.270537257194519e-05,-1.0,0.0,0.0,0.0,0.0,0.0,0.0,0.0,0.0
1676469265.8375728,7129,1676469265,833355232,base_link,2.0279411971569062e-05,1.3085749745368954e-05,-3.286504149436951e-05,-1.0,0.0,0.0,0.0,0.0,0.0,0.0,0.0,0.0
1676469265.8581707,7130,1676469265,853338232,base_link,2.102125883102417e-05,1.3404035568237302e-05,-3.2704079151153565e-05,-1.0,0.0,0.0,0.0,0.0,0.0,0.0,0.0,0.0
1676469265.8791459,7131,1676469265,873317208,base_link,2.0288047194480897e-05,1.3379085063934324e-05,-3.252312242984772e-05,-1.0,0.0,0.0,0.0,0.0,0.0,0.0,0.0,0.0
1676469265.9180071,7132,1676469265,913283208,base_link,2.040235698223114e-05,1.3253235816955564e-05,-3.297696113586426e-05,-1.0,0.0,0.0,0.0,0.0,0.0,0.0,0.0,0.0
1676469265.9369345,7133,1676469265,933267208,base_link,2.023099809885025e-05,1.3701134920120237e-05,-3.272596597671509e-05,-1.0,0.0,0.0,0.0,0.0,0.0,0.0,0.0,0.0
1676469265.9576218,7134,1676469265,953248208,base_link,2.0586720108985902e-05,1.416015028953552e-05,-3.257924318313599e-05,-1.0,0.0,0.0,0.0,0.0,0.0,0.0,0.0,0.0
1676469265.9791613,7135,1676469265,973230440,base_link,2.053023874759674e-05,1.338647902011871e-05,-3.242456316947937e-05,-1.0,0.0,0.0,0.0,0.0,0.0,0.0,0.0,0.0
1676469265.996826,7136,1676469265,993214440,base_link,2.06466019153595e-05,1.3612565398216245e-05,-3.156999945640564e-05,-1.0,0.0,0.0,0.0,0.0,0.0,0.0,0.0,0.0
1676469266.0174558,7137,1676469266,13195440,base_link,1.9593989849090576e-05,1.3026595115661618e-05,-3.2415181398391724e-05,-1.0,0.0,0.0,0.0,0.0,0.0,0.0,0.0,0.0
1676469266.0389838,7138,1676469266,33177440,base_link,2.0422065258026124e-05,1.280926465988159e-05,-3.296962380409241e-05,-1.0,0.0,0.0,0.0,0.0,0.0,0.0,0.0,0.0
1676469266.0560272,7139,1676469266,53161440,base_link,2.069286108016968e-05,1.3908901810646054e-05,-3.231325745582581e-05,-1.0,0.0,0.0,0.0,0.0,0.0,0.0,0.0,0.0
1676469266.0781097,7140,1676469266,73143672,base_link,2.0522457361221315e-05,1.3138797879219053e-05,-3.310461342334748e-05,-1.0,0.0,0.0,0.0,0.0,0.0,0.0,0.0,0.0
1676469266.0991087,7141,1676469266,93125672,base_link,2.076164484024048e-05,1.3439324498176572e-05,-3.307167589664459e-05,-1.0,0.0,0.0,0.0,0.0,0.0,0.0,0.0,0.0
1676469266.1166031,7142,1676469266,113108672,base_link,2.0154766738414764e-05,1.2731289863586424e-05,-3.292455673217774e-05,-1.0,0.0,0.0,0.0,0.0,0.0,0.0,0.0,0.0
1676469266.137221,7143,1676469266,133090672,base_link,2.007701098918915e-05,1.2809038162231442e-05,-3.3079853653907775e-05,-1.0,0.0,0.0,0.0,0.0,0.0,0.0,0.0,0.0
1676469266.1555355,7144,1676469266,148085672,base_link,2.0987501740455628e-05,1.2967817485332487e-05,-3.3524036407470706e-05,-1.0,0.0,0.0,0.0,0.0,0.0,0.0,0.0,0.0
1676469266.179594,7145,1676469266,173055648,base_link,2.0541954040527343e-05,1.261147856712341e-05,-3.364381790161133e-05,-1.0,0.0,0.0,0.0,0.0,0.0,0.0,0.0,0.0
1676469266.1973007,7146,1676469266,193037648,base_link,2.0724090933799746e-05,1.267304867506027e-05,-3.350655436515808e-05,-1.0,0.0,0.0,0.0,0.0,0.0,0.0,0.0,0.0
1676469266.2160985,7147,1676469266,208024648,base_link,2.012258619070053e-05,1.3063931465148922e-05,-3.359154164791107e-05,-1.0,0.0,0.0,0.0,0.0,0.0,0.0,0.0,0.0
1676469266.2364616,7148,1676469266,233003648,base_link,2.037433832883835e-05,1.2898996472358701e-05,-3.280518352985382e-05,-1.0,0.0,0.0,0.0,0.0,0.0,0.0,0.0,0.0
1676469266.2574286,7149,1676469266,252985648,base_link,2.028610110282898e-05,1.2528750300407407e-05,-3.306583762168884e-05,-1.0,0.0,0.0,0.0,0.0,0.0,0.0,0.0,0.0
1676469266.277356,7150,1676469266,272967880,base_link,2.039831727743149e-05,1.280305981636047e-05,-3.343358039855957e-05,-1.0,0.0,0.0,0.0,0.0,0.0,0.0,0.0,0.0
1676469266.2978687,7151,1676469266,292949880,base_link,1.999002993106842e-05,1.267450004816055e-05,-3.2359528541564946e-05,-1.0,0.0,0.0,0.0,0.0,0.0,0.0,0.0,0.0
1676469266.318335,7152,1676469266,312931880,base_link,1.9456370174884796e-05,1.2530158460140226e-05,-3.297164142131806e-05,-1.0,0.0,0.0,0.0,0.0,0.0,0.0,0.0,0.0
1676469266.3365488,7153,1676469266,332914880,base_link,2.0547166466712954e-05,1.3205307722091672e-05,-3.294099271297455e-05,-1.0,0.0,0.0,0.0,0.0,0.0,0.0,0.0,0.0
1676469266.3571706,7154,1676469266,352897880,base_link,2.0369558036327363e-05,1.3003176450729368e-05,-3.299209475517273e-05,-1.0,0.0,0.0,0.0,0.0,0.0,0.0,0.0,0.0
1676469266.3809443,7155,1676469266,372878344,base_link,2.0438116788864136e-05,1.3149042427539823e-05,-3.339232206344605e-05,-1.0,0.0,0.0,0.0,0.0,0.0,0.0,0.0,0.0
1676469266.3961825,7156,1676469266,392861344,base_link,2.061607837677002e-05,1.2774981558322904e-05,-3.346693217754364e-05,-1.0,0.0,0.0,0.0,0.0,0.0,0.0,0.0,0.0
1676469266.417122,7157,1676469266,412844344,base_link,1.967650353908539e-05,1.203704923391342e-05,-3.390081524848938e-05,-1.0,0.0,0.0,0.0,0.0,0.0,0.0,0.0,0.0
1676469266.4384673,7158,1676469266,432826344,base_link,2.056798040866852e-05,1.27413734793663e-05,-3.406270742416382e-05,-1.0,0.0,0.0,0.0,0.0,0.0,0.0,0.0,0.0
1676469266.4561746,7159,1676469266,452809344,base_link,2.036007344722748e-05,1.2616479396820065e-05,-3.3422869443893433e-05,-1.0,0.0,0.0,0.0,0.0,0.0,0.0,0.0,0.0
1676469266.4784567,7160,1676469266,472791320,base_link,2.0367270708084106e-05,1.2717357277870175e-05,-3.352211713790894e-05,-1.0,0.0,0.0,0.0,0.0,0.0,0.0,0.0,0.0
1676469266.4966083,7161,1676469266,492773320,base_link,2.1082448959350588e-05,1.2715588510036466e-05,-3.405442237854004e-05,-1.0,0.0,0.0,0.0,0.0,0.0,0.0,0.0,0.0
1676469266.5163298,7162,1676469266,512756320,base_link,2.0416837930679323e-05,1.219108551740646e-05,-3.387340307235718e-05,-1.0,0.0,0.0,0.0,0.0,0.0,0.0,0.0,0.0
1676469266.5378957,7163,1676469266,532739320,base_link,2.078132927417755e-05,1.290478408336639e-05,-3.383672833442688e-05,-1.0,0.0,0.0,0.0,0.0,0.0,0.0,0.0,0.0
1676469266.5804927,7164,1676469266,572703552,base_link,1.959230899810791e-05,1.2804089486598966e-05,-3.2913124561309816e-05,-1.0,0.0,0.0,0.0,0.0,0.0,0.0,0.0,0.0
1676469266.618139,7165,1676469266,612669552,base_link,2.0697766542434692e-05,1.3042685389518735e-05,-3.367773592472076e-05,-1.0,0.0,0.0,0.0,0.0,0.0,0.0,0.0,0.0
1676469266.6356318,7166,1676469266,632651552,base_link,1.9477614760398864e-05,1.2245093286037443e-05,-3.2899796962738036e-05,-1.0,0.0,0.0,0.0,0.0,0.0,0.0,0.0,0.0
1676469266.6565247,7167,1676469266,652633552,base_link,2.079276442527771e-05,1.2899783253669735e-05,-3.329755067825318e-05,-1.0,0.0,0.0,0.0,0.0,0.0,0.0,0.0,0.0
1676469266.6792905,7168,1676469266,672616528,base_link,2.0426595211029055e-05,1.2005694210529325e-05,-3.3467960357666014e-05,-1.0,0.0,0.0,0.0,0.0,0.0,0.0,0.0,0.0
1676469266.6962006,7169,1676469266,692597528,base_link,2.05049529671669e-05,1.3203352689743039e-05,-3.311001062393189e-05,-1.0,0.0,0.0,0.0,0.0,0.0,0.0,0.0,0.0
1676469266.7175653,7170,1676469266,712580528,base_link,2.0811820030212402e-05,1.3699507713317869e-05,-3.228520154953003e-05,-1.0,0.0,0.0,0.0,0.0,0.0,0.0,0.0,0.0
1676469266.7363036,7171,1676469266,732563528,base_link,1.9854396581649783e-05,1.2414334714412686e-05,-3.2562121748924254e-05,-1.0,0.0,0.0,0.0,0.0,0.0,0.0,0.0,0.0
1676469266.7567742,7172,1676469266,752545528,base_link,1.9886380434036255e-05,1.3138872385025022e-05,-3.2911577820777896e-05,-1.0,0.0,0.0,0.0,0.0,0.0,0.0,0.0,0.0
1676469266.7791243,7173,1676469266,772527760,base_link,2.0089104771614077e-05,1.2808707356452939e-05,-3.3067405223846435e-05,-1.0,0.0,0.0,0.0,0.0,0.0,0.0,0.0,0.0
1676469266.796301,7174,1676469266,792510760,base_link,2.0319864153862e-05,1.227810978889465e-05,-3.304386734962463e-05,-1.0,0.0,0.0,0.0,0.0,0.0,0.0,0.0,0.0
1676469266.8169167,7175,1676469266,812493760,base_link,2.0224726200103762e-05,1.2483513355255124e-05,-3.275859355926514e-05,-1.0,0.0,0.0,0.0,0.0,0.0,0.0,0.0,0.0
1676469266.8363452,7176,1676469266,832476760,base_link,2.0279021561145783e-05,1.3027885556221005e-05,-3.303501605987549e-05,-1.0,0.0,0.0,0.0,0.0,0.0,0.0,0.0,0.0
1676469266.8560028,7177,1676469266,852457760,base_link,2.0901164412498476e-05,1.3482692837715146e-05,-3.289666175842285e-05,-1.0,0.0,0.0,0.0,0.0,0.0,0.0,0.0,0.0
1676469266.8796391,7178,1676469266,872439992,base_link,2.0595452189445497e-05,1.312969624996185e-05,-3.3462736010551455e-05,-1.0,0.0,0.0,0.0,0.0,0.0,0.0,0.0,0.0
