Time,header.seq,header.stamp.secs,header.stamp.nsecs,header.frame_id,child_frame_id,pose.pose.position.x,pose.pose.position.y,pose.pose.position.z,pose.pose.orientation.x,pose.pose.orientation.y,pose.pose.orientation.z,pose.pose.orientation.w,pose.covariance,twist.twist.linear.x,twist.twist.linear.y,twist.twist.linear.z,twist.twist.angular.x,twist.twist.angular.y,twist.twist.angular.z,twist.covariance
1676469259.5774062,4231,1676469259,434000360,map,base_link,-0.9976984262466433,-0.9222185611724851,0.12880818545818318,-0.012838738966340146,-0.09673453427943605,-0.014070422119179084,0.9951279589450157,"(0.0005370608996599913, -1.1072587980846544e-22, 5.403770198747738e-21, 0.0, 0.0, 0.0, -1.1072587980846544e-22, 0.0005365622346289456, -3.889862441905049e-36, 0.0, 0.0, 0.0, 5.4037701987477385e-21, -3.889862441905046e-36, 0.0004929357673972845, 0.0, 0.0, 0.0, 0.0, 0.0, 0.0, 0.0, 0.0, 0.0, 0.0, 0.0, 0.0, 0.0, 0.0, 0.0, 0.0, 0.0, 0.0, 0.0, 0.0, 0.0)",5.930764473305317e-06,-0.0027214863803237677,-0.00011763208749471198,0.00029711626120842993,0.0004446903476491569,-0.0011162441223859787,"(0.0017409391002729535, 0.0, 0.0, 0.0, 0.0, 0.0, 0.0, 0.0017442876705899835, -3.569437770742509e-20, 0.0, 0.0, 0.0, 0.0, -3.5694377707425096e-20, 0.0014528209576383233, 0.0, 0.0, 0.0, 0.0, 0.0, 0.0, 0.0, 0.0, 0.0, 0.0, 0.0, 0.0, 0.0, 0.0, 0.0, 0.0, 0.0, 0.0, 0.0, 0.0, 0.0)"
1676469259.5775042,4232,1676469259,473963568,map,base_link,-0.9977760910987856,-0.922217547893524,0.12883852422237385,-0.012848187870794236,-0.09673457987129368,-0.01406268389914257,0.9951279506038421,"(0.0005367490230128169, -1.075334796318936e-22, 5.328850898017414e-21, 0.0, 0.0, 0.0, -1.075334796318936e-22, 0.0005362647352740169, -3.8734222452107486e-36, 0.0, 0.0, 0.0, 5.3288508980174085e-21, -3.873422245210748e-36, 0.0004932356532663107, 0.0, 0.0, 0.0, 0.0, 0.0, 0.0, 0.0, 0.0, 0.0, 0.0, 0.0, 0.0, 0.0, 0.0, 0.0, 0.0, 0.0, 0.0, 0.0, 0.0, 0.0)",-0.0002805175899993628,-0.002754620276391506,-0.00025885368813760546,-0.001548082916997373,-0.0003950484097003936,0.00024800139362923806,"(0.0017350430134683847, 0.0, 0.0, 0.0, 0.0, 0.0, 0.0, 0.001738342340104282, -3.522852365021019e-20, 0.0, 0.0, 0.0, 0.0, -3.522852365021019e-20, 0.0014506796142086387, 0.0, 0.0, 0.0, 0.0, 0.0, 0.0, 0.0, 0.0, 0.0, 0.0, 0.0, 0.0, 0.0, 0.0, 0.0, 0.0, 0.0, 0.0, 0.0, 0.0, 0.0)"
1676469259.5808344,4233,1676469259,503938568,map,base_link,-0.9978365302085879,-0.9222178459167478,0.12885579466819752,-0.012849223255594414,-0.09673158596116126,-0.014060178924216873,0.9951282759442099,"(0.0005514660151675344, -1.1142381345030706e-22, 5.561392993966503e-21, 0.0, 0.0, 0.0, -1.1142381345030706e-22, 0.0005509642069227993, -3.9967317398125016e-36, 0.0, 0.0, 0.0, 5.5613929939664996e-21, -3.9967317398125016e-36, 0.000506053795106709, 0.0, 0.0, 0.0, 0.0, 0.0, 0.0, 0.0, 0.0, 0.0, 0.0, 0.0, 0.0, 0.0, 0.0, 0.0, 0.0, 0.0, 0.0, 0.0, 0.0, 0.0)",-0.0003440428408794105,-0.002592042088508606,-0.0004080246144440022,-0.0021385292056947947,-0.0005318416515365243,0.0003805937594734133,"(0.0017590790521353483, 0.0, 0.0, 0.0, 0.0, 0.0, 0.0, 0.001762443222105503, -3.584706766191071e-20, 0.0, 0.0, 0.0, 0.0, -3.58470676619107e-20, 0.0014697297010570765, 0.0, 0.0, 0.0, 0.0, 0.0, 0.0, 0.0, 0.0, 0.0, 0.0, 0.0, 0.0, 0.0, 0.0, 0.0, 0.0, 0.0, 0.0, 0.0, 0.0, 0.0)"
1676469259.5892124,4234,1676469259,533911568,map,base_link,-0.9978962540626528,-0.9222149848937986,0.12886644899845112,-0.012860149801907177,-0.09673460981283687,-0.0140678879683553,0.9951277299364534,"(0.0005361589719541371, -1.031261579306345e-22, 5.218781542872118e-21, 0.0, 0.0, 0.0, -1.031261579306345e-22, 0.0005356945330277085, -3.84857326058064e-36, 0.0, 0.0, 0.0, 5.218781542872117e-21, -3.84857326058064e-36, 0.0004935443866997957, 0.0, 0.0, 0.0, 0.0, 0.0, 0.0, 0.0, 0.0, 0.0, 0.0, 0.0, 0.0, 0.0, 0.0, 0.0, 0.0, 0.0, 0.0, 0.0, 0.0, 0.0)",-0.0004549537552520633,-0.002425732323899865,-0.000749043945688754,-0.0007247445173561573,-0.000131345761474222,-0.00042738215415738523,"(0.0017264203634113073, 0.0, 0.0, 0.0, 0.0, 0.0, 0.0, 0.0017296598525717854, -3.4559710284679954e-20, 0.0, 0.0, 0.0, 0.0, -3.455971028467996e-20, 0.0014474584022536874, 0.0, 0.0, 0.0, 0.0, 0.0, 0.0, 0.0, 0.0, 0.0, 0.0, 0.0, 0.0, 0.0, 0.0, 0.0, 0.0, 0.0, 0.0, 0.0, 0.0, 0.0)"
1676469259.594446,4235,1676469259,573876032,map,base_link,-0.9979722499847414,-0.9222011566162107,0.12887288630008686,-0.012847160532545558,-0.09673325744770178,-0.014069636757933972,0.9951279934315717,"(0.0005660220631398261, -1.1249656330721176e-22, 5.721132918806273e-21, 0.0, 0.0, 0.0, -1.1249656330721176e-22, 0.0005655154236592352, -4.1048091562316626e-36, 0.0, 0.0, 0.0, 5.7211329188062744e-21, -4.104809156231664e-36, 0.0005193054676055908, 0.0, 0.0, 0.0, 0.0, 0.0, 0.0, 0.0, 0.0, 0.0, 0.0, 0.0, 0.0, 0.0, 0.0, 0.0, 0.0, 0.0, 0.0, 0.0, 0.0, 0.0)",-0.00044279987923800945,-0.0019331714138388634,-0.0007003418868407605,0.0005470718606375158,-0.000871968106366694,-0.00040236389031633724,"(0.001777375815436244, 0.0, 0.0, 0.0, 0.0, 0.0, 0.0, 0.001780773513019085, -3.6016038842168725e-20, 0.0, 0.0, 0.0, 0.0, -3.601603884216873e-20, 0.0014866802375763655, 0.0, 0.0, 0.0, 0.0, 0.0, 0.0, 0.0, 0.0, 0.0, 0.0, 0.0, 0.0, 0.0, 0.0, 0.0, 0.0, 0.0, 0.0, 0.0, 0.0, 0.0)"
1676469259.6119556,4236,1676469259,603849032,map,base_link,-0.9980306625366213,-0.9221858978271482,0.12887613475322712,-0.012848730272993663,-0.09673472032139077,-0.014070486010298214,0.9951278004872977,"(0.0005478556267917156, -1.0313908262770564e-22, 5.3113863607396446e-21, 0.0, 0.0, 0.0, -1.0313908262770564e-22, 0.0005473911296576262, -3.9283485389834106e-36, 0.0, 0.0, 0.0, 5.311386360739644e-21, -3.928348538983412e-36, 0.0005044848658144474, 0.0, 0.0, 0.0, 0.0, 0.0, 0.0, 0.0, 0.0, 0.0, 0.0, 0.0, 0.0, 0.0, 0.0, 0.0, 0.0, 0.0, 0.0, 0.0, 0.0, 0.0)",-0.0007554921903647482,-0.0019807962235063314,-0.0007427972741425035,-1.0147064131160732e-05,-0.0005535414675250649,0.00020623391901608565,"(0.001737473881803453, 0.0, 0.0, 0.0, 0.0, 0.0, 0.0, 0.0017407303676009178, -3.4494171935401683e-20, 0.0, 0.0, 0.0, 0.0, -3.449417193540169e-20, 0.0014590640785172582, 0.0, 0.0, 0.0, 0.0, 0.0, 0.0, 0.0, 0.0, 0.0, 0.0, 0.0, 0.0, 0.0, 0.0, 0.0, 0.0, 0.0, 0.0, 0.0, 0.0, 0.0)"
1676469259.6458519,4237,1676469259,633823032,map,base_link,-0.9980970025062563,-0.9221647977828977,0.1288742423057555,-0.012856479922617108,-0.09673136360961831,-0.014073420356896914,0.9951279769851639,"(0.000561934954021126, -1.0682262129298084e-22, 5.523491383882468e-21, 0.0, 0.0, 0.0, -1.0682262129298084e-22, 0.0005614538677036762, -4.044263897474961e-36, 0.0, 0.0, 0.0, 5.523491383882462e-21, -4.04426389747496e-36, 0.0005168322240933776, 0.0, 0.0, 0.0, 0.0, 0.0, 0.0, 0.0, 0.0, 0.0, 0.0, 0.0, 0.0, 0.0, 0.0, 0.0, 0.0, 0.0, 0.0, 0.0, 0.0, 0.0)",-0.0009559639729559422,-0.0016641932306811213,-0.0007041012868285177,-0.0017681801691651344,-0.0006346616428345442,-0.0002831037854775786,"(0.0017595038516446948, 0.0, 0.0, 0.0, 0.0, 0.0, 0.0, 0.0017628291388973594, -3.504224475709076e-20, 0.0, 0.0, 0.0, 0.0, -3.5042244757090764e-20, 0.0014766874955967069, 0.0, 0.0, 0.0, 0.0, 0.0, 0.0, 0.0, 0.0, 0.0, 0.0, 0.0, 0.0, 0.0, 0.0, 0.0, 0.0, 0.0, 0.0, 0.0, 0.0, 0.0)"
1676469259.6827593,4238,1676469259,673786496,map,base_link,-0.9981853365898135,-0.9221262931823728,0.12887842953205098,-0.0128616797999292,-0.09672051613881906,-0.014068827890602147,0.9951290298916885,"(0.000559934473130852, -1.038499409666184e-22, 5.417421051354649e-21, 0.0, 0.0, 0.0, -1.038499409666184e-22, 0.0005594667745754123, -4.0127833983391855e-36, 0.0, 0.0, 0.0, 5.417421051354652e-21, -4.0127833983391855e-36, 0.0005156978731974959, 0.0, 0.0, 0.0, 0.0, 0.0, 0.0, 0.0, 0.0, 0.0, 0.0, 0.0, 0.0, 0.0, 0.0, 0.0, 0.0, 0.0, 0.0, 0.0, 0.0, 0.0)",-0.0010191138135269284,-0.0014996465761214495,-0.0007002685451880095,0.0012943614274263382,-0.0005516950041055679,-0.00015065089974086726,"(0.0017505853902548552, 0.0, 0.0, 0.0, 0.0, 0.0, 0.0, 0.0017538823885843158, -3.451621289428448e-20, 0.0, 0.0, 0.0, 0.0, -3.451621289428447e-20, 0.0014720361214131117, 0.0, 0.0, 0.0, 0.0, 0.0, 0.0, 0.0, 0.0, 0.0, 0.0, 0.0, 0.0, 0.0, 0.0, 0.0, 0.0, 0.0, 0.0, 0.0, 0.0, 0.0)"
1676469259.7120655,4239,1676469259,703760496,map,base_link,-0.99824994802475,-0.9220968484878538,0.12887783348560322,-0.012860684158537083,-0.09672232377084308,-0.014070104437260419,0.9951288552763073,"(0.0005439226515591145, -9.659918590970826e-23, 5.08187382737956e-21, 0.0, 0.0, 0.0, -9.659918590970826e-23, 0.0005434876075014472, -3.86231092208824e-36, 0.0, 0.0, 0.0, 5.08187382737956e-21, -3.862310922088239e-36, 0.0005024260026402771, 0.0, 0.0, 0.0, 0.0, 0.0, 0.0, 0.0, 0.0, 0.0, 0.0, 0.0, 0.0, 0.0, 0.0, 0.0, 0.0, 0.0, 0.0, 0.0, 0.0, 0.0)",-0.0010623816633597016,-0.0014777678297832608,-0.0006518008303828535,0.0018005023011937737,-0.00045482823043130333,0.00027622707420960074,"(0.0017184275202453136, 0.0, 0.0, 0.0, 0.0, 0.0, 0.0, 0.0017216267297044396, -3.3313440904538643e-20, 0.0, 0.0, 0.0, 0.0, -3.331344090453863e-20, 0.001449601841159165, 0.0, 0.0, 0.0, 0.0, 0.0, 0.0, 0.0, 0.0, 0.0, 0.0, 0.0, 0.0, 0.0, 0.0, 0.0, 0.0, 0.0, 0.0, 0.0, 0.0, 0.0)"
1676469259.7545934,4240,1676469259,733734496,map,base_link,-0.9983078241348269,-0.9220646023750303,0.12887512147426594,-0.012854820904078116,-0.0967216473572414,-0.014069960105292673,0.9951290330424764,"(0.0005291726556606591, -9.030485843606257e-23, 4.784078517454689e-21, 0.0, 0.0, 0.0, -9.030485843606257e-23, 0.0005287659587338567, -3.7259318858670947e-36, 0.0, 0.0, 0.0, 4.78407851745469e-21, -3.725931885867095e-36, 0.0004901076899841428, 0.0, 0.0, 0.0, 0.0, 0.0, 0.0, 0.0, 0.0, 0.0, 0.0, 0.0, 0.0, 0.0, 0.0, 0.0, 0.0, 0.0, 0.0, 0.0, 0.0, 0.0)",-0.000840286142192781,-0.0013675685040652752,-0.0007729934877716003,0.00030815639183856547,-0.0011416010092943907,1.1581874787225529e-05,"(0.0016892878338694572, 0.0, 0.0, 0.0, 0.0, 0.0, 0.0, 0.0016924040392041206, -3.223840953031015e-20, 0.0, 0.0, 0.0, 0.0, -3.223840953031014e-20, 0.001429157448001206, 0.0, 0.0, 0.0, 0.0, 0.0, 0.0, 0.0, 0.0, 0.0, 0.0, 0.0, 0.0, 0.0, 0.0, 0.0, 0.0, 0.0, 0.0, 0.0, 0.0, 0.0)"
1676469259.8019269,4241,1676469259,773698960,map,base_link,-0.9983819723129275,-0.9220157861709593,0.12886629998683918,-0.0128632077340782,-0.09673075865689931,-0.014075757252698638,0.9951279254948274,"(0.0005304206861183047, -8.980079525028807e-23, 4.771133374721454e-21, 0.0, 0.0, 0.0, -8.980079525028807e-23, 0.000530016259290278, -3.729929219172175e-36, 0.0, 0.0, 0.0, 4.7711333747214515e-21, -3.729929219172175e-36, 0.0004914614255540073, 0.0, 0.0, 0.0, 0.0, 0.0, 0.0, 0.0, 0.0, 0.0, 0.0, 0.0, 0.0, 0.0, 0.0, 0.0, 0.0, 0.0, 0.0, 0.0, 0.0, 0.0)",-0.0010815659770742059,-0.0013839254388585687,-0.000791199447121471,-0.0017378623597323895,-0.0018736888887360692,0.0008529264014214279,"(0.0016911095008254051, 0.0, 0.0, 0.0, 0.0, 0.0, 0.0, 0.0016942480579018593, -3.211667101291026e-20, 0.0, 0.0, 0.0, 0.0, -3.211667101291026e-20, 0.0014319955371320248, 0.0, 0.0, 0.0, 0.0, 0.0, 0.0, 0.0, 0.0, 0.0, 0.0, 0.0, 0.0, 0.0, 0.0, 0.0, 0.0, 0.0, 0.0, 0.0, 0.0, 0.0)"
1676469259.849924,4242,1676469259,803672960,map,base_link,-0.9984378814697268,-0.9219869971275327,0.12885940074920643,-0.012866682593708876,-0.09673475755274982,-0.014082096138201843,0.9951274325842606,"(0.00051734788576141, -8.473431399840077e-23, 4.520677653393179e-21, 0.0, 0.0, 0.0, -8.473431399840077e-23, 0.0005169662763364613, -3.611721097097616e-36, 0.0, 0.0, 0.0, 4.5206776533931806e-21, -3.611721097097619e-36, 0.00048043375136330724, 0.0, 0.0, 0.0, 0.0, 0.0, 0.0, 0.0, 0.0, 0.0, 0.0, 0.0, 0.0, 0.0, 0.0, 0.0, 0.0, 0.0, 0.0, 0.0, 0.0, 0.0)",-0.001117641688324511,-0.0016091763973236084,-0.0008515287190675733,0.00037679652450606227,-4.720681772596487e-06,-0.00042151258094236255,"(0.00166627811267972, 0.0, 0.0, 0.0, 0.0, 0.0, 0.0, 0.0016693553188815713, -3.121143771131703e-20, 0.0, 0.0, 0.0, 0.0, -3.1211437711317026e-20, 0.001414494588971138, 0.0, 0.0, 0.0, 0.0, 0.0, 0.0, 0.0, 0.0, 0.0, 0.0, 0.0, 0.0, 0.0, 0.0, 0.0, 0.0, 0.0, 0.0, 0.0, 0.0, 0.0)"
1676469259.8499472,4243,1676469259,843636960,map,base_link,-0.9985063076019289,-0.9219463467597959,0.12884512543678273,-0.012872727590011478,-0.09673526262379352,-0.014080088482818,0.9951272982049998,"(0.000518332642968744, -8.442412126869339e-23, 4.503533893330726e-21, 0.0, 0.0, 0.0, -8.442412126869339e-23, 0.0005179524305276573, -3.613502143176774e-36, 0.0, 0.0, 0.0, 4.5035338933307215e-21, -3.613502143176776e-36, 0.00048155849799513817, 0.0, 0.0, 0.0, 0.0, 0.0, 0.0, 0.0, 0.0, 0.0, 0.0, 0.0, 0.0, 0.0, 0.0, 0.0, 0.0, 0.0, 0.0, 0.0, 0.0, 0.0)",-0.0008194652036763728,-0.001462238607928157,-0.0008885147399269042,-0.0003871169756166637,0.0009144359501078724,-0.0005107278120703996,"(0.0016670709010213614, 0.0, 0.0, 0.0, 0.0, 0.0, 0.0, 0.0016701726708561182, -3.107187823751128e-20, 0.0, 0.0, 0.0, 0.0, -3.1071878237511275e-20, 0.0014164515305310488, 0.0, 0.0, 0.0, 0.0, 0.0, 0.0, 0.0, 0.0, 0.0, 0.0, 0.0, 0.0, 0.0, 0.0, 0.0, 0.0, 0.0, 0.0, 0.0, 0.0, 0.0)"
1676469259.8944786,4244,1676469259,873611424,map,base_link,-0.9985436201095583,-0.9219182133674619,0.1288349926471709,-0.01287076269913543,-0.09672676631313794,-0.01407999411320883,0.9951281673659954,"(0.0005330186686478555, -8.899946403187732e-23, 4.727450646379362e-21, 0.0, 0.0, 0.0, -8.899946403187732e-23, 0.0005326178506948054, -3.7349338983006004e-36, 0.0, 0.0, 0.0, 4.72745064637936e-21, -3.7349338983006e-36, 0.0004944161046296358, 0.0, 0.0, 0.0, 0.0, 0.0, 0.0, 0.0, 0.0, 0.0, 0.0, 0.0, 0.0, 0.0, 0.0, 0.0, 0.0, 0.0, 0.0, 0.0, 0.0, 0.0)",-0.0005420257220976055,-0.001388140954077244,-0.0008995532989501951,-0.0011113611981272697,0.000992129556834698,0.0012847823090851305,"(0.0016932926373556256, 0.0, 0.0, 0.0, 0.0, 0.0, 0.0, 0.0016964931273832917, -3.175710113970003e-20, 0.0, 0.0, 0.0, 0.0, -3.175710113970003e-20, 0.0014371767174452543, 0.0, 0.0, 0.0, 0.0, 0.0, 0.0, 0.0, 0.0, 0.0, 0.0, 0.0, 0.0, 0.0, 0.0, 0.0, 0.0, 0.0, 0.0, 0.0, 0.0, 0.0)"
1676469259.9100986,4245,1676469259,903583424,map,base_link,-0.9985709786415102,-0.9218887090682981,0.1288250684738158,-0.012874440044328792,-0.09672628186922103,-0.014077343935419442,0.9951282069938024,"(0.0005196061101742089, -8.4113928538986e-23, 4.474043774670259e-21, 0.0, 0.0, 0.0, -8.4113928538986e-23, 0.000519227294716984, -3.614354895727817e-36, 0.0, 0.0, 0.0, 4.474043774670255e-21, -3.6143548957278147e-36, 0.000483072770293802, 0.0, 0.0, 0.0, 0.0, 0.0, 0.0, 0.0, 0.0, 0.0, 0.0, 0.0, 0.0, 0.0, 0.0, 0.0, 0.0, 0.0, 0.0, 0.0, 0.0, 0.0)",-0.00038627508911304176,-0.0013786088675260544,-0.0008838167414069174,0.0004254294035490602,0.0013067864347249272,0.0009480977896600961,"(0.001667396747507155, 0.0, 0.0, 0.0, 0.0, 0.0, 0.0, 0.0016705365851521492, -3.0839549993039065e-20, 0.0, 0.0, 0.0, 0.0, -3.083954999303906e-20, 0.0014187125489115715, 0.0, 0.0, 0.0, 0.0, 0.0, 0.0, 0.0, 0.0, 0.0, 0.0, 0.0, 0.0, 0.0, 0.0, 0.0, 0.0, 0.0, 0.0, 0.0, 0.0, 0.0)"
1676469259.953943,4246,1676469259,933557424,map,base_link,-0.9985938072204592,-0.9218623638153074,0.12881284952163685,-0.012868763050943503,-0.09672275742063069,-0.01407615307673711,0.9951286125765798,"(0.0005342380027286708, -8.877974418166792e-23, 4.6949452218950346e-21, 0.0, 0.0, 0.0, -8.877974418166792e-23, 0.0005338381743058562, -3.7349042890990815e-36, 0.0, 0.0, 0.0, 4.69494522189503e-21, -3.734904289099084e-36, 0.0004959008656442165, 0.0, 0.0, 0.0, 0.0, 0.0, 0.0, 0.0, 0.0, 0.0, 0.0, 0.0, 0.0, 0.0, 0.0, 0.0, 0.0, 0.0, 0.0, 0.0, 0.0, 0.0)",-0.0004194338107481599,-0.0013930757995694878,-0.001080873538739979,0.000367241445928812,0.0005337293841876088,-0.0007016121526248754,"(0.0016932792495936155, 0.0, 0.0, 0.0, 0.0, 0.0, 0.0, 0.0016965200193226337, -3.1512569104281067e-20, 0.0, 0.0, 0.0, 0.0, -3.1512569104281067e-20, 0.001439200364984572, 0.0, 0.0, 0.0, 0.0, 0.0, 0.0, 0.0, 0.0, 0.0, 0.0, 0.0, 0.0, 0.0, 0.0, 0.0, 0.0, 0.0, 0.0, 0.0, 0.0, 0.0)"
1676469259.9981217,4247,1676469259,973520888,map,base_link,-0.9986168146133425,-0.9218353033065794,0.1288008391857146,-0.012850084532590724,-0.09671701557489663,-0.014089876972301211,0.9951292530079221,"(0.0005349198472686112, -8.875389478752564e-23, 4.671229093110076e-21, 0.0, 0.0, 0.0, -8.875389478752564e-23, 0.0005345201352611184, -3.7337898544125885e-36, 0.0, 0.0, 0.0, 4.671229093110078e-21, -3.733789854412588e-36, 0.000496776367072016, 0.0, 0.0, 0.0, 0.0, 0.0, 0.0, 0.0, 0.0, 0.0, 0.0, 0.0, 0.0, 0.0, 0.0, 0.0, 0.0, 0.0, 0.0, 0.0, 0.0, 0.0)",-0.0002123441663570702,-0.0015385549049824476,-0.0006671586306765673,0.0011829780414700508,0.0005484591820277271,-0.0013364008627831936,"(0.001692859223112464, 0.0, 0.0, 0.0, 0.0, 0.0, 0.0, 0.0016961278161033988, -3.134388305932554e-20, 0.0, 0.0, 0.0, 0.0, -3.134388305932554e-20, 0.0014401855878531933, 0.0, 0.0, 0.0, 0.0, 0.0, 0.0, 0.0, 0.0, 0.0, 0.0, 0.0, 0.0, 0.0, 0.0, 0.0, 0.0, 0.0, 0.0, 0.0, 0.0, 0.0)"
1676469260.0420282,4248,1676469260,3494888,map,base_link,-0.9986264109611513,-0.9218193888664243,0.12880405783653248,-0.01284915170563058,-0.09670713493902716,-0.014089404353007168,0.9951302056342071,"(0.0005212252144701779, -8.401053096241687e-23, 4.417006021597598e-21, 0.0, 0.0, 0.0, -8.401053096241687e-23, 0.0005208468646742404, -3.6115661209663436e-36, 0.0, 0.0, 0.0, 4.4170060215975935e-21, -3.611566120966344e-36, 0.00048515762318857014, 0.0, 0.0, 0.0, 0.0, 0.0, 0.0, 0.0, 0.0, 0.0, 0.0, 0.0, 0.0, 0.0, 0.0, 0.0, 0.0, 0.0, 0.0, 0.0, 0.0, 0.0)",-2.635223154356936e-06,-0.001780390739440918,-0.0004446013190317897,-0.0012554016429930925,-3.328061939100733e-05,0.00018915525288321078,"(0.0016662603011354804, 0.0, 0.0, 0.0, 0.0, 0.0, 0.0, 0.0016694696387276053, -3.042415062760048e-20, 0.0, 0.0, 0.0, 0.0, -3.042415062760048e-20, 0.001421037595719099, 0.0, 0.0, 0.0, 0.0, 0.0, 0.0, 0.0, 0.0, 0.0, 0.0, 0.0, 0.0, 0.0, 0.0, 0.0, 0.0, 0.0, 0.0, 0.0, 0.0, 0.0)"
1676469260.0860405,4249,1676469260,43461888,map,base_link,-0.9986333847045901,-0.9218125939369199,0.12881048023700703,-0.012845587860657369,-0.09670681242513579,-0.014091121108954306,0.9951302745954582,"(0.0005224435590207577, -8.447582005697795e-23, 4.40908638857082e-21, 0.0, 0.0, 0.0, -8.447582005697795e-23, 0.0005220631137490273, -3.6163925732623944e-36, 0.0, 0.0, 0.0, 4.409086388570816e-21, -3.616392573262394e-36, 0.0004864406364504248, 0.0, 0.0, 0.0, 0.0, 0.0, 0.0, 0.0, 0.0, 0.0, 0.0, 0.0, 0.0, 0.0, 0.0, 0.0, 0.0, 0.0, 0.0, 0.0, 0.0, 0.0)",-0.00019374213297851384,-0.002059212187305093,-0.0007017820025794206,0.0018480272265151143,-0.00010768859647214403,0.000770484795793891,"(0.0016676910454407334, 0.0, 0.0, 0.0, 0.0, 0.0, 0.0, 0.001670937635935843, -3.033019854542867e-20, 0.0, 0.0, 0.0, 0.0, -3.033019854542867e-20, 0.0014232727698981762, 0.0, 0.0, 0.0, 0.0, 0.0, 0.0, 0.0, 0.0, 0.0, 0.0, 0.0, 0.0, 0.0, 0.0, 0.0, 0.0, 0.0, 0.0, 0.0, 0.0, 0.0)"
1676469260.0860572,4250,1676469260,73432096,map,base_link,-0.9986330866813662,-0.9218096137046812,0.12880805134773243,-0.012846538949095257,-0.09670216423107134,-0.014088109962599038,0.9951307687265728,"(0.0005102640716359019, -8.067595911806248e-23, 4.19459692146088e-21, 0.0, 0.0, 0.0, -8.067595911806248e-23, 0.0005099007394164801, -3.5099854150696276e-36, 0.0, 0.0, 0.0, 4.194596921460885e-21, -3.509985415069625e-36, 0.0004760125884786248, 0.0, 0.0, 0.0, 0.0, 0.0, 0.0, 0.0, 0.0, 0.0, 0.0, 0.0, 0.0, 0.0, 0.0, 0.0, 0.0, 0.0, 0.0, 0.0, 0.0, 0.0)",-3.4327753382967785e-05,-0.0019769538193941116,-0.0009051845408976076,0.0017192711820825934,0.0013823778135702014,-0.00027926880284212546,"(0.001645085634663701, 0.0, 0.0, 0.0, 0.0, 0.0, 0.0, 0.001648287638090551, -2.956060410723189e-20, 0.0, 0.0, 0.0, 0.0, -2.956060410723188e-20, 0.0014069069875404239, 0.0, 0.0, 0.0, 0.0, 0.0, 0.0, 0.0, 0.0, 0.0, 0.0, 0.0, 0.0, 0.0, 0.0, 0.0, 0.0, 0.0, 0.0, 0.0, 0.0, 0.0)"
1676469260.1300154,4251,1676469260,103406096,map,base_link,-0.998633146286011,-0.9218124747276304,0.12880074977874745,-0.012851230070541817,-0.09669654289734957,-0.01409172218573412,0.9951311751328403,"(0.0005250800168141723, -8.581998855237662e-23, 4.415975970317326e-21, 0.0, 0.0, 0.0, -8.581998855237662e-23, 0.0005246935179457068, -3.631591165959913e-36, 0.0, 0.0, 0.0, 4.415975970317326e-21, -3.631591165959912e-36, 0.0004890208365395665, 0.0, 0.0, 0.0, 0.0, 0.0, 0.0, 0.0, 0.0, 0.0, 0.0, 0.0, 0.0, 0.0, 0.0, 0.0, 0.0, 0.0, 0.0, 0.0, 0.0, 0.0)",-0.0001727543567540124,-0.002013507066294551,-0.0008165863691829143,-0.0005561397410929203,-0.0007076378096826373,0.0005306322127580644,"(0.0016720473067834973, 0.0, 0.0, 0.0, 0.0, 0.0, 0.0, 0.0016753596719354391, -3.0263448371114786e-20, 0.0, 0.0, 0.0, 0.0, -3.02634483711148e-20, 0.001428239862434566, 0.0, 0.0, 0.0, 0.0, 0.0, 0.0, 0.0, 0.0, 0.0, 0.0, 0.0, 0.0, 0.0, 0.0, 0.0, 0.0, 0.0, 0.0, 0.0, 0.0, 0.0)"
1676469260.1449015,4252,1676469260,133381096,map,base_link,-0.9986322522163393,-0.9218147993087766,0.12880091369152058,-0.012856261752562713,-0.0966943279426586,-0.01409490372027393,0.9951313126067087,"(0.0005125876632519066, -8.195550412810545e-23, 4.19597626348671e-21, 0.0, 0.0, 0.0, -8.195550412810545e-23, 0.0005122185684740543, -3.5224501941113086e-36, 0.0, 0.0, 0.0, 4.1959762634867065e-21, -3.5224501941113086e-36, 0.00047832491691224277, 0.0, 0.0, 0.0, 0.0, 0.0, 0.0, 0.0, 0.0, 0.0, 0.0, 0.0, 0.0, 0.0, 0.0, 0.0, 0.0, 0.0, 0.0, 0.0, 0.0, 0.0)",-0.0001684452872723341,-0.002090017544105649,-0.0005356840556487439,-0.0003228090354241431,-0.00031967714312486367,-0.001239063567481935,"(0.0016484539955854416, 0.0, 0.0, 0.0, 0.0, 0.0, 0.0, 0.0016517178155481815, -2.9472397501405335e-20, 0.0, 0.0, 0.0, 0.0, -2.947239750140533e-20, 0.0014110574265941978, 0.0, 0.0, 0.0, 0.0, 0.0, 0.0, 0.0, 0.0, 0.0, 0.0, 0.0, 0.0, 0.0, 0.0, 0.0, 0.0, 0.0, 0.0, 0.0, 0.0, 0.0)"
1676469260.1859617,4253,1676469260,173343816,map,base_link,-0.9986274242401125,-0.9218211770057676,0.1288049519062041,-0.012853819611139124,-0.09669801121467211,-0.014098740952072784,0.9951309111357638,"(0.0005139454151503742, -8.276976004358733e-23, 4.192825518394142e-21, 0.0, 0.0, 0.0, -8.276976004358733e-23, 0.0005135726532898843, -3.528949587863439e-36, 0.0, 0.0, 0.0, 4.192825518394144e-21, -3.528949587863442e-36, 0.00047970839659683406, 0.0, 0.0, 0.0, 0.0, 0.0, 0.0, 0.0, 0.0, 0.0, 0.0, 0.0, 0.0, 0.0, 0.0, 0.0, 0.0, 0.0, 0.0, 0.0, 0.0, 0.0)",-0.00028361714794300497,-0.002094511641189456,-0.0007322888122871516,-0.00016680409316904843,-0.0012477148557081819,-0.00029598275432363136,"(0.0016500267665833235, 0.0, 0.0, 0.0, 0.0, 0.0, 0.0, 0.0016533304005861282, -2.940262489288501e-20, 0.0, 0.0, 0.0, 0.0, -2.9402624892885014e-20, 0.0014132397482171655, 0.0, 0.0, 0.0, 0.0, 0.0, 0.0, 0.0, 0.0, 0.0, 0.0, 0.0, 0.0, 0.0, 0.0, 0.0, 0.0, 0.0, 0.0, 0.0, 0.0, 0.0)"
1676469260.2300153,4254,1676469260,203318816,map,base_link,-0.9986223578453066,-0.9218295216560362,0.12880273163318623,-0.012849818421098141,-0.09670066478357982,-0.014097496270629988,0.9951307327557176,"(0.0005286617088131607, -8.806888584275517e-23, 4.4094677570379e-21, 0.0, 0.0, 0.0, -8.806888584275517e-23, 0.0005282650818116963, -3.649092327814651e-36, 0.0, 0.0, 0.0, 4.409467757037905e-21, -3.649092327814654e-36, 0.0004926556721329689, 0.0, 0.0, 0.0, 0.0, 0.0, 0.0, 0.0, 0.0, 0.0, 0.0, 0.0, 0.0, 0.0, 0.0, 0.0, 0.0, 0.0, 0.0, 0.0, 0.0, 0.0)",-6.709196895826608e-05,-0.002030843636021018,-0.0007430490222759543,0.001471686759032309,-0.0003811961796600372,-0.00033354177139699454,"(0.0016762653831392527, 0.0, 0.0, 0.0, 0.0, 0.0, 0.0, 0.0016796790296211839, -3.0084568739095087e-20, 0.0, 0.0, 0.0, 0.0, -3.008456873909509e-20, 0.0014340198831632733, 0.0, 0.0, 0.0, 0.0, 0.0, 0.0, 0.0, 0.0, 0.0, 0.0, 0.0, 0.0, 0.0, 0.0, 0.0, 0.0, 0.0, 0.0, 0.0, 0.0, 0.0)"
1676469260.2739642,4255,1676469260,233291816,map,base_link,-0.9986105561256411,-0.9218392968177793,0.1288020908832549,-0.012838106620447404,-0.09669806563988995,-0.014096488668873823,0.9951311310550482,"(0.0005157109699212015, -8.40493050536303e-23, 4.1828457828068555e-21, 0.0, 0.0, 0.0, -8.40493050536303e-23, 0.0005153324455022812, -3.536233926282426e-36, 0.0, 0.0, 0.0, 4.182845782806855e-21, -3.5362339262824257e-36, 0.0004815554420929402, 0.0, 0.0, 0.0, 0.0, 0.0, 0.0, 0.0, 0.0, 0.0, 0.0, 0.0, 0.0, 0.0, 0.0, 0.0, 0.0, 0.0, 0.0, 0.0, 0.0, 0.0)",6.727892468916252e-05,-0.002028397051617503,-0.0007021641358733175,0.0015714250039309263,0.0005304375663399696,-0.00029236180125735706,"(0.0016513752052560449, 0.0, 0.0, 0.0, 0.0, 0.0, 0.0, 0.0016547353006899357, -2.926456237941736e-20, 0.0, 0.0, 0.0, 0.0, -2.9264562379417364e-20, 0.001415772014297545, 0.0, 0.0, 0.0, 0.0, 0.0, 0.0, 0.0, 0.0, 0.0, 0.0, 0.0, 0.0, 0.0, 0.0, 0.0, 0.0, 0.0, 0.0, 0.0, 0.0, 0.0)"
1676469260.3179822,4256,1676469260,273255536,map,base_link,-0.9985912442207339,-0.9218488335609434,0.12880241870880116,-0.012845482466265337,-0.09669512700589306,-0.014105615370235997,0.995131203938597,"(0.0005167172639630735, -8.487648566618332e-23, 4.173062077740017e-21, 0.0, 0.0, 0.0, -8.487648566618332e-23, 0.0005163350142538548, -3.5395736751314386e-36, 0.0, 0.0, 0.0, 4.173062077740016e-21, -3.539573675131438e-36, 0.00048264162614941597, 0.0, 0.0, 0.0, 0.0, 0.0, 0.0, 0.0, 0.0, 0.0, 0.0, 0.0, 0.0, 0.0, 0.0, 0.0, 0.0, 0.0, 0.0, 0.0, 0.0, 0.0)",0.00011007175635313615,-0.0018060895381495357,-0.0006347251473926006,-0.0005007259314879775,0.0004772259271703661,0.0002721084165386855,"(0.0016517447074875236, 0.0, 0.0, 0.0, 0.0, 0.0, 0.0, 0.0016551412409171462, -2.915896252013866e-20, 0.0, 0.0, 0.0, 0.0, -2.915896252013865e-20, 0.0014170402428135276, 0.0, 0.0, 0.0, 0.0, 0.0, 0.0, 0.0, 0.0, 0.0, 0.0, 0.0, 0.0, 0.0, 0.0, 0.0, 0.0, 0.0, 0.0, 0.0, 0.0, 0.0)"
1676469260.3180134,4257,1676469260,303230536,map,base_link,-0.9985727071762087,-0.9218532443046568,0.128805249929428,-0.012843443908777225,-0.09669751580238536,-0.01411223652671898,0.9951309280963142,"(0.0005313192959874868, -9.027900904192029e-23, 4.385138587352587e-21, 0.0, 0.0, 0.0, -9.027900904192029e-23, 0.0005309127154760063, -3.6582110773148965e-36, 0.0, 0.0, 0.0, 4.385138587352592e-21, -3.658211077314897e-36, 0.0004955119220539927, 0.0, 0.0, 0.0, 0.0, 0.0, 0.0, 0.0, 0.0, 0.0, 0.0, 0.0, 0.0, 0.0, 0.0, 0.0, 0.0, 0.0, 0.0, 0.0, 0.0, 0.0)",0.00018042050942312926,-0.0017708605155348778,-0.0005764105007983742,0.0014825930120423436,7.34413188183679e-05,-0.0009622159413993359,"(0.0016775071853771806, 0.0, 0.0, 0.0, 0.0, 0.0, 0.0, 0.0016810145461931825, -2.983148264460131e-20, 0.0, 0.0, 0.0, 0.0, -2.983148264460131e-20, 0.0014374220045283437, 0.0, 0.0, 0.0, 0.0, 0.0, 0.0, 0.0, 0.0, 0.0, 0.0, 0.0, 0.0, 0.0, 0.0, 0.0, 0.0, 0.0, 0.0, 0.0, 0.0, 0.0)"
1676469260.3619885,4258,1676469260,333203536,map,base_link,-0.9985450506210329,-0.9218518137931822,0.12880732119083393,-0.01283850998814108,-0.09669750710913319,-0.014106698899166851,0.9951310626742702,"(0.0005179928848519921, -8.613018128208401e-23, 4.154685107494271e-21, 0.0, 0.0, 0.0, -8.613018128208401e-23, 0.0005176049889996648, -3.542622054208986e-36, 0.0, 0.0, 0.0, 4.154685107494272e-21, -3.5426220542089855e-36, 0.0004840673063881695, 0.0, 0.0, 0.0, 0.0, 0.0, 0.0, 0.0, 0.0, 0.0, 0.0, 0.0, 0.0, 0.0, 0.0, 0.0, 0.0, 0.0, 0.0, 0.0, 0.0, 0.0)",0.00055707833962515,-0.0013815786223858595,-0.000759159622248262,0.0011187243508175015,0.001168344053439796,0.000583004206418991,"(0.0016518313204869628, 0.0, 0.0, 0.0, 0.0, 0.0, 0.0, 0.0016552797751501203, -2.900651493066017e-20, 0.0, 0.0, 0.0, 0.0, -2.900651493066018e-20, 0.001418423606082797, 0.0, 0.0, 0.0, 0.0, 0.0, 0.0, 0.0, 0.0, 0.0, 0.0, 0.0, 0.0, 0.0, 0.0, 0.0, 0.0, 0.0, 0.0, 0.0, 0.0, 0.0)"
1676469260.3776531,4259,1676469260,373169256,map,base_link,-0.9985053539276125,-0.9218328595161436,0.12881521880626667,-0.012833257170537028,-0.0966909881450083,-0.014114538745936633,0.9951316312438576,"(0.0005187002243474126, -8.695736189463703e-23, 4.1403998288393124e-21, 0.0, 0.0, 0.0, -8.695736189463703e-23, 0.0005183086032047868, -3.543500121957731e-36, 0.0, 0.0, 0.0, 4.140399828839317e-21, -3.5435001219577333e-36, 0.00048489129403606057, 0.0, 0.0, 0.0, 0.0, 0.0, 0.0, 0.0, 0.0, 0.0, 0.0, 0.0, 0.0, 0.0, 0.0, 0.0, 0.0, 0.0, 0.0, 0.0, 0.0, 0.0)",0.0007771799573674798,-0.0009263073443435133,-0.0004037639300804584,-0.0010731988586485386,0.0005252699484117328,-0.0011504815192893147,"(0.0016515115275979042, 0.0, 0.0, 0.0, 0.0, 0.0, 0.0, 0.001654993393458426, -2.8893758175288867e-20, 0.0, 0.0, 0.0, 0.0, -2.889375817528886e-20, 0.001419057953171432, 0.0, 0.0, 0.0, 0.0, 0.0, 0.0, 0.0, 0.0, 0.0, 0.0, 0.0, 0.0, 0.0, 0.0, 0.0, 0.0, 0.0, 0.0, 0.0, 0.0, 0.0)"
1676469260.4179096,4260,1676469260,403141256,map,base_link,-0.9984620213508608,-0.9218090772628782,0.12882950901985157,-0.012839360569555095,-0.09668932077391951,-0.014117532491156753,0.9951316727358801,"(0.000533189217094332, -9.248913224108541e-23, 4.3485913699554075e-21, 0.0, 0.0, 0.0, -9.248913224108541e-23, 0.0005327726830728352, -3.660773139686935e-36, 0.0, 0.0, 0.0, 4.34859136995541e-21, -3.660773139686935e-36, 0.0004976802738383412, 0.0, 0.0, 0.0, 0.0, 0.0, 0.0, 0.0, 0.0, 0.0, 0.0, 0.0, 0.0, 0.0, 0.0, 0.0, 0.0, 0.0, 0.0, 0.0, 0.0, 0.0)",0.0010777893476188183,-0.0005887827137485147,-0.00023209194478113196,-0.0023587278556078672,0.0003521886246744543,-0.0006241935188882053,"(0.0016768919304013252, 0.0, 0.0, 0.0, 0.0, 0.0, 0.0, 0.0016804842744022608, -2.955376085997204e-20, 0.0, 0.0, 0.0, 0.0, -2.955376085997204e-20, 0.0014391595032066107, 0.0, 0.0, 0.0, 0.0, 0.0, 0.0, 0.0, 0.0, 0.0, 0.0, 0.0, 0.0, 0.0, 0.0, 0.0, 0.0, 0.0, 0.0, 0.0, 0.0, 0.0)"
1676469260.4626203,4261,1676469260,433117256,map,base_link,-0.9984169602394106,-0.9217734932899473,0.1288512647151946,-0.012844947552022448,-0.09669100319165148,-0.014120507876499969,0.9951313861683839,"(0.0005195688572712243, -8.818520811639543e-23, 4.1166658790979644e-21, 0.0, 0.0, 0.0, -8.818520811639543e-23, 0.0005191717064008117, -3.543350245433193e-36, 0.0, 0.0, 0.0, 4.116665879097967e-21, -3.543350245433193e-36, 0.00048595372936688364, 0.0, 0.0, 0.0, 0.0, 0.0, 0.0, 0.0, 0.0, 0.0, 0.0, 0.0, 0.0, 0.0, 0.0, 0.0, 0.0, 0.0, 0.0, 0.0, 0.0, 0.0)",0.001062834751792252,-0.00023586473253089935,4.240358521201444e-06,-0.0012916962150484324,-0.0013648269232362509,-0.00045542904990725203,"(0.0016507430700585246, 0.0, 0.0, 0.0, 0.0, 0.0, 0.0, 0.0016542720841243863, -2.873088889050422e-20, 0.0, 0.0, 0.0, 0.0, -2.873088889050423e-20, 0.0014196665724739432, 0.0, 0.0, 0.0, 0.0, 0.0, 0.0, 0.0, 0.0, 0.0, 0.0, 0.0, 0.0, 0.0, 0.0, 0.0, 0.0, 0.0, 0.0, 0.0, 0.0, 0.0)"
1676469260.5059884,4262,1676469260,473080976,map,base_link,-0.9983618259429934,-0.9217197299003599,0.12888604402542103,-0.012839431733247638,-0.09669482387980143,-0.014130730837504208,0.9951309530706512,"(0.000520033179782331, -8.90253134260196e-23, 4.099757355660054e-21, 0.0, 0.0, 0.0, -8.90253134260196e-23, 0.000519632245413959, -3.5424322563021523e-36, 0.0, 0.0, 0.0, 4.0997573556600554e-21, -3.54243225630215e-36, 0.0004865561204496771, 0.0, 0.0, 0.0, 0.0, 0.0, 0.0, 0.0, 0.0, 0.0, 0.0, 0.0, 0.0, 0.0, 0.0, 0.0, 0.0, 0.0, 0.0, 0.0, 0.0, 0.0)",0.0009829184273257852,-0.0003448397037573159,3.0319701181724708e-05,-8.004002302186564e-05,0.00017254597332794206,-0.0011748115066438913,"(0.001650072168558836, 0.0, 0.0, 0.0, 0.0, 0.0, 0.0, 0.0016536315670236945, -2.8624904098567164e-20, 0.0, 0.0, 0.0, 0.0, -2.862490409856716e-20, 0.0014198914868757129, 0.0, 0.0, 0.0, 0.0, 0.0, 0.0, 0.0, 0.0, 0.0, 0.0, 0.0, 0.0, 0.0, 0.0, 0.0, 0.0, 0.0, 0.0, 0.0, 0.0, 0.0)"
1676469260.5501072,4263,1676469260,503053976,map,base_link,-0.9983187913894656,-0.9216775894165037,0.12891365587711323,-0.012841528526609119,-0.0966971207898295,-0.014136713757115577,0.995130616855531,"(0.0005344184464775026, -9.469925544025053e-23, 4.304801715874873e-21, 0.0, 0.0, 0.0, -9.469925544025053e-23, 0.0005339919589459896, -3.658535767922749e-36, 0.0, 0.0, 0.0, 4.304801715874874e-21, -3.658535767922752e-36, 0.0004992670728825033, 0.0, 0.0, 0.0, 0.0, 0.0, 0.0, 0.0, 0.0, 0.0, 0.0, 0.0, 0.0, 0.0, 0.0, 0.0, 0.0, 0.0, 0.0, 0.0, 0.0, 0.0)",0.0011023738188669086,2.4474300516885726e-05,0.0001726521149976179,-0.0018671901198104024,0.00020079759997315694,-0.0009888336062431335,"(0.00167521508410573, 0.0, 0.0, 0.0, 0.0, 0.0, 0.0, 0.0016788855427876115, -2.927753603568085e-20, 0.0, 0.0, 0.0, 0.0, -2.9277536035680835e-20, 0.0014398163184523582, 0.0, 0.0, 0.0, 0.0, 0.0, 0.0, 0.0, 0.0, 0.0, 0.0, 0.0, 0.0, 0.0, 0.0, 0.0, 0.0, 0.0, 0.0, 0.0, 0.0, 0.0)"
1676469260.5501273,4264,1676469260,533029976,map,base_link,-0.9982739090919497,-0.9216223359107969,0.12894101440906514,-0.012842192302395283,-0.09669699407002812,-0.014139531807437438,0.9951305775825497,"(0.0005213027470745146, -9.067967465112566e-23, 4.0890362682862894e-21, 0.0, 0.0, 0.0, -9.067967465112566e-23, 0.0005208943621255457, -3.54696065883777e-36, 0.0, 0.0, 0.0, 4.089036268286285e-21, -3.546960658837772e-36, 0.0004879132320638746, 0.0, 0.0, 0.0, 0.0, 0.0, 0.0, 0.0, 0.0, 0.0, 0.0, 0.0, 0.0, 0.0, 0.0, 0.0, 0.0, 0.0, 0.0, 0.0, 0.0, 0.0)",0.0011484321439638734,0.00029713555704802275,-3.581108103389855e-05,0.00010339308209950104,-0.0008082436397671698,0.0005855033523403109,"(0.0016511380672454834, 0.0, 0.0, 0.0, 0.0, 0.0, 0.0, 0.0016547502018511295, -2.8536013168014613e-20, 0.0, 0.0, 0.0, 0.0, -2.853601316801461e-20, 0.0014217359712347388, 0.0, 0.0, 0.0, 0.0, 0.0, 0.0, 0.0, 0.0, 0.0, 0.0, 0.0, 0.0, 0.0, 0.0, 0.0, 0.0, 0.0, 0.0, 0.0, 0.0, 0.0)"
1676469260.5947316,4265,1676469260,572990696,map,base_link,-0.9982134103775027,-0.9215442538261411,0.12897588312625874,-0.012838341052973712,-0.09669266813887813,-0.01414204795729542,0.9951310053369105,"(0.0005229588714428246, -9.225648769380487e-23, 4.1001030822143315e-21, 0.0, 0.0, 0.0, -9.225648769380487e-23, 0.0005225433851592243, -3.5578346658524396e-36, 0.0, 0.0, 0.0, 4.100103082214332e-21, -3.557834665852439e-36, 0.0004894789890386164, 0.0, 0.0, 0.0, 0.0, 0.0, 0.0, 0.0, 0.0, 0.0, 0.0, 0.0, 0.0, 0.0, 0.0, 0.0, 0.0, 0.0, 0.0, 0.0, 0.0, 0.0)",0.001193592674098909,0.0003291672910563648,-0.00010195466165896509,0.0020824961829930544,0.0007248647743836045,-0.00036918389378115546,"(0.001654390012845397, 0.0, 0.0, 0.0, 0.0, 0.0, 0.0, 0.0016580460360273719, -2.8562430953790677e-20, 0.0, 0.0, 0.0, 0.0, -2.856243095379068e-20, 0.0014248160878196359, 0.0, 0.0, 0.0, 0.0, 0.0, 0.0, 0.0, 0.0, 0.0, 0.0, 0.0, 0.0, 0.0, 0.0, 0.0, 0.0, 0.0, 0.0, 0.0, 0.0, 0.0)"
1676469260.6117704,4266,1676469260,602964696,map,base_link,-0.9981634020805361,-0.921486437320709,0.12899979948997486,-0.012838683735185005,-0.09668611083590961,-0.014144740532272618,0.9951316190095767,"(0.0005105415475554764, -8.849540084610282e-23, 3.901930482789641e-21, 0.0, 0.0, 0.0, -8.849540084610282e-23, 0.0005101429997012019, -3.4534088424709894e-36, 0.0, 0.0, 0.0, 3.901930482789638e-21, -3.45340884247099e-36, 0.0004786798672284931, 0.0, 0.0, 0.0, 0.0, 0.0, 0.0, 0.0, 0.0, 0.0, 0.0, 0.0, 0.0, 0.0, 0.0, 0.0, 0.0, 0.0, 0.0, 0.0, 0.0, 0.0)",0.001489178859628737,0.00038207214674912393,-2.980841600219724e-05,0.002487477380782366,0.001033384003676474,-0.0007293118978850545,"(0.001631683437153697, 0.0, 0.0, 0.0, 0.0, 0.0, 0.0, 0.0016352831153199077, -2.787809197103964e-20, 0.0, 0.0, 0.0, 0.0, -2.787809197103965e-20, 0.0014076412189751863, 0.0, 0.0, 0.0, 0.0, 0.0, 0.0, 0.0, 0.0, 0.0, 0.0, 0.0, 0.0, 0.0, 0.0, 0.0, 0.0, 0.0, 0.0, 0.0, 0.0, 0.0)"
1676469260.6541731,4267,1676469260,632938696,map,base_link,-0.9981092214584353,-0.9214249253273008,0.1290248930454253,-0.012837131927349272,-0.09668382491772094,-0.01414090407437597,0.9951318933588557,"(0.0004989556036889553, -8.5122054910535e-23, 3.722844127675641e-21, 0.0, 0.0, 0.0, -8.5122054910535e-23, 0.0004985722480341792, -3.3571252998198365e-36, 0.0, 0.0, 0.0, 3.722844127675636e-21, -3.357125299819839e-36, 0.000468556274427101, 0.0, 0.0, 0.0, 0.0, 0.0, 0.0, 0.0, 0.0, 0.0, 0.0, 0.0, 0.0, 0.0, 0.0, 0.0, 0.0, 0.0, 0.0, 0.0, 0.0, 0.0)",0.001497725141234696,0.0005737441824749112,-0.00011163299495819963,-0.0008559369016438723,5.457688166643511e-05,0.001515410142019391,"(0.0016107959672808647, 0.0, 0.0, 0.0, 0.0, 0.0, 0.0, 0.0016143453540280461, -2.725465788890136e-20, 0.0, 0.0, 0.0, 0.0, -2.725465788890137e-20, 0.0013917941832914948, 0.0, 0.0, 0.0, 0.0, 0.0, 0.0, 0.0, 0.0, 0.0, 0.0, 0.0, 0.0, 0.0, 0.0, 0.0, 0.0, 0.0, 0.0, 0.0, 0.0, 0.0)"
1676469260.6980226,4268,1676469260,672902416,map,base_link,-0.9980371594429018,-0.921336770057678,0.12905351817607869,-0.01285563195924272,-0.09668243820653495,-0.014135793269788057,0.995131877913088,"(0.0005014099297113717, -8.711245825949073e-23, 3.752077624563836e-21, 0.0, 0.0, 0.0, -8.711245825949073e-23, 0.0005010176100768149, -3.375784957021268e-36, 0.0, 0.0, 0.0, 3.752077624563838e-21, -3.375784957021268e-36, 0.00047077189083211124, 0.0, 0.0, 0.0, 0.0, 0.0, 0.0, 0.0, 0.0, 0.0, 0.0, 0.0, 0.0, 0.0, 0.0, 0.0, 0.0, 0.0, 0.0, 0.0, 0.0, 0.0)",0.001584300072863698,0.0006010091165080667,-9.599182521924383e-05,-0.0007046376704238355,-0.000578613020479679,0.0009739837842062117,"(0.0016164599219337106, 0.0, 0.0, 0.0, 0.0, 0.0, 0.0, 0.001620059134438634, -2.7359159977265463e-20, 0.0, 0.0, 0.0, 0.0, -2.7359159977265475e-20, 0.0013966546393930912, 0.0, 0.0, 0.0, 0.0, 0.0, 0.0, 0.0, 0.0, 0.0, 0.0, 0.0, 0.0, 0.0, 0.0, 0.0, 0.0, 0.0, 0.0, 0.0, 0.0, 0.0)"
1676469260.742018,4269,1676469260,702876416,map,base_link,-0.9979834556579592,-0.9212808609008787,0.12907350063323964,-0.01284907040972527,-0.0966829954332873,-0.014140037293769057,0.9951318633470461,"(0.0005162840825505555, -9.332923755070958e-23, 3.965697429001174e-21, 0.0, 0.0, 0.0, -9.332923755070958e-23, 0.0005158637650310993, -3.496148834609094e-36, 0.0, 0.0, 0.0, 3.9656974290011686e-21, -3.4961488346090945e-36, 0.0004839017055928707, 0.0, 0.0, 0.0, 0.0, 0.0, 0.0, 0.0, 0.0, 0.0, 0.0, 0.0, 0.0, 0.0, 0.0, 0.0, 0.0, 0.0, 0.0, 0.0, 0.0, 0.0)",0.001587674138136208,0.0004195931542199105,-0.00015425680612679576,0.0014015133492648602,0.00015970863751135753,-0.0012062547029927373,"(0.0016442309133708477, 0.0, 0.0, 0.0, 0.0, 0.0, 0.0, 0.0016479515470564365, -2.8089804933141555e-20, 0.0, 0.0, 0.0, 0.0, -2.808980493314154e-20, 0.0014185808831825852, 0.0, 0.0, 0.0, 0.0, 0.0, 0.0, 0.0, 0.0, 0.0, 0.0, 0.0, 0.0, 0.0, 0.0, 0.0, 0.0, 0.0, 0.0, 0.0, 0.0, 0.0)"
1676469260.7859194,4270,1676469260,732851416,map,base_link,-0.9979318380355837,-0.9212214946746824,0.12909476459026326,-0.012845498118800572,-0.09668132803308634,-0.01413007888859368,0.9951321851327438,"(0.0005047225276939571, -8.981371994735921e-23, 3.787370246630053e-21, 0.0, 0.0, 0.0, -8.981371994735921e-23, 0.0005043180426582694, -3.4001452058850806e-36, 0.0, 0.0, 0.0, 3.7873702466300486e-21, -3.4001452058850806e-36, 0.0004737963026855141, 0.0, 0.0, 0.0, 0.0, 0.0, 0.0, 0.0, 0.0, 0.0, 0.0, 0.0, 0.0, 0.0, 0.0, 0.0, 0.0, 0.0, 0.0, 0.0, 0.0, 0.0)",0.0016503583174198866,0.0005441437242552638,-0.0002100008423440159,0.0018848222680389881,0.00036495117819868034,0.000502213544677943,"(0.0016233166679739952, 0.0, 0.0, 0.0, 0.0, 0.0, 0.0, 0.0016269829357042909, -2.747044828582893e-20, 0.0, 0.0, 0.0, 0.0, -2.747044828582893e-20, 0.001402669702656567, 0.0, 0.0, 0.0, 0.0, 0.0, 0.0, 0.0, 0.0, 0.0, 0.0, 0.0, 0.0, 0.0, 0.0, 0.0, 0.0, 0.0, 0.0, 0.0, 0.0, 0.0)"
1676469260.7859514,4271,1676469260,772813880,map,base_link,-0.9978601336479189,-0.9211407303810117,0.1291195899248122,-0.012860607724361825,-0.09668360366437881,-0.014141873817038188,0.9951315981496319,"(0.000506691460032016, -9.149393056660755e-23, 3.805665240476342e-21, 0.0, 0.0, 0.0, -9.149393056660755e-23, 0.0005062794080004096, -3.4140924974576907e-36, 0.0, 0.0, 0.0, 3.805665240476336e-21, -3.414092497457693e-36, 0.0004756158450618386, 0.0, 0.0, 0.0, 0.0, 0.0, 0.0, 0.0, 0.0, 0.0, 0.0, 0.0, 0.0, 0.0, 0.0, 0.0, 0.0, 0.0, 0.0, 0.0, 0.0, 0.0)",0.0017668415093794465,0.0006991063128225505,-1.966421223187362e-05,-0.002163733821362257,0.0007403696654364467,-0.00018227918189950295,"(0.0016269250772893429, 0.0, 0.0, 0.0, 0.0, 0.0, 0.0, 0.001630630111321807, -2.7518621895185303e-20, 0.0, 0.0, 0.0, 0.0, -2.751862189518531e-20, 0.00140592351090163, 0.0, 0.0, 0.0, 0.0, 0.0, 0.0, 0.0, 0.0, 0.0, 0.0, 0.0, 0.0, 0.0, 0.0, 0.0, 0.0, 0.0, 0.0, 0.0, 0.0, 0.0)"
1676469260.8301046,4272,1676469260,802787880,map,base_link,-0.9978100061416628,-0.9210802912712095,0.12914508581161488,-0.012852932242484391,-0.09668559369307482,-0.014140942282911947,0.995131558436674,"(0.000521472655236721, -9.778825804025324e-23, 4.0159952963611345e-21, 0.0, 0.0, 0.0, -9.778825804025324e-23, 0.0005210322560742497, -3.533315872999199e-36, 0.0, 0.0, 0.0, 4.015995296361129e-21, -3.5333158729991995e-36, 0.0004886795650236309, 0.0, 0.0, 0.0, 0.0, 0.0, 0.0, 0.0, 0.0, 0.0, 0.0, 0.0, 0.0, 0.0, 0.0, 0.0, 0.0, 0.0, 0.0, 0.0, 0.0, 0.0)",0.0016783110331743956,0.0008293630089610815,0.00017935328651219596,-0.0004512904561124742,-0.0012743565021082759,-0.0002754096640273927,"(0.0016538255149498582, 0.0, 0.0, 0.0, 0.0, 0.0, 0.0, 0.0016576480120420456, -2.822768210866256e-20, 0.0, 0.0, 0.0, 0.0, -2.8227682108662573e-20, 0.001427151495590806, 0.0, 0.0, 0.0, 0.0, 0.0, 0.0, 0.0, 0.0, 0.0, 0.0, 0.0, 0.0, 0.0, 0.0, 0.0, 0.0, 0.0, 0.0, 0.0, 0.0, 0.0)"
1676469260.8463075,4273,1676469260,842752880,map,base_link,-0.9977526068687441,-0.9210051298141477,0.12918321788310994,-0.012850532251123325,-0.09668025756330964,-0.01414414780452925,0.9951320418045599,"(0.0004978488432243466, -8.998174100928404e-23, 3.663297183941008e-21, 0.0, 0.0, 0.0, -8.998174100928404e-23, 0.0004974436014890671, -3.3394700831872794e-36, 0.0, 0.0, 0.0, 3.66329718394101e-21, -3.339470083187277e-36, 0.000467935751657933, 0.0, 0.0, 0.0, 0.0, 0.0, 0.0, 0.0, 0.0, 0.0, 0.0, 0.0, 0.0, 0.0, 0.0, 0.0, 0.0, 0.0, 0.0, 0.0, 0.0, 0.0)",0.001693285652436316,0.0006317024817690254,0.0005023455014452337,0.00019237070227973163,-0.00033340475056320423,0.0004512014274951071,"(0.0016113054007291794, 0.0, 0.0, 0.0, 0.0, 0.0, 0.0, 0.0016149968141689897, -2.7012677814439712e-20, 0.0, 0.0, 0.0, 0.0, -2.7012677814439724e-20, 0.001394421560689807, 0.0, 0.0, 0.0, 0.0, 0.0, 0.0, 0.0, 0.0, 0.0, 0.0, 0.0, 0.0, 0.0, 0.0, 0.0, 0.0, 0.0, 0.0, 0.0, 0.0, 0.0)"
1676469260.890043,4274,1676469260,872726600,map,base_link,-0.9977095127105715,-0.92095410823822,0.12921486794948567,-0.0128472366501598,-0.09667703939443657,-0.01414566914255397,0.9951323557457769,"(0.0005128555349074304, -9.643116484778343e-23, 3.877665468547384e-21, 0.0, 0.0, 0.0, -9.643116484778343e-23, 0.000512421247549355, -3.460675928734534e-36, 0.0, 0.0, 0.0, 3.8776654685473855e-21, -3.460675928734534e-36, 0.0004811919934581965, 0.0, 0.0, 0.0, 0.0, 0.0, 0.0, 0.0, 0.0, 0.0, 0.0, 0.0, 0.0, 0.0, 0.0, 0.0, 0.0, 0.0, 0.0, 0.0, 0.0, 0.0)",0.0017667217180132866,0.0007604865240864456,0.00027702251099981357,-0.0003757733211386949,0.000997473718598485,-0.0006278502405621112,"(0.001639432623051107, 0.0, 0.0, 0.0, 0.0, 0.0, 0.0, 0.0016432447591796517, -2.7754942033892424e-20, 0.0, 0.0, 0.0, 0.0, -2.7754942033892437e-20, 0.0014166084583848715, 0.0, 0.0, 0.0, 0.0, 0.0, 0.0, 0.0, 0.0, 0.0, 0.0, 0.0, 0.0, 0.0, 0.0, 0.0, 0.0, 0.0, 0.0, 0.0, 0.0, 0.0)"
1676469260.9345465,4275,1676469260,902699600,map,base_link,-0.9976643919944765,-0.9209028482437132,0.1292411684989928,-0.012846375580376166,-0.09666947370686595,-0.014151153899128407,0.995133048504432,"(0.0005017520161345601, -9.290272254736192e-23, 3.71060825900735e-21, 0.0, 0.0, 0.0, -9.290272254736192e-23, 0.0005013336194679141, -3.3693099642705256e-36, 0.0, 0.0, 0.0, 3.71060825900735e-21, -3.369309964270526e-36, 0.0004714526003226638, 0.0, 0.0, 0.0, 0.0, 0.0, 0.0, 0.0, 0.0, 0.0, 0.0, 0.0, 0.0, 0.0, 0.0, 0.0, 0.0, 0.0, 0.0, 0.0, 0.0, 0.0)",0.0019746546167880297,0.0008114141528494656,0.00016317229892592866,-0.0013482820941135287,0.0003518118755891918,-0.0006666401168331504,"(0.001619328511878848, 0.0, 0.0, 0.0, 0.0, 0.0, 0.0, 0.0016230823239311576, -2.7175646896580227e-20, 0.0, 0.0, 0.0, 0.0, -2.717564689658024e-20, 0.0014011763269081712, 0.0, 0.0, 0.0, 0.0, 0.0, 0.0, 0.0, 0.0, 0.0, 0.0, 0.0, 0.0, 0.0, 0.0, 0.0, 0.0, 0.0, 0.0, 0.0, 0.0, 0.0)"
1676469260.978157,4276,1676469260,932674600,map,base_link,-0.997613847255707,-0.9208537340164182,0.12926213443279255,-0.012842990612563254,-0.09666585134354062,-0.014157679021162741,0.9951333473252224,"(0.0005166982882656157, -9.936507108293245e-23, 3.922987724878822e-21, 0.0, 0.0, 0.0, -9.936507108293245e-23, 0.000516250787768513, -3.489804495661946e-36, 0.0, 0.0, 0.0, 3.9229877248788186e-21, -3.489804495661946e-36, 0.000484664662508294, 0.0, 0.0, 0.0, 0.0, 0.0, 0.0, 0.0, 0.0, 0.0, 0.0, 0.0, 0.0, 0.0, 0.0, 0.0, 0.0, 0.0, 0.0, 0.0, 0.0, 0.0)",0.0020566086750477552,0.0008588042110204697,1.5409161278512224e-05,-0.0006889121141284704,5.9880483604501885e-05,-0.00040920235915109515,"(0.001646844088099897, 0.0, 0.0, 0.0, 0.0, 0.0, 0.0, 0.001650717225857079, -2.790431016210399e-20, 0.0, 0.0, 0.0, 0.0, -2.7904310162103993e-20, 0.001422861241735518, 0.0, 0.0, 0.0, 0.0, 0.0, 0.0, 0.0, 0.0, 0.0, 0.0, 0.0, 0.0, 0.0, 0.0, 0.0, 0.0, 0.0, 0.0, 0.0, 0.0, 0.0)"
1676469260.9781914,4277,1676469260,972638576,map,base_link,-0.9975450038909914,-0.9207879304885862,0.1292804032564162,-0.012833662722771208,-0.09667493462633392,-0.014160419298712021,0.9951325249492228,"(0.0005189729854464531, -1.0110990518753649e-22, 3.947117299852383e-21, 0.0, 0.0, 0.0, -1.0110990518753649e-22, 0.000518517626915127, -3.506512525092591e-36, 0.0, 0.0, 0.0, 3.947117299852386e-21, -3.506512525092591e-36, 0.0004867423267569393, 0.0, 0.0, 0.0, 0.0, 0.0, 0.0, 0.0, 0.0, 0.0, 0.0, 0.0, 0.0, 0.0, 0.0, 0.0, 0.0, 0.0, 0.0, 0.0, 0.0, 0.0)",0.002249477431178093,0.0009141930495388806,-0.00023930259339977067,0.0007471602293662727,-0.0002565260510891677,-0.0008476296789012849,"(0.0016507734544575214, 0.0, 0.0, 0.0, 0.0, 0.0, 0.0, 0.0016546808183193207, -2.797930074665993e-20, 0.0, 0.0, 0.0, 0.0, -2.797930074665994e-20, 0.00142621248960495, 0.0, 0.0, 0.0, 0.0, 0.0, 0.0, 0.0, 0.0, 0.0, 0.0, 0.0, 0.0, 0.0, 0.0, 0.0, 0.0, 0.0, 0.0, 0.0, 0.0, 0.0)"
1676469261.0220816,4278,1676469261,2613576,map,base_link,-0.9974955916404726,-0.9207375049591062,0.1292915791273116,-0.01283789588492871,-0.09667571726373725,-0.014151658694852255,0.9951325219998669,"(0.0005071566556580365, -9.701277621598478e-23, 3.7661775652721755e-21, 0.0, 0.0, 0.0, -9.701277621598478e-23, 0.00050671974895522, -3.408659381827704e-36, 0.0, 0.0, 0.0, 3.7661775652721785e-21, -3.408659381827705e-36, 0.0004764034820254892, 0.0, 0.0, 0.0, 0.0, 0.0, 0.0, 0.0, 0.0, 0.0, 0.0, 0.0, 0.0, 0.0, 0.0, 0.0, 0.0, 0.0, 0.0, 0.0, 0.0, 0.0)",0.0022586348932236433,0.0013035631272941828,-0.0001950747246155517,0.00040948789683170617,0.0002318160695722328,0.0010366692440584302,"(0.0016286526806652546, 0.0, 0.0, 0.0, 0.0, 0.0, 0.0, 0.0016324890311807394, -2.734732686221196e-20, 0.0, 0.0, 0.0, 0.0, -2.734732686221197e-20, 0.001409181160852313, 0.0, 0.0, 0.0, 0.0, 0.0, 0.0, 0.0, 0.0, 0.0, 0.0, 0.0, 0.0, 0.0, 0.0, 0.0, 0.0, 0.0, 0.0, 0.0, 0.0, 0.0)"
1676469261.0461733,4279,1676469261,42578576,map,base_link,-0.9974245429039004,-0.9206685423851011,0.12930580973625172,-0.01285169374336841,-0.09667772476189872,-0.014161357746410693,0.9951320136181506,"(0.0005089585320092738, -9.840864349966801e-23, 3.781471510059713e-21, 0.0, 0.0, 0.0, -9.840864349966801e-23, 0.0005085153388790786, -3.421137892449696e-36, 0.0, 0.0, 0.0, 3.7814715100597095e-21, -3.421137892449696e-36, 0.00047808047384023666, 0.0, 0.0, 0.0, 0.0, 0.0, 0.0, 0.0, 0.0, 0.0, 0.0, 0.0, 0.0, 0.0, 0.0, 0.0, 0.0, 0.0, 0.0, 0.0, 0.0, 0.0)",0.0025343780871480703,0.0011418674839660525,-0.00023013314057607217,-0.0002905150759033859,0.0002458634262438864,0.00039995429688133294,"(0.0016312160296365619, 0.0, 0.0, 0.0, 0.0, 0.0, 0.0, 0.001635078457184136, -2.738667553395612e-20, 0.0, 0.0, 0.0, 0.0, -2.7386675533956135e-20, 0.0014114492805674672, 0.0, 0.0, 0.0, 0.0, 0.0, 0.0, 0.0, 0.0, 0.0, 0.0, 0.0, 0.0, 0.0, 0.0, 0.0, 0.0, 0.0, 0.0, 0.0, 0.0, 0.0)"
1676469261.086007,4280,1676469261,72551552,map,base_link,-0.997362017631531,-0.9206260442733762,0.12931744754314412,-0.012857655179688522,-0.0966769709437221,-0.01416136102450134,0.9951320332129938,"(0.0005237248842604458, -1.0489684142938082e-22, 3.9893280171953594e-21, 0.0, 0.0, 0.0, -1.0489684142938082e-22, 0.0005232524708844721, -3.539791483836471e-36, 0.0, 0.0, 0.0, 3.98932801719536e-21, -3.539791483836471e-36, 0.0004911495489068329, 0.0, 0.0, 0.0, 0.0, 0.0, 0.0, 0.0, 0.0, 0.0, 0.0, 0.0, 0.0, 0.0, 0.0, 0.0, 0.0, 0.0, 0.0, 0.0, 0.0, 0.0)",0.002919782418757677,0.0011101048439741135,-0.0002334423479624094,-0.0002119530545314774,-0.00016567311831749987,-0.0007825758657418191,"(0.001657614833675325, 0.0, 0.0, 0.0, 0.0, 0.0, 0.0, 0.0016615909989923239, -2.808672547187463e-20, 0.0, 0.0, 0.0, 0.0, -2.8086725471874615e-20, 0.0014322454808279872, 0.0, 0.0, 0.0, 0.0, 0.0, 0.0, 0.0, 0.0, 0.0, 0.0, 0.0, 0.0, 0.0, 0.0, 0.0, 0.0, 0.0, 0.0, 0.0, 0.0, 0.0)"
1676469261.1299887,4281,1676469261,102526552,map,base_link,-0.9972940087318423,-0.9205886721611021,0.1293235421180724,-0.01285195993134241,-0.09666958880878136,-0.014150041453429896,0.9951329724658479,"(0.000511307967826724, -1.0032149866619689e-22, 3.7980877698125494e-21, 0.0, 0.0, 0.0, -1.0032149866619689e-22, 0.0005108561599627137, -3.4367489897558184e-36, 0.0, 0.0, 0.0, 3.798087769812554e-21, -3.4367489897558184e-36, 0.00048029422760009766, 0.0, 0.0, 0.0, 0.0, 0.0, 0.0, 0.0, 0.0, 0.0, 0.0, 0.0, 0.0, 0.0, 0.0, 0.0, 0.0, 0.0, 0.0, 0.0, 0.0, 0.0)",0.0030642577912658453,0.0008697453886270523,-0.00042104514432139706,0.004151538014411926,0.001400835579261184,0.0014060180401429532,"(0.0016340285073965788, 0.0, 0.0, 0.0, 0.0, 0.0, 0.0, 0.0016379239968955517, -2.7415759334810537e-20, 0.0, 0.0, 0.0, 0.0, -2.7415759334810537e-20, 0.001414057333022356, 0.0, 0.0, 0.0, 0.0, 0.0, 0.0, 0.0, 0.0, 0.0, 0.0, 0.0, 0.0, 0.0, 0.0, 0.0, 0.0, 0.0, 0.0, 0.0, 0.0, 0.0)"
1676469261.1743495,4282,1676469261,142491552,map,base_link,-0.9972032308578493,-0.9205558300018308,0.12931929528713215,-0.012856027306129624,-0.0966664293277054,-0.01415833401555103,0.9951331252756518,"(0.0005126557080075145, -1.0142009791724388e-22, 3.8054799025297104e-21, 0.0, 0.0, 0.0, -1.0142009791724388e-22, 0.0005121989524923265, -3.445280498396375e-36, 0.0, 0.0, 0.0, 3.805479902529716e-21, -3.445280498396375e-36, 0.0004815816064365208, 0.0, 0.0, 0.0, 0.0, 0.0, 0.0, 0.0, 0.0, 0.0, 0.0, 0.0, 0.0, 0.0, 0.0, 0.0, 0.0, 0.0, 0.0, 0.0, 0.0, 0.0)",0.003178834216669202,0.0007869185646995901,-0.0008209507795982064,-0.0011003520339727402,0.0004943468375131488,0.0001023245786200277,"(0.0016353613464161754, 0.0, 0.0, 0.0, 0.0, 0.0, 0.0, 0.001639275229535997, -2.742284494707754e-20, 0.0, 0.0, 0.0, 0.0, -2.742284494707754e-20, 0.0014153507072478533, 0.0, 0.0, 0.0, 0.0, 0.0, 0.0, 0.0, 0.0, 0.0, 0.0, 0.0, 0.0, 0.0, 0.0, 0.0, 0.0, 0.0, 0.0, 0.0, 0.0, 0.0)"
1676469261.2179172,4283,1676469261,172463016,map,base_link,-0.997136175632477,-0.9205358624458311,0.1293075829744338,-0.012857302169884906,-0.096660791596688,-0.01415924901508683,0.9951336371102152,"(0.0005272831185720861, -1.0783074766452984e-22, 4.0103852592845646e-21, 0.0, 0.0, 0.0, -1.0783074766452984e-22, 0.000526797492057085, -3.562620712139892e-36, 0.0, 0.0, 0.0, 4.010385259284561e-21, -3.562620712139895e-36, 0.0004945358377881348, 0.0, 0.0, 0.0, 0.0, 0.0, 0.0, 0.0, 0.0, 0.0, 0.0, 0.0, 0.0, 0.0, 0.0, 0.0, 0.0, 0.0, 0.0, 0.0, 0.0, 0.0)",0.0030296563636511564,0.0006247331621125339,-0.0009454372338950635,-0.0009605986997485161,0.000215433887206018,0.00030793985933996737,"(0.0016612906474620104, 0.0, 0.0, 0.0, 0.0, 0.0, 0.0, 0.0016653157072141767, -2.8116165691857135e-20, 0.0, 0.0, 0.0, 0.0, -2.8116165691857135e-20, 0.0014357297914102674, 0.0, 0.0, 0.0, 0.0, 0.0, 0.0, 0.0, 0.0, 0.0, 0.0, 0.0, 0.0, 0.0, 0.0, 0.0, 0.0, 0.0, 0.0, 0.0, 0.0, 0.0)"
1676469261.2179472,4284,1676469261,202438016,map,base_link,-0.9970734119415285,-0.9205193519592283,0.12929017841815937,-0.012859857201147613,-0.09665404191917816,-0.014163149734036854,0.995134194421375,"(0.0005143812159076333, -1.0285473929214053e-22, 3.812059399634765e-21, 0.0, 0.0, 0.0, -1.0285473929214053e-22, 0.0005139179993420839, -3.455631868715934e-36, 0.0, 0.0, 0.0, 3.812059399634766e-21, -3.455631868715935e-36, 0.0004832533886656165, 0.0, 0.0, 0.0, 0.0, 0.0, 0.0, 0.0, 0.0, 0.0, 0.0, 0.0, 0.0, 0.0, 0.0, 0.0, 0.0, 0.0, 0.0, 0.0, 0.0, 0.0)",0.0030876812525093555,0.0008604709873907267,-0.0010425894288346171,0.0005687769153155386,-7.190183532657109e-05,-0.000516001193318516,"(0.0016367777716368437, 0.0, 0.0, 0.0, 0.0, 0.0, 0.0, 0.0016407148214057088, -2.7427250287501045e-20, 0.0, 0.0, 0.0, 0.0, -2.742725028750105e-20, 0.0014167543267831206, 0.0, 0.0, 0.0, 0.0, 0.0, 0.0, 0.0, 0.0, 0.0, 0.0, 0.0, 0.0, 0.0, 0.0, 0.0, 0.0, 0.0, 0.0, 0.0, 0.0, 0.0)"
1676469261.2619762,4285,1676469261,232410016,map,base_link,-0.9970077872276308,-0.9204977750778196,0.12927231192588795,-0.012855041827041024,-0.09665666483442784,-0.014172238395385464,0.9951338647224056,"(0.0005289294058457017, -1.092653890394265e-22, 4.015553336642255e-21, 0.0, 0.0, 0.0, -1.092653890394265e-22, 0.0005284373182803392, -3.572276482109709e-36, 0.0, 0.0, 0.0, 4.015553336642259e-21, -3.572276482109709e-36, 0.0004961399245075881, 0.0, 0.0, 0.0, 0.0, 0.0, 0.0, 0.0, 0.0, 0.0, 0.0, 0.0, 0.0, 0.0, 0.0, 0.0, 0.0, 0.0, 0.0, 0.0, 0.0, 0.0)",0.0030002864077687263,0.0010173745686188338,-0.0010832159314304592,0.0023391975555568933,-0.0004897104226984085,-0.0006308472948148846,"(0.0016624978743493557, 0.0, 0.0, 0.0, 0.0, 0.0, 0.0, 0.0016665438888594508, -2.8117762449551106e-20, 0.0, 0.0, 0.0, 0.0, -2.81177624495511e-20, 0.001436944934539497, 0.0, 0.0, 0.0, 0.0, 0.0, 0.0, 0.0, 0.0, 0.0, 0.0, 0.0, 0.0, 0.0, 0.0, 0.0, 0.0, 0.0, 0.0, 0.0, 0.0, 0.0)"
1676469261.2770813,4286,1676469261,272373992,map,base_link,-0.9969239234924319,-0.9204767942428587,0.12924665212631214,-0.012845519214648991,-0.09665332162082553,-0.014167508789382142,0.9951343750316772,"(0.0005298508913256228, -1.1007964495490839e-22, 4.016693877852238e-21, 0.0, 0.0, 0.0, -1.1007964495490839e-22, 0.0005293551366776228, -3.577334075687698e-36, 0.0, 0.0, 0.0, 4.016693877852235e-21, -3.577334075687699e-36, 0.0004970520967617631, 0.0, 0.0, 0.0, 0.0, 0.0, 0.0, 0.0, 0.0, 0.0, 0.0, 0.0, 0.0, 0.0, 0.0, 0.0, 0.0, 0.0, 0.0, 0.0, 0.0, 0.0)",0.003365367418155074,0.000737174181267619,-0.0009755963110364975,-0.0014676871942356229,-0.00011270878167124477,-0.000990613829344511,"(0.0016629744786769152, 0.0, 0.0, 0.0, 0.0, 0.0, 0.0, 0.0016670323675498366, -2.811124710788911e-20, 0.0, 0.0, 0.0, 0.0, -2.8111247107889096e-20, 0.0014374866150319576, 0.0, 0.0, 0.0, 0.0, 0.0, 0.0, 0.0, 0.0, 0.0, 0.0, 0.0, 0.0, 0.0, 0.0, 0.0, 0.0, 0.0, 0.0, 0.0, 0.0, 0.0)"
1676469261.3180184,4287,1676469261,302348992,map,base_link,-0.9968568086624148,-0.9204701185226438,0.12922796607017506,-0.012844763107062375,-0.09665284409352129,-0.014170359406242734,0.9951343826617814,"(0.0005165728507563472, -1.0480636854988283e-22, 3.814030397413256e-21, 0.0, 0.0, 0.0, -1.0480636854988283e-22, 0.0005161008448339999, -3.467513693708546e-36, 0.0, 0.0, 0.0, 3.814030397413259e-21, -3.467513693708548e-36, 0.0004854289290960878, 0.0, 0.0, 0.0, 0.0, 0.0, 0.0, 0.0, 0.0, 0.0, 0.0, 0.0, 0.0, 0.0, 0.0, 0.0, 0.0, 0.0, 0.0, 0.0, 0.0, 0.0)",0.0034458437003195286,0.0006039802683517336,-0.0010814083507284522,1.63049298862461e-05,5.604149555438195e-05,-0.0002913159260060638,"(0.0016378783620893955, 0.0, 0.0, 0.0, 0.0, 0.0, 0.0, 0.0016418423037976027, -2.741182446763614e-20, 0.0, 0.0, 0.0, 0.0, -2.741182446763613e-20, 0.0014180077705532312, 0.0, 0.0, 0.0, 0.0, 0.0, 0.0, 0.0, 0.0, 0.0, 0.0, 0.0, 0.0, 0.0, 0.0, 0.0, 0.0, 0.0, 0.0, 0.0, 0.0, 0.0)"
1676469261.3619215,4288,1676469261,342313992,map,base_link,-0.9967615008354189,-0.9204714894294737,0.12919886410236348,-0.012835322341309479,-0.09665796590185366,-0.014180916155832226,0.9951338669517452,"(0.0005179584841243923, -1.058661937097164e-22, 3.827235726110019e-21, 0.0, 0.0, 0.0, -1.058661937097164e-22, 0.0005174817051738501, -3.477395751573318e-36, 0.0, 0.0, 0.0, 3.827235726110013e-21, -3.477395751573318e-36, 0.0004867067327722907, 0.0, 0.0, 0.0, 0.0, 0.0, 0.0, 0.0, 0.0, 0.0, 0.0, 0.0, 0.0, 0.0, 0.0, 0.0, 0.0, 0.0, 0.0, 0.0, 0.0, 0.0)",0.0038452711887657642,0.0006205468671396374,-0.001170918345451355,0.002643841551616788,0.0007466442766599356,-0.0010759290307760239,"(0.0016402422916144133, 0.0, 0.0, 0.0, 0.0, 0.0, 0.0, 0.0016442242776975036, -2.7465643755981896e-20, 0.0, 0.0, 0.0, 0.0, -2.7465643755981883e-20, 0.0014199502766132355, 0.0, 0.0, 0.0, 0.0, 0.0, 0.0, 0.0, 0.0, 0.0, 0.0, 0.0, 0.0, 0.0, 0.0, 0.0, 0.0, 0.0, 0.0, 0.0, 0.0, 0.0)"
1676469261.4060965,4289,1676469261,372286968,map,base_link,-0.9966877698898318,-0.9204747080802915,0.1291808933019637,-0.01283780399149434,-0.0966559395005466,-0.014189385255533418,0.9951339315211047,"(0.0005061061237938702, -1.0140717322017274e-22, 3.656090389170466e-21, 0.0, 0.0, 0.0, -1.0140717322017274e-22, 0.0005056494264863431, -3.381296567799992e-36, 0.0, 0.0, 0.0, 3.656090389170472e-21, -3.38129656779999e-36, 0.0004762518801726401, 0.0, 0.0, 0.0, 0.0, 0.0, 0.0, 0.0, 0.0, 0.0, 0.0, 0.0, 0.0, 0.0, 0.0, 0.0, 0.0, 0.0, 0.0, 0.0, 0.0, 0.0)",0.003960926551371813,0.0007504535024054347,-0.001135005964897573,-0.0006062795873731375,-0.0010475409217178822,-0.00010245395969832304,"(0.0016190523747354746, 0.0, 0.0, 0.0, 0.0, 0.0, 0.0, 0.0016229572938755155, -2.6889171458164378e-20, 0.0, 0.0, 0.0, 0.0, -2.688917145816438e-20, 0.0014033905463293195, 0.0, 0.0, 0.0, 0.0, 0.0, 0.0, 0.0, 0.0, 0.0, 0.0, 0.0, 0.0, 0.0, 0.0, 0.0, 0.0, 0.0, 0.0, 0.0, 0.0, 0.0)"
1676469261.4500318,4290,1676469261,402260968,map,base_link,-0.9966123104095461,-0.9204758405685423,0.12916231155395497,-0.012839547665742334,-0.09665322515543072,-0.01418392463543108,0.9951342383035169,"(0.0005207963404245675, -1.079470699381701e-22, 3.863376625701145e-21, 0.0, 0.0, 0.0, -1.079470699381701e-22, 0.0005203101900406182, -3.499436786556091e-36, 0.0, 0.0, 0.0, 3.863376625701148e-21, -3.499436786556091e-36, 0.0004892494762316346, 0.0, 0.0, 0.0, 0.0, 0.0, 0.0, 0.0, 0.0, 0.0, 0.0, 0.0, 0.0, 0.0, 0.0, 0.0, 0.0, 0.0, 0.0, 0.0, 0.0, 0.0)",0.0040368447080254555,0.0006330009200610219,-0.0011424451367929578,-0.001760011655278504,0.00022539174824487434,0.0013305834727361798,"(0.001646114164032042, 0.0, 0.0, 0.0, 0.0, 0.0, 0.0, 0.0016501331701874733, -2.76198876978661e-20, 0.0, 0.0, 0.0, 0.0, -2.76198876978661e-20, 0.0014245996717363596, 0.0, 0.0, 0.0, 0.0, 0.0, 0.0, 0.0, 0.0, 0.0, 0.0, 0.0, 0.0, 0.0, 0.0, 0.0, 0.0, 0.0, 0.0, 0.0, 0.0, 0.0)"
1676469261.4500704,4291,1676469261,442226968,map,base_link,-0.9965208768844607,-0.9204791188240049,0.12913911044597615,-0.012832127387867308,-0.09665290267128245,-0.014180289377202997,0.9951344333904155,"(0.0004971756716258824, -9.880930910887338e-23, 3.530826886593527e-21, 0.0, 0.0, 0.0, -9.880930910887338e-23, 0.0004967306740581989, -3.3096110609269694e-36, 0.0, 0.0, 0.0, 3.5308268865935245e-21, -3.309611060926969e-36, 0.00046834428212605417, 0.0, 0.0, 0.0, 0.0, 0.0, 0.0, 0.0, 0.0, 0.0, 0.0, 0.0, 0.0, 0.0, 0.0, 0.0, 0.0, 0.0, 0.0, 0.0, 0.0, 0.0)",0.004046994727104902,0.0005804281681776046,-0.0011035039788112044,0.0037096983287483454,0.00018947817443404366,0.0015657787444069982,"(0.0016044757794588804, 0.0, 0.0, 0.0, 0.0, 0.0, 0.0, 0.0016083365771919489, -2.650352596154108e-20, 0.0, 0.0, 0.0, 0.0, -2.6503525961541078e-20, 0.0013919188641011715, 0.0, 0.0, 0.0, 0.0, 0.0, 0.0, 0.0, 0.0, 0.0, 0.0, 0.0, 0.0, 0.0, 0.0, 0.0, 0.0, 0.0, 0.0, 0.0, 0.0, 0.0)"
