Time,header.seq,header.stamp.secs,header.stamp.nsecs,header.frame_id,pose.position.x,pose.position.y,pose.position.z,pose.orientation.x,pose.orientation.y,pose.orientation.z,pose.orientation.w
1676469259.577659,8362,1676469259,153316175,world,-0.9981827735900879,-0.9214239716529846,0.1289406418800354,-0.019636545330286026,0.03893342241644859,0.016106711700558662,-0.9989190697669983
1676469259.5795097,8363,1676469259,153478245,world,-0.9981767535209656,-0.9214254021644592,0.12893326580524445,-0.01957062818109989,0.03893006220459938,0.016082314774394035,-0.9989208579063416
1676469259.5795307,8364,1676469259,163354327,world,-0.9981687664985657,-0.9214233756065369,0.12893526256084442,-0.019665051251649857,0.03905504196882248,0.01606162078678608,-0.9989144802093506
1676469259.5795794,8365,1676469259,163801540,world,-0.9981778264045715,-0.9214290380477905,0.12894023954868317,-0.0195033960044384,0.039158448576927185,0.016028236597776413,-0.9989140629768372
1676469259.5796032,8366,1676469259,163916926,world,-0.9981771111488342,-0.9214233160018921,0.12893489003181458,-0.019550548866391182,0.039011117070913315,0.016125895082950592,-0.9989174008369446
1676469259.5796142,8367,1676469259,173356629,world,-0.9981777667999268,-0.9214150905609131,0.128942608833313,-0.019481966271996498,0.038975734263658524,0.016029277816414833,-0.9989216923713684
1676469259.5796351,8368,1676469259,173454016,world,-0.9981788992881775,-0.9214221835136414,0.1289443075656891,-0.01932194083929062,0.039090901613235474,0.016025418415665627,-0.9989202618598938
1676469259.5796454,8369,1676469259,183324431,world,-0.9981769919395447,-0.9214209914207458,0.12894341349601746,-0.019535938277840614,0.039033450186252594,0.016096798703074455,-0.9989172220230103
1676469259.5796702,8371,1676469259,183468465,world,-0.998174786567688,-0.9214250445365906,0.12894132733345032,-0.01945439539849758,0.0391148179769516,0.016001645475625992,-0.9989171624183655
1676469259.579686,8372,1676469259,193328195,world,-0.9981706142425537,-0.9214197397232056,0.1289365291595459,-0.0195373073220253,0.03906179964542389,0.016029339283704758,-0.9989172220230103
1676469259.57971,8373,1676469259,193425341,world,-0.9981689453125,-0.9214228391647339,0.12894706428050995,-0.019434401765465736,0.03913424164056778,0.016025258228182793,-0.9989163875579834
1676469259.5797238,8374,1676469259,203369144,world,-0.998174250125885,-0.9214190244674683,0.1289387196302414,-0.019539974629878998,0.03902934119105339,0.016144011169672012,-0.9989166259765625
1676469259.5797334,8375,1676469259,203457087,world,-0.9981748461723328,-0.9214199781417847,0.12893085181713104,-0.01966262236237526,0.03896817937493324,0.016004297882318497,-0.9989187717437744
1676469259.5797508,8376,1676469259,213350909,world,-0.9981726408004761,-0.9214223623275757,0.12893564999103546,-0.01951965130865574,0.03895406424999237,0.01609957404434681,-0.9989206194877625
1676469259.5797758,8378,1676469259,213492128,world,-0.9981733560562134,-0.9214234948158264,0.12892107665538788,-0.020038677379488945,0.03878307342529297,0.016089746728539467,-0.9989171624183655
1676469259.579786,8379,1676469259,223346692,world,-0.9981696009635925,-0.9214298725128174,0.12892885506153107,-0.019735587760806084,0.038962118327617645,0.016182418912649155,-0.9989147782325745
1676469259.5797966,8380,1676469259,223514262,world,-0.998174250125885,-0.921421229839325,0.128951296210289,-0.01909894309937954,0.039165083318948746,0.015924513339996338,-0.9989233613014221
1676469259.5798135,8381,1676469259,233360623,world,-0.9981662631034851,-0.9214264154434204,0.1289338767528534,-0.019337572157382965,0.03910186141729355,0.016040120273828506,-0.9989193677902222
1676469259.5798264,8382,1676469259,233527619,world,-0.9981714487075806,-0.9214180111885071,0.12894076108932495,-0.019713204354047775,0.038993190973997116,0.016005149111151695,-0.9989168047904968
1676469259.5798392,8383,1676469259,233580285,world,-0.9981777667999268,-0.9214252829551697,0.12894701957702637,-0.019432367756962776,0.039092108607292175,0.016102103516459465,-0.9989169239997864
1676469259.5798552,8384,1676469259,243329795,world,-0.9981725215911865,-0.921417772769928,0.12894336879253387,-0.01954449899494648,0.03893059119582176,0.016178781166672707,-0.9989197254180908
1676469259.5798647,8385,1676469259,243499773,world,-0.998174250125885,-0.9214203357696533,0.12893149256706238,-0.01999662071466446,0.03890383243560791,0.016025293618440628,-0.9989143013954163
1676469259.579875,8386,1676469259,253341893,world,-0.9981707334518433,-0.9214187264442444,0.12892840802669525,-0.01941840350627899,0.03907845541834831,0.01599833555519581,-0.9989194273948669
1676469259.5798845,8387,1676469259,253527278,world,-0.9981714487075806,-0.9214207530021667,0.12893135845661163,-0.01979551464319229,0.038900114595890045,0.01610417291522026,-0.9989171624183655
1676469259.5799072,8388,1676469259,263327935,world,-0.9981788992881775,-0.9214314222335815,0.12893086671829224,-0.01976347528398037,0.0389208048582077,0.016148505732417107,-0.9989163875579834
1676469259.5799172,8389,1676469259,263500895,world,-0.9981762766838074,-0.9214263558387756,0.12894447147846222,-0.01935403048992157,0.03905397281050682,0.016065632924437523,-0.9989205598831177
1676469259.5799365,8390,1676469259,263555282,world,-0.9981690645217896,-0.9214226007461548,0.12894207239151,-0.01946835219860077,0.039122529327869415,0.016023730859160423,-0.9989162087440491
1676469259.5799527,8391,1676469259,273339663,world,-0.9981794357299805,-0.9214176535606384,0.12894748151302338,-0.019550319761037827,0.03900432586669922,0.01600469835102558,-0.9989195466041565
1676469259.57997,8392,1676469259,273498733,world,-0.998172402381897,-0.9214173555374146,0.12894514203071594,-0.019466547295451164,0.039017725735902786,0.015999387949705124,-0.9989207983016968
1676469259.5800345,8393,1676469259,283358982,world,-0.9981762170791626,-0.9214219450950623,0.12893252074718475,-0.019721945747733116,0.038968849927186966,0.01611957512795925,-0.9989157915115356
1676469259.580061,8394,1676469259,283621402,world,-0.9981768727302551,-0.9214195609092712,0.1289510577917099,-0.019317058846354485,0.03919823095202446,0.015993217006325722,-0.9989166855812073
1676469259.5800712,8395,1676469259,283771936,world,-0.9981796741485596,-0.9214246273040771,0.12894701957702637,-0.019519099965691566,0.039057113230228424,0.016035666689276695,-0.9989175796508789
1676469259.5801,8396,1676469259,293387857,world,-0.9981780648231506,-0.9214224815368652,0.12894277274608612,-0.019604669883847237,0.038977257907390594,0.01605028659105301,-0.9989188313484192
1676469259.580116,8397,1676469259,293491799,world,-0.9981737732887268,-0.9214192628860474,0.1289389431476593,-0.019516820088028908,0.03896478936076164,0.016027873381972313,-0.9989214539527893
1676469259.5801277,8398,1676469259,303359659,world,-0.9981816411018372,-0.9214291572570801,0.12893250584602356,-0.019687501713633537,0.03888392820954323,0.01617600955069065,-0.9989188313484192
1676469259.5801423,8399,1676469259,303452657,world,-0.9981811046600342,-0.9214222431182861,0.12893669307231903,-0.019648605957627296,0.03888089582324028,0.016089415177702904,-0.9989210963249207
1676469259.5801687,8400,1676469259,313334684,world,-0.9981743693351746,-0.9214165210723877,0.12893497943878174,-0.019605357199907303,0.03891582414507866,0.016038840636610985,-0.9989214539527893
1676469259.580178,8402,1676469259,313471458,world,-0.9981748461723328,-0.921421468257904,0.12894000113010406,-0.019670680165290833,0.03894694894552231,0.016014261171221733,-0.9989193677902222
1676469259.5801983,8403,1676469259,323325189,world,-0.998172402381897,-0.9214242100715637,0.12894323468208313,-0.019211716949939728,0.039118796586990356,0.01608862541615963,-0.9989203810691833
1676469259.5802133,8404,1676469259,323470223,world,-0.998174250125885,-0.9214168190956116,0.12894141674041748,-0.0195609237998724,0.03910713642835617,0.01598971337080002,-0.9989156126976013
1676469259.5802376,8405,1676469259,333325805,world,-0.9981778264045715,-0.9214227199554443,0.1289507895708084,-0.019457176327705383,0.03911300003528595,0.016094448044896126,-0.9989156723022461
1676469259.5802555,8406,1676469259,333491228,world,-0.9981722831726074,-0.921424150466919,0.12893366813659668,-0.019656933844089508,0.03896532580256462,0.016060486435890198,-0.9989181756973267
1676469259.5802658,8407,1676469259,333545393,world,-0.9981738328933716,-0.9214209318161011,0.12894634902477264,-0.01960362307727337,0.039029140025377274,0.01601633056998253,-0.9989173412322998
1676469259.580283,8408,1676469259,343348643,world,-0.9981695413589478,-0.9214202761650085,0.12893272936344147,-0.019636990502476692,0.038950178772211075,0.015986381098628044,-0.9989202618598938
1676469259.5802927,8409,1676469259,343509084,world,-0.9981765747070312,-0.9214333295822144,0.12894168496131897,-0.019373970106244087,0.039067644625902176,0.016081374138593674,-0.9989193081855774
1676469259.5803022,8410,1676469259,353315816,world,-0.9981803894042969,-0.9214155077934265,0.12894001603126526,-0.0197683647274971,0.03884930536150932,0.016106130555272102,-0.9989197254180908
1676469259.5803123,8411,1676469259,353476220,world,-0.9981798529624939,-0.9214270114898682,0.1289372742176056,-0.019711118191480637,0.03901379555463791,0.016078120097517967,-0.9989148378372192
1676469259.5803776,8412,1676469259,363335395,world,-0.998176634311676,-0.9214208722114563,0.1289396733045578,-0.019519509747624397,0.039012692868709564,0.015945205464959145,-0.9989207983016968
1676469259.5804007,8413,1676469259,363507521,world,-0.9981718063354492,-0.9214239716529846,0.12893030047416687,-0.01970818266272545,0.0388249009847641,0.01598803699016571,-0.9989237785339355
1676469259.5804117,8414,1676469259,363561816,world,-0.9981688261032104,-0.9214127659797668,0.12895050644874573,-0.019225919619202614,0.03906821087002754,0.016016416251659393,-0.9989231824874878
1676469259.5804203,8415,1676469259,373338752,world,-0.9981685876846313,-0.9214211702346802,0.12894560396671295,-0.01945190504193306,0.03914818540215492,0.016025621443986893,-0.9989155530929565
1676469259.580437,8416,1676469259,373508989,world,-0.9981685280799866,-0.9214274883270264,0.1289348304271698,-0.01966962032020092,0.039017368108034134,0.016044236719608307,-0.9989160895347595
1676469259.5804694,8417,1676469259,383352164,world,-0.9981815218925476,-0.9214154481887817,0.12894988059997559,-0.019476404413580894,0.039139728993177414,0.015971288084983826,-0.9989163279533386
1676469259.580489,8418,1676469259,383503920,world,-0.9981719255447388,-0.9214200377464294,0.12895096838474274,-0.01937236823141575,0.03912302106618881,0.015917425975203514,-0.9989198446273804
1676469259.5805166,8419,1676469259,383559234,world,-0.9981681704521179,-0.9214265942573547,0.12893708050251007,-0.019640086218714714,0.039051782339811325,0.01604503020644188,-0.9989153146743774
1676469259.5895133,8420,1676469259,393316763,world,-0.9981770515441895,-0.921423077583313,0.12893453240394592,-0.019439084455370903,0.039030060172080994,0.015980999916791916,-0.9989210963249207
1676469259.5906136,8421,1676469259,393475167,world,-0.9981723427772522,-0.9214160442352295,0.1289440542459488,-0.019692927598953247,0.03898410499095917,0.01600099913775921,-0.9989175796508789
1676469259.5935054,8422,1676469259,403405896,world,-0.9981693625450134,-0.9214185476303101,0.12895922362804413,-0.01924348995089531,0.03927004337310791,0.01595398783683777,-0.9989159107208252
1676469259.5986,8423,1676469259,403583595,world,-0.9981728792190552,-0.9214275479316711,0.1289442628622055,-0.019464554265141487,0.03905973955988884,0.01598389446735382,-0.9989194273948669
1676469259.5986211,8424,1676469259,413333106,world,-0.9981729388237,-0.9214292168617249,0.1289486438035965,-0.01934123784303665,0.03914529085159302,0.016076944768428802,-0.9989169836044312
1676469259.5986636,8425,1676469259,413491029,world,-0.9981677532196045,-0.92142254114151,0.12893974781036377,-0.019502289593219757,0.03906465321779251,0.01594477891921997,-0.9989191889762878
1676469259.5986898,8426,1676469259,413542564,world,-0.9981681108474731,-0.9214279055595398,0.12893080711364746,-0.01963457465171814,0.0389714315533638,0.0160340815782547,-0.9989187717437744
1676469259.598699,8427,1676469259,423336796,world,-0.9981740117073059,-0.9214215278625488,0.1289423555135727,-0.019711017608642578,0.03889160230755806,0.016092574223876,-0.9989194273948669
1676469259.598713,8428,1676469259,423488700,world,-0.9981786012649536,-0.9214217662811279,0.12894093990325928,-0.019767530262470245,0.03894892334938049,0.016057055443525314,-0.9989166855812073
1676469259.5987227,8429,1676469259,433333968,world,-0.9981670379638672,-0.921418309211731,0.12893971800804138,-0.019539298489689827,0.039073068648576736,0.015990566462278366,-0.9989174008369446
1676469259.5987704,8430,1676469259,433421985,world,-0.9981755018234253,-0.9214156866073608,0.12894803285598755,-0.01926305890083313,0.03917377069592476,0.015909649431705475,-0.9989200234413147
1676469259.5988014,8431,1676469259,433961307,world,-0.9981696605682373,-0.9214286208152771,0.128922238945961,-0.020000619813799858,0.03886624798178673,0.01609775610268116,-0.9989145398139954
1676469259.5988145,8432,1676469259,443356455,world,-0.9981781244277954,-0.921430230140686,0.12894344329833984,-0.01948544569313526,0.03897705301642418,0.01605851575732231,-0.9989210367202759
1676469259.598824,8433,1676469259,443753538,world,-0.9981834888458252,-0.9214228391647339,0.12894585728645325,-0.019672174006700516,0.03899257257580757,0.016060858964920044,-0.9989168047904968
1676469259.5988483,8434,1676469259,453326812,world,-0.9981785416603088,-0.9214229583740234,0.12895707786083221,-0.01918373815715313,0.03927890211343765,0.01603890024125576,-0.998915433883667
1676469259.5988696,8435,1676469259,453494364,world,-0.9981760382652283,-0.9214160442352295,0.12893834710121155,-0.01939900405704975,0.03903083875775337,0.01595117710530758,-0.9989223480224609
1676469259.598907,8436,1676469259,463368631,world,-0.9981771111488342,-0.9214169383049011,0.1289414018392563,-0.019514787942171097,0.03899609297513962,0.01603739894926548,-0.9989201426506042
1676469259.5989304,8437,1676469259,463470018,world,-0.9981723427772522,-0.9214200973510742,0.12893223762512207,-0.019828228279948235,0.03890540078282356,0.01611034944653511,-0.9989162683486938
1676469259.5989718,8438,1676469259,473341211,world,-0.9981764554977417,-0.9214281439781189,0.12894392013549805,-0.019449342042207718,0.03910496085882187,0.015986954793334007,-0.9989178776741028
1676469259.599008,8439,1676469259,473521726,world,-0.9981770515441895,-0.9214308261871338,0.1289360225200653,-0.01969132013618946,0.03890688717365265,0.016144292429089546,-0.998918354511261
1676469259.5990226,8440,1676469259,473580188,world,-0.9981772303581238,-0.9214223027229309,0.12893453240394592,-0.019511964172124863,0.03897479176521301,0.016093118116259575,-0.9989200234413147
1676469259.5990317,8441,1676469259,483316050,world,-0.9981786608695984,-0.9214162826538086,0.12893763184547424,-0.0198065135627985,0.03887861967086792,0.016003809869289398,-0.9989194869995117
1676469259.5990791,8442,1676469259,483499120,world,-0.9981724619865417,-0.9214189052581787,0.12895026803016663,-0.01917618326842785,0.039070695638656616,0.016039090231060982,-0.998923659324646
1676469259.5990953,8443,1676469259,493316741,world,-0.9981722831726074,-0.9214240312576294,0.1289404183626175,-0.01958976313471794,0.03896546736359596,0.016034679487347603,-0.9989198446273804
1676469259.5991051,8444,1676469259,493480830,world,-0.9981698989868164,-0.921424150466919,0.1289447546005249,-0.019429977983236313,0.039191823452711105,0.01594066619873047,-0.9989156126976013
1676469259.5991132,8445,1676469259,493531532,world,-0.9981846213340759,-0.9214159846305847,0.12894582748413086,-0.01951044425368309,0.039028167724609375,0.016009308397769928,-0.9989193677902222
1676469259.59913,8446,1676469259,503343893,world,-0.9981774091720581,-0.921424925327301,0.12894222140312195,-0.019580503925681114,0.03910980746150017,0.016075504943728447,-0.9989137649536133
1676469259.5991404,8447,1676469259,503523019,world,-0.9981729984283447,-0.9214203357696533,0.128945991396904,-0.019345832988619804,0.039181847125291824,0.01604403369128704,-0.9989160299301147
1676469259.5992117,8448,1676469259,513330029,world,-0.9981794953346252,-0.9214193224906921,0.1289433240890503,-0.01970463991165161,0.03901723027229309,0.015988407656550407,-0.9989162683486938
1676469259.5992217,8449,1676469259,513506247,world,-0.9981741309165955,-0.921419620513916,0.12894822657108307,-0.019363658502697945,0.03911085054278374,0.01606838032603264,-0.9989180564880371
1676469259.59925,8450,1676469259,513561857,world,-0.9981703758239746,-0.9214272499084473,0.12893326580524445,-0.019597327336668968,0.03882637247443199,0.016075145453214645,-0.9989244937896729
1676469259.5992851,8451,1676469259,523349033,world,-0.9981760382652283,-0.9214239120483398,0.12894396483898163,-0.01944052055478096,0.03905881568789482,0.016029926016926765,-0.9989191889762878
1676469259.5992935,8452,1676469259,523517308,world,-0.9981703758239746,-0.9214189052581787,0.12894189357757568,-0.019632404670119286,0.03892242908477783,0.016071684658527374,-0.9989200830459595
1676469259.5993264,8453,1676469259,533342909,world,-0.9981690049171448,-0.9214222431182861,0.12892954051494598,-0.019777068868279457,0.03896337375044823,0.01607583276927471,-0.9989156126976013
1676469259.599356,8454,1676469259,533521035,world,-0.9981740713119507,-0.9214284420013428,0.12892767786979675,-0.019674252718687057,0.038854725658893585,0.016041092574596405,-0.9989224076271057
1676469259.5993786,8455,1676469259,533578811,world,-0.9981757402420044,-0.9214218258857727,0.12893031537532806,-0.0198152307420969,0.03881834074854851,0.016151024028658867,-0.9989192485809326
1676469259.599463,8456,1676469259,543414153,world,-0.9981690645217896,-0.9214256405830383,0.12894609570503235,-0.019435519352555275,0.03910491615533829,0.016056163236498833,-0.9989170432090759
1676469259.5994723,8457,1676469259,543891551,world,-0.998168408870697,-0.9214242696762085,0.12894409894943237,-0.019180720672011375,0.039171382784843445,0.016037488356232643,-0.9989197254180908
1676469259.5994992,8458,1676469259,553346864,world,-0.9981759786605835,-0.921425998210907,0.12893171608448029,-0.01979266107082367,0.03895403817296028,0.015985682606697083,-0.9989171028137207
1676469259.599535,8459,1676469259,553799854,world,-0.9981761574745178,-0.9214219450950623,0.12893544137477875,-0.019723232835531235,0.038873154670000076,0.01602196879684925,-0.9989210367202759
1676469259.5995688,8460,1676469259,563375665,world,-0.9981792569160461,-0.9214264154434204,0.12893261015415192,-0.019785068929195404,0.038904231041669846,0.01610655151307583,-0.9989172220230103
1676469259.5996127,8461,1676469259,563884839,world,-0.9981731176376343,-0.9214242100715637,0.12893730401992798,-0.019553838297724724,0.039010316133499146,0.016107073053717613,-0.9989176988601685
1676469259.6044948,8462,1676469259,573336263,world,-0.9981741309165955,-0.9214329123497009,0.12893064320087433,-0.01977771334350109,0.03896389156579971,0.016097409650683403,-0.9989151954650879
1676469259.6045582,8463,1676469259,573504982,world,-0.9981708526611328,-0.9214217066764832,0.12894174456596375,-0.019420795142650604,0.03906141594052315,0.01608426496386528,-0.9989185929298401
1676469259.6058614,8464,1676469259,573565795,world,-0.9981762170791626,-0.9214230179786682,0.12894906103610992,-0.019461385905742645,0.038998719304800034,0.016037076711654663,-0.9989209771156311
1676469259.6062047,8465,1676469259,583370453,world,-0.9981824159622192,-0.9214177131652832,0.1289350390434265,-0.01964583620429039,0.038902804255485535,0.016064397990703583,-0.998920738697052
1676469259.6068766,8466,1676469259,583855313,world,-0.9981765747070312,-0.9214248061180115,0.12893763184547424,-0.019480006769299507,0.03903248906135559,0.015994859859347343,-0.9989199638366699
1676469259.6069121,8467,1676469259,583951015,world,-0.9981739521026611,-0.9214242696762085,0.12894955277442932,-0.01945800706744194,0.03911210969090462,0.016120944172143936,-0.9989153146743774
1676469259.6069543,8468,1676469259,593625064,world,-0.9981737732887268,-0.9214195609092712,0.12894365191459656,-0.019511789083480835,0.039009589701890945,0.016021154820919037,-0.9989199042320251
1676469259.60697,8469,1676469259,593767190,world,-0.9981777667999268,-0.9214228987693787,0.12894876301288605,-0.01950150355696678,0.039120908826589584,0.016066858544945717,-0.9989150166511536
1676469259.6070364,8470,1676469259,603339446,world,-0.9981739521026611,-0.9214301705360413,0.1289222091436386,-0.019920285791158676,0.038867611438035965,0.016107123345136642,-0.99891597032547
1676469259.6070766,8471,1676469259,603523016,world,-0.9981808066368103,-0.9214159846305847,0.1289430558681488,-0.019656168296933174,0.03910774737596512,0.0159982368350029,-0.9989135265350342
1676469259.6153252,8472,1676469259,613331247,world,-0.9981768727302551,-0.9214280247688293,0.12893986701965332,-0.019543901085853577,0.039012882858514786,0.0161607526242733,-0.9989168643951416
1676469259.615365,8473,1676469259,613496947,world,-0.9981695413589478,-0.9214183688163757,0.12893930077552795,-0.019401613622903824,0.03909621387720108,0.01598268374800682,-0.9989192485809326
1676469259.6153755,8474,1676469259,613560687,world,-0.9981732964515686,-0.9214165210723877,0.128936305642128,-0.019848553463816643,0.03899515047669411,0.016002574935555458,-0.9989140629768372
1676469259.6248336,8475,1676469259,623316216,world,-0.9981774687767029,-0.9214187860488892,0.12894277274608612,-0.019558342173695564,0.039087552577257156,0.015940066426992416,-0.9989171624183655
1676469259.6248546,8476,1676469259,623466379,world,-0.9981730580329895,-0.9214237928390503,0.12893381714820862,-0.01983492635190487,0.03887496143579483,0.016123931854963303,-0.9989170432090759
1676469259.6339521,8477,1676469259,633304592,world,-0.9981770515441895,-0.9214264154434204,0.1289348304271698,-0.019790781661868095,0.03886605054140091,0.016098113730549812,-0.9989187717437744
1676469259.6341152,8478,1676469259,633446700,world,-0.9981797933578491,-0.921415388584137,0.12893687188625336,-0.019528213888406754,0.03893204778432846,0.01610555872321129,-0.9989212155342102
1676469259.6437674,8479,1676469259,643308097,world,-0.9981731176376343,-0.921422004699707,0.12894363701343536,-0.019377728924155235,0.0390423908829689,0.016033418476581573,-0.9989209771156311
1676469259.6441107,8480,1676469259,643463093,world,-0.9981799125671387,-0.9214315414428711,0.12893588840961456,-0.019652942195534706,0.03885402902960777,0.01615443453192711,-0.9989210367202759
1676469259.6441252,8481,1676469259,643519722,world,-0.9981745481491089,-0.9214229583740234,0.1289314329624176,-0.019684862345457077,0.038906700909137726,0.0160994790494442,-0.9989191889762878
1676469259.6540577,8482,1676469259,653334990,world,-0.998178243637085,-0.9214209318161011,0.12894317507743835,-0.019841356202960014,0.03894210234284401,0.016106152907013893,-0.9989145994186401
1676469259.6542933,8483,1676469259,653524764,world,-0.9981706738471985,-0.9214269518852234,0.1289379596710205,-0.019491620361804962,0.03898729756474495,0.01599901169538498,-0.9989214539527893
1676469259.6647422,8484,1676469259,663344310,world,-0.998175323009491,-0.9214293956756592,0.12893535196781158,-0.01965026557445526,0.03899756073951721,0.016093306243419647,-0.998916506767273
1676469259.6655388,8485,1676469259,663537954,world,-0.9981774091720581,-0.9214247465133667,0.12893706560134888,-0.01967667229473591,0.038903627544641495,0.016054866835474968,-0.998920202255249
1676469259.6655648,8486,1676469259,663614952,world,-0.998171865940094,-0.921424925327301,0.1289379894733429,-0.0196493249386549,0.03890158608555794,0.016190305352211,-0.9989187121391296
1676469259.6741383,8487,1676469259,673324834,world,-0.9981777667999268,-0.9214174151420593,0.12893740832805634,-0.019621267914772034,0.03904646262526512,0.015967292711138725,-0.9989171028137207
1676469259.6741738,8488,1676469259,673488238,world,-0.9981792569160461,-0.9214196801185608,0.1289367377758026,-0.01967312954366207,0.038922268897295,0.01615085080265999,-0.9989180564880371
1676469259.6876926,8489,1676469259,684263412,world,-0.9981743097305298,-0.9214184880256653,0.1289362758398056,-0.01941726915538311,0.03902815654873848,0.01604674756526947,-0.9989205598831177
1676469259.6877525,8490,1676469259,684949841,world,-0.9981667399406433,-0.921423614025116,0.1289251744747162,-0.01961124874651432,0.039017125964164734,0.01599896140396595,-0.9989179968833923
1676469259.6877658,8491,1676469259,685089764,world,-0.998174250125885,-0.9214239716529846,0.12893368303775787,-0.019713645800948143,0.03891771286725998,0.016161253675818443,-0.9989172220230103
1676469259.6942096,8492,1676469259,693325159,world,-0.9981776475906372,-0.9214271306991577,0.12893477082252502,-0.019795477390289307,0.03891092911362648,0.016096672043204308,-0.9989169239997864
1676469259.6942196,8493,1676469259,693420843,world,-0.9981763958930969,-0.9214193224906921,0.1289382427930832,-0.019633814692497253,0.03899103030562401,0.01611722633242607,-0.9989166259765625
1676469259.703915,8494,1676469259,703327072,world,-0.9981722235679626,-0.921424925327301,0.12893502414226532,-0.019592290744185448,0.03912743926048279,0.016127485781908035,-0.9989120364189148
1676469259.7039282,8495,1676469259,703419626,world,-0.9981731176376343,-0.9214245676994324,0.12894074618816376,-0.019454864785075188,0.03896712511777878,0.016130579635500908,-0.9989208579063416
1676469259.7139792,8496,1676469259,713345818,world,-0.9981756806373596,-0.9214168190956116,0.12893575429916382,-0.019670456647872925,0.038916151970624924,0.01604287326335907,-0.9989200830459595
1676469259.714684,8497,1676469259,713539702,world,-0.9981741905212402,-0.9214205741882324,0.12894631922245026,-0.019324934110045433,0.03911590203642845,0.01610126532614231,-0.9989179968833923
1676469259.7147093,8498,1676469259,713603330,world,-0.9981792569160461,-0.9214254021644592,0.12893182039260864,-0.019387712702155113,0.038958948105573654,0.016067836433649063,-0.9989234805107117
1676469259.7240527,8499,1676469259,723354730,world,-0.9981722831726074,-0.9214246273040771,0.1289345771074295,-0.019605567678809166,0.039047982543706894,0.01607217639684677,-0.9989156723022461
1676469259.7240684,8500,1676469259,723465042,world,-0.9981740117073059,-0.9214274287223816,0.1289391964673996,-0.019608577713370323,0.03898782655596733,0.01613081619143486,-0.9989171028137207
1676469259.7342558,8501,1676469259,733343976,world,-0.9981791973114014,-0.9214253425598145,0.12893541157245636,-0.019613919779658318,0.03889843448996544,0.016048351302742958,-0.998921811580658
1676469259.7344778,8502,1676469259,733523509,world,-0.9981786012649536,-0.921415388584137,0.1289435178041458,-0.01969929225742817,0.039003562182188034,0.016032591462135315,-0.9989162683486938
1676469259.7345345,8503,1676469259,733616841,world,-0.9981715679168701,-0.9214204549789429,0.12895505130290985,-0.01930653117597103,0.03916649520397186,0.016025163233280182,-0.9989176392555237
1676469259.744266,8504,1676469259,743342611,world,-0.9981809854507446,-0.9214261174201965,0.1289375275373459,-0.019559426233172417,0.038921430706977844,0.01608605496585369,-0.9989213347434998
1676469259.7445524,8505,1676469259,743512033,world,-0.9981781840324402,-0.9214247465133667,0.1289425641298294,-0.019586455076932907,0.039010778069496155,0.016109628602862358,-0.9989169239997864
1676469259.7543364,8506,1676469259,753340264,world,-0.9981696009635925,-0.9214296340942383,0.12892533838748932,-0.01970239169895649,0.03869662433862686,0.01617092825472355,-0.9989258646965027
1676469259.754495,8507,1676469259,753514242,world,-0.9981707334518433,-0.9214200973510742,0.12893572449684143,-0.01949436217546463,0.03897424787282944,0.01600843295454979,-0.998921811580658
1676469259.7644126,8508,1676469259,763347455,world,-0.9981738328933716,-0.9214308857917786,0.128932923078537,-0.019766254350543022,0.038904834538698196,0.016206825152039528,-0.9989159107208252
1676469259.7644567,8509,1676469259,763526192,world,-0.9981718063354492,-0.9214306473731995,0.12893426418304443,-0.01949692890048027,0.03901439532637596,0.016058385372161865,-0.9989194273948669
1676469259.764472,8510,1676469259,763593246,world,-0.998175859451294,-0.9214270710945129,0.12895096838474274,-0.019330812618136406,0.03913510963320732,0.01614290103316307,-0.998916506767273
1676469259.775119,8511,1676469259,773339812,world,-0.9981775283813477,-0.9214226603507996,0.12893596291542053,-0.019492382183670998,0.03898588567972183,0.01607024483382702,-0.9989203214645386
1676469259.775165,8512,1676469259,773523326,world,-0.9981732964515686,-0.9214226007461548,0.1289314478635788,-0.019690655171871185,0.03887960687279701,0.016233481466770172,-0.9989179968833923
1676469259.7845292,8513,1676469259,783337688,world,-0.998175323009491,-0.9214251041412354,0.12893788516521454,-0.019700687378644943,0.038871198892593384,0.01614135503768921,-0.998919665813446
1676469259.7845805,8514,1676469259,783507313,world,-0.9981703162193298,-0.9214204549789429,0.12895184755325317,-0.019344065338373184,0.039040982723236084,0.016081595793366432,-0.9989209175109863
1676469259.7938366,8515,1676469259,793313841,world,-0.9981726408004761,-0.9214240312576294,0.12893402576446533,-0.01965942792594433,0.038909632712602615,0.016144579276442528,-0.998918890953064
1676469259.7941918,8516,1676469259,793488060,world,-0.9981741905212402,-0.9214181303977966,0.12893787026405334,-0.019733665511012077,0.03894798085093498,0.01604331098496914,-0.9989175200462341
1676469259.7942123,8517,1676469259,793545892,world,-0.9981760382652283,-0.9214210510253906,0.1289324164390564,-0.019581619650125504,0.03889293223619461,0.016019554808735847,-0.998923122882843
1676469259.80482,8518,1676469259,803549897,world,-0.9981755614280701,-0.9214183688163757,0.12895162403583527,-0.019418301060795784,0.039191823452711105,0.016042910516262054,-0.9989142417907715
1676469259.805215,8519,1676469259,803664469,world,-0.9981688857078552,-0.9214282035827637,0.12893511354923248,-0.019715337082743645,0.03896918520331383,0.01599842868745327,-0.998917818069458
1676469259.8139734,8520,1676469259,813352962,world,-0.9981821179389954,-0.921417772769928,0.12895329296588898,-0.01945711486041546,0.03909001126885414,0.016018826514482498,-0.9989178776741028
1676469259.8147538,8521,1676469259,813541606,world,-0.9981729388237,-0.921424388885498,0.12894101440906525,-0.019329475238919258,0.03918082267045975,0.016011955216526985,-0.9989168643951416
1676469259.8147688,8522,1676469259,813619697,world,-0.9981746673583984,-0.9214202761650085,0.12893320620059967,-0.019638439640402794,0.03892716020345688,0.016118710860610008,-0.9989190101623535
1676469259.8240108,8523,1676469259,823358634,world,-0.9981773495674133,-0.9214252829551697,0.1289379596710205,-0.019435254856944084,0.03904993087053299,0.01607777178287506,-0.9989188313484192
1676469259.8241906,8524,1676469259,823467057,world,-0.9981760382652283,-0.9214276671409607,0.1289418339729309,-0.01952950842678547,0.038991909474134445,0.01605897583067417,-0.9989196062088013
1676469259.8346765,8525,1676469259,833427212,world,-0.9981734156608582,-0.9214245080947876,0.1289381980895996,-0.019546115770936012,0.039009518921375275,0.016126325353980064,-0.9989175796508789
1676469259.83469,8526,1676469259,833842999,world,-0.9981755614280701,-0.9214136600494385,0.12894923985004425,-0.01922597736120224,0.039137572050094604,0.016013555228710175,-0.9989205002784729
1676469259.8347309,8527,1676469259,833981514,world,-0.9981803894042969,-0.9214242100715637,0.12893587350845337,-0.019551247358322144,0.03911229595541954,0.01600443199276924,-0.9989153146743774
1676469259.8442967,8528,1676469259,843429458,world,-0.998179018497467,-0.9214261174201965,0.12895014882087708,-0.019263580441474915,0.03918056562542915,0.016083883121609688,-0.9989170432090759
1676469259.844345,8529,1676469259,843590269,world,-0.9981686472892761,-0.9214221835136414,0.12893199920654297,-0.01983996480703354,0.038821443915367126,0.016072288155555725,-0.9989199638366699
1676469259.8539937,8530,1676469259,853320632,world,-0.9981710910797119,-0.9214267730712891,0.12894821166992188,-0.019544843584299088,0.03910941258072853,0.016063813120126724,-0.9989146590232849
1676469259.8541534,8531,1676469259,853484369,world,-0.9981699585914612,-0.9214251637458801,0.12893429398536682,-0.02000434324145317,0.03902890905737877,0.015981346368789673,-0.9989100098609924
1676469259.8643363,8532,1676469259,863324933,world,-0.9981662631034851,-0.9214260578155518,0.12893787026405334,-0.019702183082699776,0.03893154487013817,0.016083480790257454,-0.9989181756973267
1676469259.8643763,8533,1676469259,863481393,world,-0.9981734752655029,-0.9214248061180115,0.12892919778823853,-0.019800206646323204,0.038908276706933975,0.016066279262304306,-0.9989174008369446
1676469259.864388,8534,1676469259,863539743,world,-0.998178243637085,-0.9214193820953369,0.12894292175769806,-0.019458554685115814,0.0389723964035511,0.016049716621637344,-0.9989218711853027
1676469259.8738859,8535,1676469259,873327531,world,-0.9981712102890015,-0.9214180707931519,0.12894408404827118,-0.01950962282717228,0.03907899931073189,0.016001589596271515,-0.9989174604415894
1676469259.874391,8536,1676469259,873494435,world,-0.9981658458709717,-0.9214199781417847,0.12894441187381744,-0.019220035523176193,0.039116647094488144,0.016037996858358383,-0.9989210367202759
1676469259.8850465,8537,1676469259,883386072,world,-0.998173177242279,-0.9214257001876831,0.12894406914710999,-0.019503526389598846,0.03900938853621483,0.016071399673819542,-0.9989192485809326
1676469259.885064,8538,1676469259,883495903,world,-0.9981690645217896,-0.9214209318161011,0.12893690168857574,-0.01946607232093811,0.03897934406995773,0.01607763022184372,-0.9989210963249207
1676469259.8939312,8539,1676469259,893303857,world,-0.9981750845909119,-0.9214218854904175,0.12894700467586517,-0.01952127367258072,0.0390966534614563,0.01605020835995674,-0.9989158511161804
1676469259.8941426,8540,1676469259,893459761,world,-0.9981673955917358,-0.9214242696762085,0.12894293665885925,-0.019356509670615196,0.039017822593450546,0.01600099541246891,-0.9989229440689087
1676469259.8941987,8541,1676469259,893512556,world,-0.9981726408004761,-0.9214183688163757,0.1289551556110382,-0.019304649904370308,0.03922533988952637,0.015896355733275414,-0.9989174008369446
1676469259.9051366,8542,1676469259,903396008,world,-0.9981749057769775,-0.9214208722114563,0.12894871830940247,-0.01934893988072872,0.03906847536563873,0.01602049544453621,-0.9989207983016968
1676469259.9051569,8543,1676469259,903591170,world,-0.9981741905212402,-0.9214180707931519,0.128952294588089,-0.01937194913625717,0.039216987788677216,0.015981845557689667,-0.9989151358604431
1676469259.9137142,8544,1676469259,913304182,world,-0.998171865940094,-0.9214248061180115,0.12893010675907135,-0.01967182569205761,0.038951389491558075,0.016065549105405807,-0.9989182949066162
1676469259.9141695,8545,1676469259,913454901,world,-0.9981710314750671,-0.9214190244674683,0.1289474219083786,-0.019564339891076088,0.039044398814439774,0.01595441624522209,-0.9989185929298401
1676469259.9141917,8546,1676469259,913505900,world,-0.9981740117073059,-0.9214175939559937,0.12894394993782043,-0.019457459449768066,0.03899529203772545,0.016026632860302925,-0.9989213943481445
1676469259.9243975,8547,1676469259,923551571,world,-0.998180091381073,-0.9214203357696533,0.12894058227539062,-0.01968439295887947,0.03889579698443413,0.01612084172666073,-0.9989193677902222
1676469259.9245589,8548,1676469259,923762066,world,-0.9981767535209656,-0.9214247465133667,0.12893187999725342,-0.01988682895898819,0.03889838233590126,0.016188183799386024,-0.9989141225814819
1676469259.934032,8549,1676469259,933314988,world,-0.9981735348701477,-0.9214189052581787,0.1289399415254593,-0.019509023055434227,0.039055630564689636,0.01599688082933426,-0.9989185333251953
1676469259.9342551,8550,1676469259,933479503,world,-0.998172402381897,-0.9214240908622742,0.12894019484519958,-0.01937403343617916,0.03895093873143196,0.016051428392529488,-0.9989244341850281
1676469259.934374,8551,1676469259,933536706,world,-0.9981658458709717,-0.9214193820953369,0.12894666194915771,-0.019423844292759895,0.03907609358429909,0.016039162874221802,-0.9989186525344849
1676469259.9443607,8552,1676469259,943523230,world,-0.998175859451294,-0.9214236736297607,0.12894168496131897,-0.019564170390367508,0.03890540450811386,0.016089530661702156,-0.998921811580658
1676469259.9443955,8553,1676469259,943637949,world,-0.9981785416603088,-0.921431839466095,0.12894174456596375,-0.01943376287817955,0.03894735872745514,0.016145791858434677,-0.998921811580658
1676469259.9539213,8554,1676469259,953339665,world,-0.9981697797775269,-0.9214255213737488,0.12893784046173096,-0.019553612917661667,0.03901044279336929,0.016104888170957565,-0.9989176988601685
1676469259.954318,8555,1676469259,953524253,world,-0.9981705546379089,-0.9214313626289368,0.12893782556056976,-0.019540730863809586,0.039017364382743835,0.016017982736229897,-0.9989190697669983
1676469259.9643848,8556,1676469259,963336522,world,-0.9981729984283447,-0.9214205741882324,0.1289481222629547,-0.019356828182935715,0.03907883167266846,0.015984661877155304,-0.998920738697052
1676469259.9644341,8557,1676469259,963502500,world,-0.9981714487075806,-0.9214246273040771,0.1289328634738922,-0.019880106672644615,0.038910478353500366,0.016089962795376778,-0.9989153742790222
1676469259.9644482,8558,1676469259,963561425,world,-0.9981739521026611,-0.921423077583313,0.12894085049629211,-0.019591817632317543,0.03889145329594612,0.016055474057793617,-0.9989223480224609
1676469259.973806,8559,1676469259,973374767,world,-0.9981769919395447,-0.9214260578155518,0.12893882393836975,-0.01955348066985607,0.03890623524785042,0.016075637191534042,-0.9989222288131714
1676469259.9741275,8560,1676469259,973538875,world,-0.9981707334518433,-0.9214146733283997,0.12895138561725616,-0.019426671788096428,0.039173465222120285,0.015916192904114723,-0.9989168047904968
1676469259.9850564,8561,1676469259,983517640,world,-0.9981690645217896,-0.9214257597923279,0.12894029915332794,-0.019435852766036987,0.039085451513528824,0.01601508818566799,-0.9989185333251953
1676469259.9850767,8563,1676469259,983687488,world,-0.9981657266616821,-0.9214279651641846,0.1289358288049698,-0.019483797252178192,0.0390046127140522,0.015972042456269264,-0.9989213347434998
1676469259.9939244,8564,1676469259,993362722,world,-0.9981721043586731,-0.9214202761650085,0.1289505660533905,-0.01955830492079258,0.03906441852450371,0.016076430678367615,-0.99891597032547
1676469259.994303,8565,1676469259,993531422,world,-0.9981809258460999,-0.9214209318161011,0.12895238399505615,-0.019335884600877762,0.03911781683564186,0.0160615723580122,-0.998918354511261
1676469260.0038445,8566,1676469260,3340691,world,-0.9981780052185059,-0.9214237928390503,0.12894685566425323,-0.01936371810734272,0.03903830051422119,0.016108263283967972,-0.998920202255249
1676469260.0042017,8567,1676469260,3518206,world,-0.9981778264045715,-0.9214266538619995,0.1289394646883011,-0.019798841327428818,0.03886633366346359,0.01615248993039131,-0.9989176392555237
1676469260.0138175,8568,1676469260,13324440,world,-0.9981676936149597,-0.9214328527450562,0.128938689827919,-0.019683795049786568,0.03895669803023338,0.016123143956065178,-0.9989169239997864
1676469260.014229,8569,1676469260,13496269,world,-0.9981755614280701,-0.921423614025116,0.12893903255462646,-0.019682958722114563,0.038951318711042404,0.01605108752846718,-0.9989182949066162
1676469260.0142605,8570,1676469260,13554027,world,-0.998169481754303,-0.9214247465133667,0.1289379745721817,-0.019490672275424004,0.03903895616531372,0.015954704955220222,-0.998920202255249
1676469260.0238957,8571,1676469260,23352706,world,-0.9981702566146851,-0.9214254021644592,0.12893952429294586,-0.019504856318235397,0.03910420462489128,0.015967365354299545,-0.9989171624183655
1676469260.0243485,8572,1676469260,23538572,world,-0.9981814622879028,-0.9214291572570801,0.12892907857894897,-0.019815679639577866,0.03887905552983284,0.016132988035678864,-0.9989172220230103
1676469260.0340962,8573,1676469260,33405175,world,-0.9981688261032104,-0.921423077583313,0.12894180417060852,-0.01927371323108673,0.0392182357609272,0.015931814908981323,-0.998917818069458
1676469260.0346773,8574,1676469260,33592041,world,-0.9981690645217896,-0.9214195013046265,0.12893672287464142,-0.019481077790260315,0.03907276690006256,0.01607084646821022,-0.9989171624183655
1676469260.0346966,8575,1676469260,33652096,world,-0.9981655478477478,-0.9214208722114563,0.12893731892108917,-0.01965518109500408,0.03905460610985756,0.015987971797585487,-0.9989158511161804
1676469260.0438511,8576,1676469260,43361091,world,-0.9981728792190552,-0.9214240312576294,0.12894833087921143,-0.0192068200558424,0.0390918031334877,0.01599111221730709,-0.998923122882843
1676469260.0442135,8577,1676469260,43533606,world,-0.9981746673583984,-0.9214233756065369,0.12894606590270996,-0.019365016371011734,0.039305899292230606,0.015932278707623482,-0.998912513256073
1676469260.0541754,8578,1676469260,53314932,world,-0.9981745481491089,-0.921424388885498,0.12893882393836975,-0.01948317512869835,0.03892901912331581,0.01600867696106434,-0.9989238381385803
1676469260.054372,8579,1676469260,53476485,world,-0.998174786567688,-0.9214216470718384,0.12894517183303833,-0.01941731758415699,0.039083950221538544,0.016028674319386482,-0.9989187121391296
1676469260.0642362,8580,1676469260,63347772,world,-0.9981805682182312,-0.9214236736297607,0.12893866002559662,-0.01975589245557785,0.038967233151197433,0.01607161946594715,-0.99891597032547
1676469260.0642724,8581,1676469260,63508676,world,-0.9981734156608582,-0.9214165806770325,0.12894918024539948,-0.019380468875169754,0.03901092708110809,0.016119346022605896,-0.998920738697052
1676469260.0642877,8582,1676469260,63579897,world,-0.9981847405433655,-0.9214330911636353,0.12893833220005035,-0.019630810245871544,0.0388505794107914,0.016170727089047432,-0.998921275138855
1676469260.0739408,8583,1676469260,73314447,world,-0.9981725215911865,-0.9214265942573547,0.12894481420516968,-0.019426260143518448,0.039212748408317566,0.015962380915880203,-0.9989145398139954
1676469260.0740535,8584,1676469260,73471907,world,-0.9981789588928223,-0.9214239716529846,0.128943532705307,-0.01960957795381546,0.03905491903424263,0.016112826764583588,-0.9989146590232849
1676469260.0837932,8585,1676469260,83311992,world,-0.9981697797775269,-0.9214287996292114,0.1289413869380951,-0.01950988546013832,0.03896430879831314,0.016007108613848686,-0.9989218711853027
1676469260.0847876,8586,1676469260,83480155,world,-0.9981741309165955,-0.9214246869087219,0.12895222008228302,-0.019221318885684013,0.03926926851272583,0.016041718423366547,-0.9989150166511536
1676469260.08495,8587,1676469260,83538154,world,-0.9981727004051208,-0.921424388885498,0.12894558906555176,-0.01954423263669014,0.03912288323044777,0.015998955816030502,-0.9989151954650879
1676469260.0941377,8588,1676469260,93330647,world,-0.9981670379638672,-0.9214181303977966,0.12894907593727112,-0.01952180825173855,0.03916362673044205,0.01604836992919445,-0.9989132285118103
1676469260.0941758,8589,1676469260,93496662,world,-0.9981744885444641,-0.9214277863502502,0.1289348155260086,-0.019566694274544716,0.03901195526123047,0.016104355454444885,-0.9989174008369446
1676469260.103964,8590,1676469260,103421967,world,-0.9981809258460999,-0.9214224815368652,0.12895147502422333,-0.01947593130171299,0.03900551423430443,0.01612335443496704,-0.9989190697669983
1676469260.104864,8591,1676469260,103999695,world,-0.9981760382652283,-0.9214304089546204,0.1289350688457489,-0.01951894909143448,0.038833245635032654,0.016201002523303032,-0.9989237785339355
1676469260.1138356,8592,1676469260,113326236,world,-0.998170018196106,-0.921419084072113,0.1289353221654892,-0.01962420530617237,0.038948941975831985,0.01615859381854534,-0.9989178776741028
1676469260.1143196,8593,1676469260,113492010,world,-0.9981756806373596,-0.9214246869087219,0.12894684076309204,-0.019565729424357414,0.039078690111637115,0.015979565680027008,-0.9989168047904968
1676469260.1143563,8594,1676469260,113548787,world,-0.9981745481491089,-0.9214308261871338,0.12893256545066833,-0.019763965159654617,0.0389479324221611,0.016095515340566635,-0.9989161491394043
1676469260.1249118,8595,1676469260,123363909,world,-0.998173713684082,-0.9214208722114563,0.128940150141716,-0.019620414823293686,0.038858961313962936,0.016158320009708405,-0.9989214539527893
1676469260.1249845,8596,1676469260,123467203,world,-0.9981756210327148,-0.921417236328125,0.12893995642662048,-0.019587773829698563,0.03892296925187111,0.016025247052311897,-0.9989216923713684
1676469260.1341317,8597,1676469260,133308251,world,-0.998169481754303,-0.9214269518852234,0.12894053757190704,-0.01935267448425293,0.039061445742845535,0.016086585819721222,-0.9989199042320251
1676469260.13427,8599,1676469260,133490080,world,-0.9981721639633179,-0.9214224815368652,0.1289338320493698,-0.019706236198544502,0.038951326161623,0.016086507588624954,-0.998917281627655
1676469260.143834,8600,1676469260,143343887,world,-0.9981740117073059,-0.9214261174201965,0.12895195186138153,-0.01927000656723976,0.03923586383461952,0.0160664152354002,-0.9989149570465088
1676469260.1442354,8601,1676469260,143527754,world,-0.9981755018234253,-0.921420156955719,0.12894229590892792,-0.01981532573699951,0.038932956755161285,0.01598789170384407,-0.9989174604415894
1676469260.1538074,8602,1676469260,153311655,world,-0.998177707195282,-0.9214222431182861,0.12893371284008026,-0.01966550014913082,0.039058975875377655,0.01603900082409382,-0.9989146590232849
1676469260.1544116,8603,1676469260,153470484,world,-0.9981728792190552,-0.921428382396698,0.12893152236938477,-0.01973201148211956,0.038842491805553436,0.016060538589954376,-0.9989213943481445
1676469260.1638222,8604,1676469260,163332328,world,-0.9981790781021118,-0.9214191436767578,0.12893573939800262,-0.019882695749402046,0.03888785094022751,0.01614004746079445,-0.998915433883667
1676469260.1640964,8605,1676469260,163492121,world,-0.9981760382652283,-0.9214208722114563,0.12894728779792786,-0.01964092068374157,0.039001256227493286,0.016048649325966835,-0.9989172220230103
1676469260.164114,8606,1676469260,163546472,world,-0.9981747269630432,-0.9214235544204712,0.12895289063453674,-0.019442543387413025,0.03914360702037811,0.01602965220808983,-0.9989158511161804
1676469260.174065,8607,1676469260,173336465,world,-0.998174250125885,-0.9214172959327698,0.12893937528133392,-0.019547024741768837,0.039109744131565094,0.01598726026713848,-0.9989158511161804
1676469260.1743288,8608,1676469260,173515109,world,-0.9981682896614075,-0.9214277267456055,0.1289411038160324,-0.01961827091872692,0.03909263014793396,0.01593370921909809,-0.99891597032547
1676469260.184675,8609,1676469260,183406397,world,-0.9981706142425537,-0.9214253425598145,0.12894925475120544,-0.01914898119866848,0.039128627628088,0.016034400090575218,-0.9989220499992371
1676469260.184685,8610,1676469260,183874239,world,-0.9981722235679626,-0.9214247465133667,0.1289433091878891,-0.01957482099533081,0.03901616111397743,0.016020065173506737,-0.998918354511261
1676469260.1848366,8611,1676469260,184056253,world,-0.9981706142425537,-0.9214249849319458,0.12894152104854584,-0.0196941327303648,0.0389631949365139,0.016039622947573662,-0.9989177584648132
1676469260.1939938,8612,1676469260,193317258,world,-0.9981716275215149,-0.9214240908622742,0.1289444863796234,-0.019392412155866623,0.03905939310789108,0.016074415296316147,-0.9989193677902222
1676469260.1945012,8613,1676469260,193481773,world,-0.998167097568512,-0.9214169383049011,0.12894728779792786,-0.019420387223362923,0.03906166926026344,0.01598534546792507,-0.9989201426506042
1676469260.204025,8614,1676469260,203337746,world,-0.9981821179389954,-0.9214267134666443,0.1289374828338623,-0.01974058896303177,0.038893233984708786,0.016146674752235413,-0.9989179372787476
1676469260.2040746,8615,1676469260,203507021,world,-0.9981645345687866,-0.9214255213737488,0.12894763052463531,-0.01930931769311428,0.03920743241906166,0.01603197120130062,-0.9989158511161804
1676469260.2143743,8616,1676469260,213381234,world,-0.9981687068939209,-0.921416163444519,0.12894359230995178,-0.01952461712062359,0.03893932327628136,0.01600588671863079,-0.99892258644104
1676469260.2147322,8617,1676469260,213561286,world,-0.9981704950332642,-0.9214211106300354,0.128934845328331,-0.01955709420144558,0.03902893885970116,0.0160120390355587,-0.998918354511261
1676469260.2147582,8618,1676469260,213625803,world,-0.9981756806373596,-0.9214211106300354,0.12894536554813385,-0.01969260908663273,0.03904827684164047,0.01604723371565342,-0.998914361000061
1676469260.225408,8619,1676469260,223395538,world,-0.9981682896614075,-0.9214167594909668,0.12894441187381744,-0.01955835148692131,0.03902490437030792,0.015981366857886314,-0.9989190101623535
1676469260.2254431,8620,1676469260,223877620,world,-0.9981732368469238,-0.9214238524436951,0.12893781065940857,-0.019679585471749306,0.03900062292814255,0.015972603112459183,-0.9989177584648132
1676469260.234052,8621,1676469260,233331176,world,-0.9981728196144104,-0.9214286208152771,0.1289415806531906,-0.019449856132268906,0.03906642645597458,0.01608981378376484,-0.9989176988601685
1676469260.2343276,8623,1676469260,233473969,world,-0.9981730580329895,-0.9214279651641846,0.12894172966480255,-0.019454380497336388,0.039066608995199203,0.016124185174703598,-0.9989170432090759
1676469260.2443132,8624,1676469260,243337554,world,-0.9981750845909119,-0.9214244484901428,0.12893380224704742,-0.01961338520050049,0.038897719234228134,0.016124682500958443,-0.9989205598831177
1676469260.2443693,8625,1676469260,243514383,world,-0.9981693029403687,-0.9214152097702026,0.1289333552122116,-0.01961147040128708,0.03890690952539444,0.016001112759113312,-0.9989222884178162
1676469260.253853,8626,1676469260,253325617,world,-0.9981691241264343,-0.9214195609092712,0.12894850969314575,-0.019522858783602715,0.03905244171619415,0.015989694744348526,-0.9989184737205505
1676469260.254492,8627,1676469260,253491076,world,-0.9981659650802612,-0.9214259386062622,0.12894071638584137,-0.019375193864107132,0.03912334516644478,0.015989815816283226,-0.9989185929298401
1676469260.264032,8628,1676469260,263495436,world,-0.9981684684753418,-0.9214292168617249,0.12894192337989807,-0.019530795514583588,0.03890405595302582,0.016095798462629318,-0.9989224672317505
1676469260.2643683,8629,1676469260,263678246,world,-0.9981714487075806,-0.9214257597923279,0.12893742322921753,-0.019520822912454605,0.039013005793094635,0.016088223084807396,-0.9989185333251953
1676469260.264401,8630,1676469260,263846687,world,-0.9981677532196045,-0.9214161038398743,0.1289406418800354,-0.019480621442198753,0.03902594372630119,0.01593838632106781,-0.9989211559295654
1676469260.2740514,8631,1676469260,273336761,world,-0.9981793165206909,-0.9214224219322205,0.12894435226917267,-0.019469838589429855,0.03912770748138428,0.016147013753652573,-0.9989140033721924
1676469260.2741234,8632,1676469260,273437518,world,-0.9981735944747925,-0.921422004699707,0.1289430856704712,-0.0193449929356575,0.03912991285324097,0.01597244292497635,-0.9989192485809326
1676469260.2844923,8633,1676469260,283316510,world,-0.9981728792190552,-0.9214276671409607,0.1289365589618683,-0.01953028328716755,0.03895924240350723,0.01611393503844738,-0.9989200234413147
1676469260.284522,8634,1676469260,283414767,world,-0.998176634311676,-0.9214258790016174,0.12895281612873077,-0.019361047074198723,0.039081424474716187,0.01606692187488079,-0.9989192485809326
1676469260.2940006,8635,1676469260,293329128,world,-0.9981732368469238,-0.9214239120483398,0.1289338320493698,-0.01973181590437889,0.03891438618302345,0.016090959310531616,-0.9989181756973267
1676469260.2944758,8636,1676469260,293503161,world,-0.9981778264045715,-0.9214195609092712,0.12893997132778168,-0.019518136978149414,0.03901699557900429,0.01598956808447838,-0.9989199638366699
1676469260.2945075,8637,1676469260,293561216,world,-0.9981677532196045,-0.921417772769928,0.1289399266242981,-0.01970616541802883,0.03901464864611626,0.01602122001349926,-0.9989158511161804
1676469260.3042789,8638,1676469260,303350820,world,-0.9981723427772522,-0.9214215278625488,0.12893454730510712,-0.019666731357574463,0.03896217420697212,0.016121940687298775,-0.9989170432090759
1676469260.3043401,8639,1676469260,303530390,world,-0.9981727600097656,-0.9214257597923279,0.12892957031726837,-0.019790221005678177,0.03899681195616722,0.016094811260700226,-0.9989137649536133
1676469260.3138697,8640,1676469260,313344791,world,-0.998176097869873,-0.9214187860488892,0.12894782423973083,-0.019578583538532257,0.039017219096422195,0.01604677550494671,-0.998917818069458
1676469260.3146207,8641,1676469260,313511361,world,-0.9981728792190552,-0.9214190244674683,0.12893244624137878,-0.019883278757333755,0.03891551122069359,0.015957513824105263,-0.998917281627655
1676469260.3146734,8642,1676469260,313574045,world,-0.9981781244277954,-0.9214281439781189,0.12894046306610107,-0.019471239298582077,0.03905434533953667,0.016059590503573418,-0.9989182949066162
1676469260.3242326,8643,1676469260,323363927,world,-0.9981655478477478,-0.9214253425598145,0.12893864512443542,-0.019544407725334167,0.03895394131541252,0.01608126051723957,-0.9989204406738281
1676469260.324254,8644,1676469260,323472721,world,-0.998171329498291,-0.921421468257904,0.12894286215305328,-0.019686933606863022,0.039058439433574677,0.015930859372019768,-0.9989160299301147
1676469260.3339217,8645,1676469260,333325269,world,-0.9981706142425537,-0.9214238524436951,0.12894539535045624,-0.01938765123486519,0.03905049338936806,0.016050070524215698,-0.9989202618598938
1676469260.3342662,8646,1676469260,333494358,world,-0.9981723427772522,-0.921429455280304,0.12892542779445648,-0.01964619755744934,0.03886260837316513,0.016064999625086784,-0.9989223480224609
1676469260.3342836,8647,1676469260,333553060,world,-0.9981705546379089,-0.9214246273040771,0.1289432793855667,-0.01946043036878109,0.03906519338488579,0.016096288338303566,-0.9989174604415894
1676469260.3438914,8648,1676469260,343479902,world,-0.9981724619865417,-0.9214229583740234,0.12893319129943848,-0.019567405804991722,0.038968831300735474,0.01605145074427128,-0.9989198446273804
1676469260.3450356,8649,1676469260,343912282,world,-0.9981735348701477,-0.9214267134666443,0.12894096970558167,-0.019779201596975327,0.03896497189998627,0.016053419560194016,-0.9989158511161804
1676469260.353828,8650,1676469260,353314506,world,-0.9981749653816223,-0.921431303024292,0.12894412875175476,-0.019586557522416115,0.03903242573142052,0.01606096886098385,-0.9989169239997864
1676469260.354089,8651,1676469260,353478947,world,-0.9981745481491089,-0.9214196801185608,0.1289326399564743,-0.019459662958979607,0.03904125466942787,0.015979144722223282,-0.9989202618598938
1676469260.363868,8652,1676469260,363352068,world,-0.9981768727302551,-0.9214245676994324,0.12895219027996063,-0.019328046590089798,0.039085328578948975,0.01605162024497986,-0.9989199638366699
1676469260.3643835,8653,1676469260,363528361,world,-0.9981696605682373,-0.9214268326759338,0.12893852591514587,-0.01941813714802265,0.038982026278972626,0.016055872663855553,-0.9989222288131714
1676469260.3643994,8654,1676469260,363589933,world,-0.9981706738471985,-0.9214274883270264,0.1289345771074295,-0.019492022693157196,0.03890529274940491,0.016177453100681305,-0.9989218711853027
1676469260.374007,8655,1676469260,373326354,world,-0.9981693625450134,-0.9214109778404236,0.1289488673210144,-0.01933024823665619,0.039141327142715454,0.015982581302523613,-0.9989188313484192
1676469260.3743882,8656,1676469260,373491906,world,-0.9981680512428284,-0.9214320182800293,0.12892718613147736,-0.019578343257308006,0.03889874368906021,0.016095200553536415,-0.9989216923713684
1676469260.3844948,8657,1676469260,383383101,world,-0.998171865940094,-0.9214223623275757,0.12894253432750702,-0.019284764304757118,0.03910787031054497,0.01608913019299507,-0.9989193081855774
1676469260.3845105,8658,1676469260,383549597,world,-0.9981784224510193,-0.9214282631874084,0.12892583012580872,-0.019947923719882965,0.038765475153923035,0.016131412237882614,-0.9989190101623535
1676469260.3938062,8659,1676469260,393316572,world,-0.9981734752655029,-0.9214134812355042,0.12895256280899048,-0.019541023299098015,0.039115116000175476,0.01595136895775795,-0.9989163279533386
1676469260.3942847,8660,1676469260,393481662,world,-0.9981766939163208,-0.9214271903038025,0.1289260983467102,-0.020061789080500603,0.03877681866288185,0.01611342467367649,-0.998916506767273
1676469260.394347,8661,1676469260,393534364,world,-0.9981698393821716,-0.9214245080947876,0.12894393503665924,-0.01961551606655121,0.03901045024394989,0.0160377100110054,-0.9989175796508789
1676469260.4038236,8662,1676469260,403326117,world,-0.9981731176376343,-0.9214314818382263,0.12894082069396973,-0.01943075656890869,0.03917757794260979,0.0160391665995121,-0.9989145398139954
1676469260.404102,8663,1676469260,403486724,world,-0.9981662631034851,-0.9214180707931519,0.1289399266242981,-0.019230322912335396,0.0390859879553318,0.016023678705096245,-0.9989222884178162
1676469260.413826,8664,1676469260,413318439,world,-0.998168408870697,-0.9214315414428711,0.12892471253871918,-0.01989627443253994,0.03885333985090256,0.016143977642059326,-0.9989163875579834
1676469260.414194,8665,1676469260,413482565,world,-0.9981728792190552,-0.9214202761650085,0.12895028293132782,-0.01938379742205143,0.03914833441376686,0.015919405966997147,-0.9989185929298401
1676469260.4143171,8666,1676469260,413540953,world,-0.998177707195282,-0.9214265942573547,0.12893612682819366,-0.019654199481010437,0.038984689861536026,0.016007091850042343,-0.9989182353019714
1676469260.4240496,8667,1676469260,423473536,world,-0.9981597661972046,-0.9214276671409607,0.12893183529376984,-0.019957343116402626,0.03891430050134659,0.016085373237729073,-0.9989137649536133
1676469260.4243896,8668,1676469260,423670772,world,-0.9981757998466492,-0.9214304089546204,0.1289372444152832,-0.01965200901031494,0.03893832117319107,0.016141580417752266,-0.9989179372787476
1676469260.4339633,8669,1676469260,433345620,world,-0.9981694221496582,-0.9214221835136414,0.12893716990947723,-0.019795678555965424,0.038927111774683,0.01606905274093151,-0.998916745185852
1676469260.4343374,8670,1676469260,433869516,world,-0.9981728792190552,-0.9214165806770325,0.12894700467586517,-0.019460035488009453,0.03897642716765404,0.016019750386476517,-0.9989221692085266
1676469260.4345725,8671,1676469260,434016865,world,-0.9981765747070312,-0.9214211702346802,0.12894099950790405,-0.019687088206410408,0.03899325430393219,0.015965847298502922,-0.9989179372787476
1676469260.4441433,8672,1676469260,443661491,world,-0.9981701374053955,-0.9214268922805786,0.1289467066526413,-0.019416064023971558,0.03913554176688194,0.016129638999700546,-0.9989151358604431
1676469260.4445763,8673,1676469260,443825376,world,-0.998173713684082,-0.9214234948158264,0.12893107533454895,-0.019752439111471176,0.03886741027235985,0.016012344509363174,-0.9989207983016968
1676469260.4544687,8674,1676469260,453324709,world,-0.9981586337089539,-0.9214183688163757,0.1289488971233368,-0.019369125366210938,0.03903745487332344,0.015972083434462547,-0.9989223480224609
1676469260.454511,8675,1676469260,453501761,world,-0.9981753826141357,-0.9214295148849487,0.12893858551979065,-0.019622396677732468,0.038897108286619186,0.01611393503844738,-0.9989205598831177
1676469260.4639912,8676,1676469260,463341216,world,-0.9981738924980164,-0.9214234352111816,0.1289370357990265,-0.019650911912322044,0.03901466354727745,0.01615530624985695,-0.9989148378372192
