Time,header.seq,header.stamp.secs,header.stamp.nsecs,header.frame_id,twist.linear.x,twist.linear.y,twist.linear.z,twist.angular.x,twist.angular.y,twist.angular.z
1676104289.055649,1,1676104289,50369501,odom,-1.175532877445221,0.9562480449676514,1.1374733696848154,0.0,0.0,0.0
1676104289.0598419,2,1676104289,57861566,odom,-1.1755315065383911,0.9562358856201172,1.1374849556297064,0.0,0.0,0.0
1676104289.070942,3,1676104289,68132400,odom,-1.1755216717720032,0.956220269203186,1.137487067449093,0.0,0.0,0.0
1676104289.082091,4,1676104289,78985452,odom,-1.175522804260254,0.9562358856201172,1.1374822238266467,0.0,0.0,0.0
1676104289.0950375,5,1676104289,92441797,odom,-1.175575613975525,0.9563285112380981,1.1374722265899182,0.0,0.0,0.0
1676104289.101789,6,1676104289,100357055,odom,-1.1755613088607788,0.9563205242156982,1.1374635661929846,0.0,0.0,0.0
1676104289.1100879,7,1676104289,107943773,odom,-1.1755287647247314,0.9562414884567261,1.1374839869052173,0.0,0.0,0.0
1676104289.118023,8,1676104289,116315126,odom,-1.1755269169807434,0.9562344551086426,1.1374738540470601,0.0,0.0,0.0
1676104289.1285858,9,1676104289,126901865,odom,-1.1755290627479553,0.9562416076660156,1.1374914848327637,0.0,0.0,0.0
1676104289.1382463,10,1676104289,136672496,odom,-1.1755335927009583,0.9562417268753052,1.1374792982786894,0.0,0.0,0.0
1676104289.1492143,11,1676104289,147570610,odom,-1.1755395531654358,0.9562538862228394,1.1374824175715446,0.0,0.0,0.0
1676104289.1584544,12,1676104289,157357215,odom,-1.1755183935165405,0.9562302827835083,1.1375007652133704,0.0,0.0,0.0
1676104289.1692588,13,1676104289,167461633,odom,-1.175527036190033,0.9562448263168335,1.1374813326001167,0.0,0.0,0.0
1676104289.1792045,14,1676104289,177424669,odom,-1.175519347190857,0.9562481641769409,1.1374842000246048,0.0,0.0,0.0
1676104289.190166,15,1676104289,187765598,odom,-1.1755352020263672,0.9562603235244751,1.1374771670848132,0.0,0.0,0.0
1676104289.1980228,16,1676104289,196376323,odom,-1.175537645816803,0.9562667608261108,1.1374889080256223,0.0,0.0,0.0
1676104289.2122073,17,1676104289,210102796,odom,-1.1755294799804688,0.956261157989502,1.1374856918603182,0.0,0.0,0.0
1676104289.2185643,18,1676104289,216471433,odom,-1.1755294799804688,0.956261157989502,1.1374856918603182,0.0,0.0,0.0
1676104289.230277,19,1676104289,228862524,odom,-1.175548493862152,0.9562579393386841,1.1374786782950164,0.0,0.0,0.0
1676104289.2382514,20,1676104289,236619949,odom,-1.1755362153053284,0.9562479257583618,1.1374910779684784,0.0,0.0,0.0
1676104289.2476306,21,1676104289,246463298,odom,-1.1755378246307373,0.9562455415725708,1.1374849168807268,0.0,0.0,0.0
1676104289.2583222,22,1676104289,256801605,odom,-1.175543189048767,0.9562612771987915,1.137483463793993,0.0,0.0,0.0
1676104289.2703884,23,1676104289,268628835,odom,-1.17551189661026,0.956231951713562,1.1374794920235873,0.0,0.0,0.0
1676104289.2783308,24,1676104289,276918411,odom,-1.175537884235382,0.9562437534332275,1.1374820107072592,0.0,0.0,0.0
1676104289.2906044,25,1676104289,288800477,odom,-1.1755357384681702,0.9562696218490601,1.1374844325184823,0.0,0.0,0.0
1676104289.2983522,26,1676104289,296912908,odom,-1.1755232214927673,0.956229567527771,1.1374877455562353,0.0,0.0,0.0
1676104289.30917,27,1676104289,306410551,odom,-1.1755421161651611,0.9562538862228394,1.1374888305276634,0.0,0.0,0.0
1676104289.3178499,28,1676104289,316364526,odom,-1.1755245923995972,0.9562216997146606,1.1374905354827642,0.0,0.0,0.0
1676104289.3309133,29,1676104289,329264640,odom,-1.1755245923995972,0.9562216997146606,1.1374905354827642,0.0,0.0,0.0
1676104289.340118,30,1676104289,336870431,odom,-1.1755133271217346,0.9562282562255859,1.1374774577021598,0.0,0.0,0.0
1676104289.3501265,31,1676104289,347412586,odom,-1.1755306720733643,0.9562573432922363,1.1374778451919556,0.0,0.0,0.0
1676104289.3579345,32,1676104289,356339216,odom,-1.1755366921424866,0.9562451839447021,1.1374798988878727,0.0,0.0,0.0
1676104289.3684907,33,1676104289,366337060,odom,-1.1755366921424866,0.9562451839447021,1.1374798988878727,0.0,0.0,0.0
1676104289.3804693,34,1676104289,376856565,odom,-1.1755366921424866,0.9562451839447021,1.1374798988878727,0.0,0.0,0.0
1676104289.3968842,35,1676104289,390839099,odom,-1.1755451560020447,0.9562675952911377,1.1374737959235905,0.0,0.0,0.0
1676104289.4021204,36,1676104289,400336742,odom,-1.1755211353302002,0.9562337398529053,1.1374842193990946,0.0,0.0,0.0
1676104289.4122362,37,1676104289,408217668,odom,-1.1755396723747253,0.9562444686889648,1.1374850525021554,0.0,0.0,0.0
1676104289.4206333,38,1676104289,418195724,odom,-1.1755276322364807,0.9562535285949707,1.1374920079439879,0.0,0.0,0.0
1676104289.428532,39,1676104289,427255392,odom,-1.1755285859107971,0.9562402963638306,1.1374855756133795,0.0,0.0,0.0
1676104289.4373858,40,1676104289,436312675,odom,-1.1755297780036926,0.9562500715255737,1.1374873580664395,0.0,0.0,0.0
1676104289.450302,41,1676104289,448288917,odom,-1.1755571365356445,0.9563132524490356,1.137470366638899,0.0,0.0,0.0
1676104289.4614959,42,1676104289,457183122,odom,-1.1755571365356445,0.9563132524490356,1.137470366638899,0.0,0.0,0.0
1676104289.4693842,43,1676104289,467103958,odom,-1.1755287051200867,0.9562277793884277,1.137486776831746,0.0,0.0,0.0
1676104289.479501,44,1676104289,476511478,odom,-1.1755374670028687,0.9562783241271973,1.1374771283358336,0.0,0.0,0.0
1676104289.4899516,45,1676104289,487539052,odom,-1.1755304336547852,0.9562457799911499,1.1374768570929765,0.0,0.0,0.0
1676104289.4993033,46,1676104289,496793031,odom,-1.1755585670471191,0.9562901258468628,1.1374659105062486,0.0,0.0,0.0
1676104289.511639,47,1676104289,507644653,odom,-1.175534725189209,0.9562608003616333,1.1374854399919512,0.0,0.0,0.0
1676104289.5198123,48,1676104289,516336679,odom,-1.1755465269088745,0.9562532901763916,1.1374783295542001,0.0,0.0,0.0
1676104289.5290473,49,1676104289,527417421,odom,-1.1755558252334595,0.956251859664917,1.137489934873581,0.0,0.0,0.0
1676104289.537621,50,1676104289,536438941,odom,-1.1755213141441345,0.9562267065048218,1.1374771089613438,0.0,0.0,0.0
1676104289.5490277,51,1676104289,547439813,odom,-1.175519585609436,0.9562411308288574,1.1374836962878705,0.0,0.0,0.0
1676104289.5577617,52,1676104289,556355476,odom,-1.1755301356315613,0.9562423229217529,1.1374744546562434,0.0,0.0,0.0
1676104289.5712073,53,1676104289,567830085,odom,-1.1755272150039673,0.9562456607818604,1.1374836187899113,0.0,0.0,0.0
1676104289.5788915,54,1676104289,577246189,odom,-1.1755523085594177,0.956275224685669,1.1374890823960304,0.0,0.0,0.0
1676104289.5895824,55,1676104289,587276220,odom,-1.1755850315093994,0.9563314914703369,1.137467847955227,0.0,0.0,0.0
1676104289.597784,56,1676104289,596347570,odom,-1.1755132675170898,0.9562478065490723,1.1374756752490998,0.0,0.0,0.0
1676104289.6112282,57,1676104289,609663963,odom,-1.1755682229995728,0.9562664031982422,1.1374888305276634,0.0,0.0,0.0
1676104289.6389458,58,1676104289,630803823,odom,-1.1755682229995728,0.9562664031982422,1.1374888305276634,0.0,0.0,0.0
1676104289.6511362,59,1676104289,647743225,odom,-1.1755337119102478,0.9562277793884277,1.1374769733399153,0.0,0.0,0.0
1676104289.6646981,60,1676104289,659204959,odom,-1.175550639629364,0.9562262296676636,1.1374775545746088,0.0,0.0,0.0
1676104289.6759908,61,1676104289,669636964,odom,-1.1755269169807434,0.9562375545501709,1.1374813907235861,0.0,0.0,0.0
1676104289.680483,62,1676104289,679008245,odom,-1.1755404472351074,0.9562556743621826,1.1374949916154147,0.0,0.0,0.0
1676104289.6898699,63,1676104289,688002586,odom,-1.175549030303955,0.9562510251998901,1.1374792982786894,0.0,0.0,0.0
1676104289.6992052,64,1676104289,697677373,odom,-1.1755274534225464,0.9562472105026245,1.1374891792684794,0.0,0.0,0.0
1676104289.7108748,65,1676104289,708407878,odom,-1.175531268119812,0.9562370777130127,1.1374816425919532,0.0,0.0,0.0
1676104289.7195113,66,1676104289,717564105,odom,-1.175542950630188,0.9562418460845947,1.1374930154174567,0.0,0.0,0.0
1676104289.7290208,67,1676104289,727622509,odom,-1.1755486726760864,0.9562860727310181,1.137476992714405,0.0,0.0,0.0
1676104289.7452796,68,1676104289,739042758,odom,-1.1755443215370178,0.9562497138977051,1.1374785039246083,0.0,0.0,0.0
1676104289.7509556,69,1676104289,749326944,odom,-1.1755325198173523,0.9562305212020874,1.1374796470195057,0.0,0.0,0.0
1676104289.7595623,70,1676104289,757823705,odom,-1.175504982471466,0.9562187194824219,1.1374803638756275,0.0,0.0,0.0
1676104289.7700987,71,1676104289,768564462,odom,-1.1755563616752625,0.9562910795211792,1.1374762952327728,0.0,0.0,0.0
1676104289.7789826,72,1676104289,777753114,odom,-1.1755039691925049,0.9561997652053833,1.1374929185450078,0.0,0.0,0.0
1676104289.790464,73,1676104289,787821054,odom,-1.1755039691925049,0.9561997652053833,1.1374929185450078,0.0,0.0,0.0
1676104289.8028796,74,1676104289,798909425,odom,-1.1755035519599915,0.9562109708786011,1.1374892761409283,0.0,0.0,0.0
1676104289.8172057,75,1676104289,808343887,odom,-1.1755035519599915,0.9562109708786011,1.1374892761409283,0.0,0.0,0.0
1676104289.8252597,76,1676104289,821140050,odom,-1.1755426526069641,0.9562658071517944,1.137486621835828,0.0,0.0,0.0
1676104289.8330157,77,1676104289,829611778,odom,-1.1755276322364807,0.9562426805496216,1.1374712384909391,0.0,0.0,0.0
1676104289.8391893,78,1676104289,837749242,odom,-1.1755867004394531,0.9563339948654175,1.1374714903593064,0.0,0.0,0.0
1676104289.8486266,79,1676104289,847589492,odom,-1.175523817539215,0.9562321901321411,1.1374820882052183,0.0,0.0,0.0
1676104289.860259,80,1676104289,857694149,odom,-1.1755454540252686,0.9562301635742188,1.1374831344276668,0.0,0.0,0.0
1676104289.869211,81,1676104289,867632865,odom,-1.1755396723747253,0.9562747478485107,1.1374722459644078,0.0,0.0,0.0
1676104289.8792052,82,1676104289,877609014,odom,-1.1755332350730896,0.9562357664108276,1.1374800926327704,0.0,0.0,0.0
1676104289.8904905,83,1676104289,889019250,odom,-1.1755260229110718,0.9562227725982666,1.1374767214715482,0.0,0.0,0.0
1676104289.8999922,84,1676104289,897707939,odom,-1.1755382418632507,0.956251859664917,1.1374813907235861,0.0,0.0,0.0
1676104289.910857,85,1676104289,909507274,odom,-1.175524890422821,0.9562426805496216,1.1374748033970594,0.0,0.0,0.0
1676104289.9196649,86,1676104289,917753696,odom,-1.1755157113075256,0.956233024597168,1.1374712772399187,0.0,0.0,0.0
1676104289.9293423,87,1676104289,927617549,odom,-1.175565242767334,0.9563125371932983,1.1374647286623718,0.0,0.0,0.0
1676104289.9396443,88,1676104289,937653779,odom,-1.175537645816803,0.9562439918518066,1.1374891405194998,0.0,0.0,0.0
1676104289.951725,89,1676104289,949075698,odom,-1.1755369305610657,0.9562546014785767,1.1374790851593017,0.0,0.0,0.0
1676104289.9596193,90,1676104289,958361387,odom,-1.175536572933197,0.9562454223632812,1.1374823594480754,0.0,0.0,0.0
1676104289.969671,91,1676104289,967800140,odom,-1.1755774021148682,0.956303596496582,1.1374669179797172,0.0,0.0,0.0
1676104289.9800828,92,1676104289,978262424,odom,-1.1755434274673462,0.9562461376190186,1.1374854206174612,0.0,0.0,0.0
1676104289.9888663,93,1676104289,987601995,odom,-1.1755156517028809,0.956230640411377,1.137485188123584,0.0,0.0,0.0
1676104289.9992275,94,1676104289,997605085,odom,-1.175533950328827,0.9562332630157471,1.1374827081888914,0.0,0.0,0.0
1676104290.0090716,95,1676104290,7929563,odom,-1.1755306124687195,0.9562386274337769,1.1374772639572621,0.0,0.0,0.0
1676104290.0197968,96,1676104290,17638444,odom,-1.1755349040031433,0.9562399387359619,1.1374853431195022,0.0,0.0,0.0
1676104290.0294907,97,1676104290,27596473,odom,-1.1755297183990479,0.9562269449234009,1.1374869318276644,0.0,0.0,0.0
1676104290.0389194,98,1676104290,37651062,odom,-1.1755181550979614,0.9562119245529175,1.1374830375552178,0.0,0.0,0.0
1676104290.0486226,99,1676104290,47554969,odom,-1.175538718700409,0.9562267065048218,1.1374767602205278,0.0,0.0,0.0
1676104290.059344,100,1676104290,57727575,odom,-1.175552785396576,0.9562892913818359,1.137463527444005,0.0,0.0,0.0
1676104290.0712028,101,1676104290,68882942,odom,-1.1755240559577942,0.9562443494796753,1.1374795695215465,0.0,0.0,0.0
1676104290.0791907,102,1676104290,77554464,odom,-1.175527274608612,0.956228494644165,1.1374920466929674,0.0,0.0,0.0
1676104290.0889528,103,1676104290,87632417,odom,-1.1755201816558838,0.9562276601791382,1.1374876293092966,0.0,0.0,0.0
1676104290.0992303,104,1676104290,97600460,odom,-1.175547480583191,0.9562485218048096,1.1374743577837945,0.0,0.0,0.0
1676104290.1115959,105,1676104290,107877016,odom,-1.1755483746528625,0.9562597274780273,1.1374854981154203,0.0,0.0,0.0
1676104290.119705,106,1676104290,117946863,odom,-1.1755315661430359,0.9562462568283081,1.1374898961246016,0.0,0.0,0.0
1676104290.1288085,107,1676104290,127518892,odom,-1.1755149960517883,0.9562249183654785,1.1374781939327718,0.0,0.0,0.0
1676104290.1388934,108,1676104290,137671709,odom,-1.1755687594413757,0.9562935829162598,1.137470366638899,0.0,0.0,0.0
1676104290.1493773,109,1676104290,147757053,odom,-1.175515592098236,0.9562268257141113,1.1374828631848097,0.0,0.0,0.0
1676104290.1601763,110,1676104290,157803773,odom,-1.175525724887848,0.9562357664108276,1.1374824950695037,0.0,0.0,0.0
1676104290.168718,111,1676104290,167571783,odom,-1.175523817539215,0.9562283754348755,1.1374705603837967,0.0,0.0,0.0
1676104290.179604,112,1676104290,177846431,odom,-1.1755515933036804,0.9562565088272095,1.137474222162366,0.0,0.0,0.0
1676104290.1887276,113,1676104290,187600374,odom,-1.1755674481391907,0.9563266038894653,1.137460563147068,0.0,0.0,0.0
1676104290.1990952,114,1676104290,197564601,odom,-1.1755514740943909,0.9562629461288452,1.1374845100164415,0.0,0.0,0.0
1676104290.211587,115,1676104290,208971023,odom,-1.1755312085151672,0.9562557935714722,1.13748195258379,0.0,0.0,0.0
1676104290.2198703,116,1676104290,217758893,odom,-1.175518274307251,0.9562242031097412,1.13748104198277,0.0,0.0,0.0
1676104290.2289276,117,1676104290,227775335,odom,-1.175538957118988,0.956235408782959,1.1374687198072673,0.0,0.0,0.0
1676104290.2398267,118,1676104290,237880229,odom,-1.1755390167236328,0.9562451839447021,1.1374749002695084,0.0,0.0,0.0
1676104290.250183,119,1676104290,248593330,odom,-1.1755096912384033,0.9562145471572876,1.1374839869052173,0.0,0.0,0.0
1676104290.2587583,120,1676104290,257565736,odom,-1.1755862832069397,0.9563122987747192,1.137469281667471,0.0,0.0,0.0
1676104290.2719371,121,1676104290,268747568,odom,-1.1755473017692566,0.9562488794326782,1.1374773414552213,0.0,0.0,0.0
1676104290.280299,122,1676104290,278794765,odom,-1.1755303144454956,0.956241250038147,1.1374817200899123,0.0,0.0,0.0
1676104290.2902021,123,1676104290,288923501,odom,-1.1755450963974,0.9562489986419678,1.1374808288633824,0.0,0.0,0.0
1676104290.2996948,124,1676104290,297603130,odom,-1.1755495071411133,0.9562492370605469,1.1374854787409305,0.0,0.0,0.0
1676104290.3115115,125,1676104290,309413433,odom,-1.175532579421997,0.9562383890151978,1.1374864474654198,0.0,0.0,0.0
1676104290.3192918,126,1676104290,317532777,odom,-1.1755203604698181,0.9562362432479858,1.1374874355643987,0.0,0.0,0.0
1676104290.328954,127,1676104290,327696323,odom,-1.1755351424217224,0.956234335899353,1.1374882880419492,0.0,0.0,0.0
1676104290.338936,128,1676104290,337830543,odom,-1.175519585609436,0.9562352895736694,1.1374841419011354,0.0,0.0,0.0
1676104290.3498275,129,1676104290,348160505,odom,-1.1755287647247314,0.9562305212020874,1.137480770739913,0.0,0.0,0.0
1676104290.3602672,130,1676104290,358200073,odom,-1.1755526065826416,0.9562673568725586,1.1374763921052218,0.0,0.0,0.0
1676104290.3712301,131,1676104290,368876457,odom,-1.1755439043045044,0.9562573432922363,1.137480421999097,0.0,0.0,0.0
1676104290.378866,132,1676104290,377572059,odom,-1.175543189048767,0.9562556743621826,1.137476740846038,0.0,0.0,0.0
1676104290.3899605,133,1676104290,388663768,odom,-1.1755452156066895,0.9562675952911377,1.1374782133072616,0.0,0.0,0.0
1676104290.3991168,134,1676104290,397618293,odom,-1.1755342483520508,0.9562505483627319,1.1374761983603239,0.0,0.0,0.0
1676104290.410699,135,1676104290,407668590,odom,-1.1755527257919312,0.9563082456588745,1.1374566107511521,0.0,0.0,0.0
1676104290.4196808,136,1676104290,417988300,odom,-1.1755442023277283,0.9562321901321411,1.1374782908052208,0.0,0.0,0.0
1676104290.4287925,137,1676104290,427583932,odom,-1.175544798374176,0.9562475681304932,1.137477360829711,0.0,0.0,0.0
1676104290.4391618,138,1676104290,437622308,odom,-1.1755492687225342,0.9562759399414062,1.1374813519746065,0.0,0.0,0.0
1676104290.4539354,139,1676104290,451884031,odom,-1.1755512356758118,0.9562555551528931,1.1374856724858284,0.0,0.0,0.0
1676104290.4605415,140,1676104290,458537101,odom,-1.175528347492218,0.9562441110610962,1.1374712966144087,0.0,0.0,0.0
1676104290.4706428,141,1676104290,468850135,odom,-1.1755393743515015,0.9562397003173828,1.1374789882868528,0.0,0.0,0.0
1676104290.4787316,142,1676104290,477617502,odom,-1.175528883934021,0.9562457799911499,1.1374947203725576,0.0,0.0,0.0
1676104290.4889822,143,1676104290,487671852,odom,-1.175520420074463,0.9562180042266846,1.1374899154990912,0.0,0.0,0.0
1676104290.4991205,144,1676104290,497641563,odom,-1.1755250692367554,0.9562405347824097,1.1374772252082825,0.0,0.0,0.0
1676104290.5115535,145,1676104290,509594917,odom,-1.1755362749099731,0.9562335014343262,1.1374756171256304,0.0,0.0,0.0
1676104290.5191479,146,1676104290,517634153,odom,-1.1755412220954895,0.9562628269195557,1.1374866605848073,0.0,0.0,0.0
1676104290.5286717,147,1676104290,527586698,odom,-1.1755505204200745,0.9562684297561646,1.1374753265082835,0.0,0.0,0.0
1676104290.5396638,148,1676104290,537790536,odom,-1.1755430102348328,0.9562612771987915,1.1374916785776616,0.0,0.0,0.0
1676104290.5499644,149,1676104290,548651695,odom,-1.1755268573760986,0.9562456607818604,1.137481681340933,0.0,0.0,0.0
1676104290.5595365,150,1676104290,558037996,odom,-1.1755489706993103,0.9562482833862305,1.1374789882868528,0.0,0.0,0.0
1676104290.5696034,151,1676104290,567676067,odom,-1.175528883934021,0.9562448263168335,1.137485091251135,0.0,0.0,0.0
1676104290.5801394,152,1676104290,577700614,odom,-1.1755362153053284,0.9562375545501709,1.1374775158256294,0.0,0.0,0.0
1676104290.5913496,153,1676104290,590032815,odom,-1.1755279302597046,0.9562324285507202,1.1374891405194998,0.0,0.0,0.0
1676104290.599471,154,1676104290,597690105,odom,-1.1755447387695312,0.9562586545944214,1.1374808094888926,0.0,0.0,0.0
1676104290.6107967,155,1676104290,608786344,odom,-1.1755447387695312,0.9562586545944214,1.1374808094888926,0.0,0.0,0.0
1676104290.6207023,156,1676104290,619060516,odom,-1.1755378246307373,0.9562522172927856,1.1374713741123677,0.0,0.0,0.0
1676104290.628788,157,1676104290,627547025,odom,-1.1755319833755493,0.9562344551086426,1.13748642809093,0.0,0.0,0.0
1676104290.638665,158,1676104290,637589931,odom,-1.1755156517028809,0.9562139511108398,1.1374724590837957,0.0,0.0,0.0
1676104290.6504047,159,1676104290,649199247,odom,-1.1755273342132568,0.95623779296875,1.1374819719582796,0.0,0.0,0.0
1676104290.6590068,160,1676104290,657856464,odom,-1.1755375862121582,0.9562209844589233,1.1374751715123654,0.0,0.0,0.0
1676104290.66915,161,1676104290,667769908,odom,-1.175513744354248,0.9562325477600098,1.1374866605848073,0.0,0.0,0.0
1676104290.68024,162,1676104290,678466796,odom,-1.1755824089050293,0.956314206123352,1.137466588613391,0.0,0.0,0.0
1676104290.689566,163,1676104290,687671899,odom,-1.1755681037902832,0.9562951326370239,1.1374647286623718,0.0,0.0,0.0
1676104290.6995847,164,1676104290,697675228,odom,-1.1755451560020447,0.9562492370605469,1.1374761596113445,0.0,0.0,0.0
1676104290.710971,165,1676104290,707746028,odom,-1.1755451560020447,0.9562492370605469,1.1374761596113445,0.0,0.0,0.0
1676104290.7215974,166,1676104290,717767238,odom,-1.1755451560020447,0.9562492370605469,1.1374761596113445,0.0,0.0,0.0
1676104290.7345924,167,1676104290,730002880,odom,-1.1755401492118835,0.9562360048294067,1.1374862343460321,0.0,0.0,0.0
1676104290.7388349,168,1676104290,737578392,odom,-1.1755501627922058,0.9562605619430542,1.1374873193174602,0.0,0.0,0.0
1676104290.7496572,169,1676104290,748157739,odom,-1.1755239963531494,0.9562244415283203,1.137479879513383,0.0,0.0,0.0
1676104290.7595873,170,1676104290,757599830,odom,-1.1755435466766357,0.9562532901763916,1.1374879199266434,0.0,0.0,0.0
1676104290.768931,171,1676104290,767808675,odom,-1.175520420074463,0.9562296867370605,1.1374814294725657,0.0,0.0,0.0
1676104290.7786577,172,1676104290,777537822,odom,-1.1755351424217224,0.9562340974807739,1.137478426426649,0.0,0.0,0.0
1676104290.7904608,173,1676104290,788752794,odom,-1.1755256056785583,0.9562290906906128,1.1374807126164437,0.0,0.0,0.0
1676104290.7994442,174,1676104290,797556877,odom,-1.175527036190033,0.9562480449676514,1.1374840450286865,0.0,0.0,0.0
1676104290.8109832,175,1676104290,807786464,odom,-1.1755816340446472,0.9563215970993042,1.13746488365829,0.0,0.0,0.0
1676104290.8196151,176,1676104290,817778348,odom,-1.1755743026733398,0.9563041925430298,1.1374626749664547,0.0,0.0,0.0
1676104290.8320234,177,1676104290,828917503,odom,-1.1755270957946777,0.9562374353408813,1.1374814488470555,0.0,0.0,0.0
1676104290.839096,178,1676104290,837643146,odom,-1.1755219101905823,0.9562214612960815,1.1374819719582796,0.0,0.0,0.0
1676104290.8511453,179,1676104290,849077224,odom,-1.1755276918411255,0.956224799156189,1.137486621835828,0.0,0.0,0.0
1676104290.8590684,180,1676104290,857619285,odom,-1.1755427122116089,0.9562606811523438,1.1374728853225708,0.0,0.0,0.0
1676104290.8689086,181,1676104290,867769718,odom,-1.1755532026290894,0.9562524557113647,1.137483308798075,0.0,0.0,0.0
1676104290.879537,182,1676104290,877984523,odom,-1.1755496859550476,0.9562746286392212,1.1374836962878705,0.0,0.0,0.0
1676104290.8896806,183,1676104290,888159990,odom,-1.1755546927452087,0.9562492370605469,1.1374835025429726,0.0,0.0,0.0
1676104290.8989677,184,1676104290,897656917,odom,-1.1755400896072388,0.9562420845031738,1.137491736701131,0.0,0.0,0.0
1676104290.914481,185,1676104290,910576581,odom,-1.1755343079566956,0.9562363624572754,1.1374817975878715,0.0,0.0,0.0
1676104290.9196823,186,1676104290,917768478,odom,-1.1755372285842896,0.9562538862228394,1.1374846843868496,0.0,0.0,0.0
1676104290.9292328,187,1676104290,927699804,odom,-1.1755192279815674,0.9562411308288574,1.137479588896036,0.0,0.0,0.0
1676104290.9390748,188,1676104290,937569856,odom,-1.1755315661430359,0.9562407732009888,1.1374787751674653,0.0,0.0,0.0
1676104290.9494944,189,1676104290,947638988,odom,-1.1755315661430359,0.9562407732009888,1.1374787751674653,0.0,0.0,0.0
1676104290.9619281,190,1676104290,958990335,odom,-1.1755430102348328,0.956252932548523,1.1374722265899182,0.0,0.0,0.0
1676104290.9702477,191,1676104290,968943357,odom,-1.1756080985069275,0.9563237428665161,1.137464612415433,0.0,0.0,0.0
1676104290.9790478,192,1676104290,977519273,odom,-1.1755411624908447,0.9562667608261108,1.1374826888144016,0.0,0.0,0.0
1676104290.9892457,193,1676104290,987875938,odom,-1.1755586862564087,0.956256628036499,1.1374830569297076,0.0,0.0,0.0
1676104290.9990966,194,1676104290,997614860,odom,-1.1755563020706177,0.9562467336654663,1.1374868349552154,0.0,0.0,0.0
1676104291.0109382,195,1676104291,9101867,odom,-1.175516963005066,0.9562313556671143,1.1374780195623637,0.0,0.0,0.0
1676104291.0187721,196,1676104291,17576456,odom,-1.1755574345588684,0.956291675567627,1.137454808923602,0.0,0.0,0.0
1676104291.029397,197,1676104291,27630090,odom,-1.1755410432815552,0.9562437534332275,1.1374896055072548,0.0,0.0,0.0
1676104291.038967,198,1676104291,37646055,odom,-1.1755419969558716,0.9562543630599976,1.137482746937871,0.0,0.0,0.0
1676104291.0515802,199,1676104291,48357725,odom,-1.1755387783050537,0.9562466144561768,1.1374896248817445,0.0,0.0,0.0
1676104291.0585544,200,1676104291,57571649,odom,-1.175548791885376,0.956249475479126,1.137476837718487,0.0,0.0,0.0
1676104291.070437,201,1676104291,67724466,odom,-1.1755443215370178,0.9562604427337646,1.1374795695215465,0.0,0.0,0.0
1676104291.084514,202,1676104291,79418897,odom,-1.1755287647247314,0.9562383890151978,1.1374911167174577,0.0,0.0,0.0
1676104291.0910177,203,1676104291,89096546,odom,-1.1755279898643494,0.9562265872955322,1.137475481504202,0.0,0.0,0.0
1676104291.0994732,204,1676104291,97647666,odom,-1.1755343079566956,0.9562366008758545,1.1374918529480698,0.0,0.0,0.0
1676104291.1115928,205,1676104291,110252857,odom,-1.1755397319793701,0.9562431573867798,1.1374736603021622,0.0,0.0,0.0
1676104291.1193306,206,1676104291,117587089,odom,-1.1755319237709045,0.9562216997146606,1.1374924341827632,0.0,0.0,0.0
1676104291.1289542,207,1676104291,127564191,odom,-1.175534963607788,0.9562472105026245,1.1374726722031832,0.0,0.0,0.0
1676104291.1394672,208,1676104291,137913227,odom,-1.1755468249320984,0.9562510251998901,1.1374876099348068,0.0,0.0,0.0
1676104291.1512492,209,1676104291,149660825,odom,-1.1755766868591309,0.9563148021697998,1.1374690685480835,0.0,0.0,0.0
1676104291.1595328,210,1676104291,158350944,odom,-1.1755334734916687,0.9562313556671143,1.1374804801225662,0.0,0.0,0.0
1676104291.16961,211,1676104291,167913913,odom,-1.1755231618881226,0.956213116645813,1.137487144947052,0.0,0.0,0.0
1676104291.180303,212,1676104291,177956819,odom,-1.175549566745758,0.9562828540802002,1.1374773802042006,0.0,0.0,0.0
1676104291.189987,213,1676104291,188196420,odom,-1.1755273342132568,0.9562398195266724,1.1374873386919497,0.0,0.0,0.0
1676104291.1993263,214,1676104291,197582960,odom,-1.1755605936050415,0.9562568664550781,1.1374808869868518,0.0,0.0,0.0
1676104291.2152348,215,1676104291,210324287,odom,-1.175557255744934,0.9562604427337646,1.1374862924695015,0.0,0.0,0.0
1676104291.2196426,216,1676104291,218113422,odom,-1.1755458116531372,0.9562510251998901,1.1374891405194998,0.0,0.0,0.0
1676104291.2291741,217,1676104291,227610826,odom,-1.17551988363266,0.9562317132949829,1.1374780195623637,0.0,0.0,0.0
1676104291.2394218,218,1676104291,237666845,odom,-1.175579011440277,0.9563175439834595,1.1374698822766542,0.0,0.0,0.0
1676104291.2491138,219,1676104291,247620582,odom,-1.1755341291427612,0.9562389850616455,1.1374835025429726,0.0,0.0,0.0
1676104291.2591333,220,1676104291,257609128,odom,-1.1755495071411133,0.9562947750091553,1.1374621131062508,0.0,0.0,0.0
1676104291.2702324,221,1676104291,268082141,odom,-1.1755696535110474,0.956294059753418,1.137466394868493,0.0,0.0,0.0
1676104291.2842069,222,1676104291,279638051,odom,-1.175547182559967,0.9562405347824097,1.1374827081888914,0.0,0.0,0.0
1676104291.2894187,223,1676104291,287990331,odom,-1.175563633441925,0.956256628036499,1.1374790851593017,0.0,0.0,0.0
1676104291.299468,224,1676104291,297714710,odom,-1.1755344867706299,0.9562456607818604,1.1374787557929755,0.0,0.0,0.0
1676104291.3097456,225,1676104291,307840585,odom,-1.1755387783050537,0.9562528133392334,1.1374799182623627,0.0,0.0,0.0
1676104291.3197157,226,1676104291,317662715,odom,-1.1755865812301636,0.9563390016555786,1.1374630624562503,0.0,0.0,0.0
1676104291.3290277,227,1676104291,327718257,odom,-1.1755738258361816,0.9563037157058716,1.137465154901147,0.0,0.0,0.0
1676104291.3388112,228,1676104291,337721109,odom,-1.175540030002594,0.9562209844589233,1.1374778839409352,0.0,0.0,0.0
1676104291.3518672,229,1676104291,348038196,odom,-1.1755338907241821,0.9562181234359741,1.137490651729703,0.0,0.0,0.0
1676104291.3590562,230,1676104291,357599258,odom,-1.1755849123001099,0.9563202857971191,1.137464593040943,0.0,0.0,0.0
1676104291.370959,231,1676104291,368757724,odom,-1.1755254864692688,0.9562216997146606,1.1374845100164415,0.0,0.0,0.0
1676104291.3796995,232,1676104291,377643346,odom,-1.175535798072815,0.9562355279922485,1.1374873774409295,0.0,0.0,0.0
1676104291.3892124,233,1676104291,387863397,odom,-1.1755360960960388,0.956249475479126,1.1374867380827667,0.0,0.0,0.0
1676104291.3988154,234,1676104291,397677421,odom,-1.1755960583686829,0.956323504447937,1.1374723428368567,0.0,0.0,0.0
1676104291.4109674,235,1676104291,407861471,odom,-1.175548791885376,0.9562473297119141,1.137480053883791,0.0,0.0,0.0
1676104291.4187627,236,1676104291,417651891,odom,-1.1755180358886719,0.9562263488769531,1.137492279186845,0.0,0.0,0.0
1676104291.4286582,237,1676104291,427539348,odom,-1.175520122051239,0.9562289714813232,1.1374897605031729,0.0,0.0,0.0
1676104291.4392233,238,1676104291,437645196,odom,-1.175536870956421,0.9562572240829468,1.1374863505929709,0.0,0.0,0.0
1676104291.4521182,239,1676104291,449108362,odom,-1.1755489110946655,0.9562674760818481,1.1374842581480742,0.0,0.0,0.0
1676104291.4609342,240,1676104291,458179473,odom,-1.1755750179290771,0.9563102722167969,1.1374637211889027,0.0,0.0,0.0
1676104291.4691055,241,1676104291,467668056,odom,-1.1755271553993225,0.9562305212020874,1.1374743190348149,0.0,0.0,0.0
1676104291.4788485,242,1676104291,477516889,odom,-1.1755314469337463,0.9562374353408813,1.1374779226899148,0.0,0.0,0.0
1676104291.4905531,243,1676104291,488506555,odom,-1.1755762100219727,0.9563167095184326,1.1374728271991015,0.0,0.0,0.0
1676104291.4997678,244,1676104291,497598648,odom,-1.1755204796791077,0.9562228918075562,1.1374883461654188,0.0,0.0,0.0
1676104291.5115736,245,1676104291,507888555,odom,-1.1755518317222595,0.9562662839889526,1.1374777870684865,0.0,0.0,0.0
1676104291.5193996,246,1676104291,517737865,odom,-1.17557692527771,0.9563008546829224,1.1374740671664476,0.0,0.0,0.0
1676104291.5292578,247,1676104291,527758836,odom,-1.1755349040031433,0.9562389850616455,1.137478465175629,0.0,0.0,0.0
1676104291.5390346,248,1676104291,537613153,odom,-1.1755350828170776,0.956240177154541,1.1374897992521527,0.0,0.0,0.0
1676104291.5493417,249,1676104291,547897338,odom,-1.1755432486534119,0.9562541246414185,1.1374838125348092,0.0,0.0,0.0
1676104291.5585601,250,1676104291,557540893,odom,-1.1755788922309875,0.9562948942184448,1.1374699404001238,0.0,0.0,0.0
1676104291.5704033,251,1676104291,568650722,odom,-1.1755353808403015,0.9562485218048096,1.1374791432827713,0.0,0.0,0.0
1676104291.5806665,252,1676104291,578225135,odom,-1.1755257844924927,0.956233024597168,1.1374805576205254,0.0,0.0,0.0
1676104291.589676,253,1676104291,588294029,odom,-1.175532042980194,0.9562221765518188,1.1374816232174636,0.0,0.0,0.0
1676104291.5996904,254,1676104291,597579717,odom,-1.1755502223968506,0.9562495946884155,1.1374818750858309,0.0,0.0,0.0
1676104291.615717,255,1676104291,610994338,odom,-1.1755537390708923,0.9562546014785767,1.1374745321542026,0.0,0.0,0.0
1676104291.6226912,256,1676104291,620379209,odom,-1.1755531430244446,0.9562394618988037,1.1374887530297042,0.0,0.0,0.0
1676104291.6290152,257,1676104291,627700328,odom,-1.1755171418190002,0.9562181234359741,1.1374817200899123,0.0,0.0,0.0
1676104291.6388497,258,1676104291,637645721,odom,-1.1755263209342957,0.9562318325042725,1.137491639828682,0.0,0.0,0.0
1676104291.6520798,259,1676104291,648738861,odom,-1.175552248954773,0.9562597274780273,1.1374905161082745,0.0,0.0,0.0
1676104291.6602128,260,1676104291,658553838,odom,-1.1755821108818054,0.9563366174697876,1.137459032562375,0.0,0.0,0.0
1676104291.6690295,261,1676104291,667564630,odom,-1.1755341291427612,0.9562478065490723,1.1374838125348092,0.0,0.0,0.0
1676104291.6793787,262,1676104291,677502393,odom,-1.1755910515785217,0.9562962055206299,1.1374627718389037,0.0,0.0,0.0
1676104291.6912882,263,1676104291,688934803,odom,-1.1755196452140808,0.9562290906906128,1.1374769733399153,0.0,0.0,0.0
1676104291.6994681,264,1676104291,697596788,odom,-1.1755324006080627,0.9562406539916992,1.1374903417378663,0.0,0.0,0.0
1676104291.7110546,265,1676104291,708604335,odom,-1.1755356192588806,0.9562474489212036,1.1374828050613404,0.0,0.0,0.0
1676104291.7200923,266,1676104291,717520475,odom,-1.1755574345588684,0.9562939405441284,1.1374608537644149,0.0,0.0,0.0
1676104291.7306294,267,1676104291,728391408,odom,-1.1755191683769226,0.9562195539474487,1.1374779420644046,0.0,0.0,0.0
1676104291.7406924,268,1676104291,738625049,odom,-1.175523579120636,0.9562400579452515,1.137489218017459,0.0,0.0,0.0
1676104291.749187,269,1676104291,748079776,odom,-1.1755208373069763,0.9562327861785889,1.1374760433644058,0.0,0.0,0.0
1676104291.7587016,270,1676104291,757618904,odom,-1.1755805015563965,0.9563068151473999,1.1374731371909381,0.0,0.0,0.0
1676104291.773809,271,1676104291,770336151,odom,-1.1755350828170776,0.9562536478042603,1.137473427808285,0.0,0.0,0.0
1676104291.7800505,272,1676104291,778067827,odom,-1.17551189661026,0.9562197923660278,1.1374788332909345,0.0,0.0,0.0
1676104291.7894335,273,1676104291,787634134,odom,-1.1755195260047913,0.9562134742736816,1.1374803445011379,0.0,0.0,0.0
1676104291.7990153,274,1676104291,797724723,odom,-1.1755332350730896,0.956242561340332,1.137484355020523,0.0,0.0,0.0
1676104291.809837,275,1676104291,807609558,odom,-1.1755187511444092,0.9562158584594727,1.1374823981970548,0.0,0.0,0.0
1676104291.8192518,276,1676104291,817751884,odom,-1.1755399107933044,0.9562387466430664,1.1374883655399084,0.0,0.0,0.0
1676104291.832395,277,1676104291,827920913,odom,-1.1755285859107971,0.9562371969223022,1.1374870868235827,0.0,0.0,0.0
1676104291.8389277,278,1676104291,837617158,odom,-1.1755213141441345,0.9562269449234009,1.1374877649307251,0.0,0.0,0.0
1676104291.849644,279,1676104291,848143100,odom,-1.1755294799804688,0.9562411308288574,1.1374880942970516,0.0,0.0,0.0
1676104291.8591292,280,1676104291,857638835,odom,-1.1755266189575195,0.9562164545059204,1.1374763533562422,0.0,0.0,0.0
1676104291.8748436,281,1676104291,867600917,odom,-1.1755778789520264,0.9563108682632446,1.1374676735848188,0.0,0.0,0.0
1676104291.879471,282,1676104291,877856969,odom,-1.1755388975143433,0.9562497138977051,1.1374967934429647,0.0,0.0,0.0
1676104291.8899605,283,1676104291,888271331,odom,-1.175511360168457,0.9562137126922607,1.1374775933235886,0.0,0.0,0.0
1676104291.8999856,284,1676104291,897567510,odom,-1.1755335330963135,0.9562193155288696,1.1374825725674629,0.0,0.0,0.0
1676104291.9097397,285,1676104291,908083915,odom,-1.1755399703979492,0.9562443494796753,1.1374765083521605,0.0,0.0,0.0
1676104291.9198616,286,1676104291,917620420,odom,-1.1755435466766357,0.956235408782959,1.1374796276450159,0.0,0.0,0.0
1676104291.9295402,287,1676104291,927536964,odom,-1.1755290627479553,0.9562187194824219,1.1374914460837842,0.0,0.0,0.0
1676104291.93946,288,1676104291,937636137,odom,-1.1755186915397644,0.9562294483184814,1.137486699333787,0.0,0.0,0.0
1676104291.9493806,289,1676104291,947687149,odom,-1.1755168437957764,0.9562368392944336,1.1374804413735866,0.0,0.0,0.0
1676104291.959266,290,1676104291,957670211,odom,-1.175535261631012,0.9562565088272095,1.1374711416184902,0.0,0.0,0.0
1676104291.971711,291,1676104291,970005750,odom,-1.1755266189575195,0.9562146663665771,1.1374836381644011,0.0,0.0,0.0
1676104291.979247,292,1676104291,977921962,odom,-1.1755365133285522,0.9562474489212036,1.1374894505113364,0.0,0.0,0.0
1676104291.988971,293,1676104291,987605810,odom,-1.1755210757255554,0.9562433958053589,1.137475752747059,0.0,0.0,0.0
1676104292.0001128,294,1676104291,998060464,odom,-1.175532579421997,0.9562395811080933,1.1374887336552144,0.0,0.0,0.0
1676104292.0112908,295,1676104292,9723186,odom,-1.1755200624465942,0.9562299251556396,1.1374821850776673,0.0,0.0,0.0
1676104292.0187786,296,1676104292,17635107,odom,-1.1755184531211853,0.9562211036682129,1.1374829794317485,0.0,0.0,0.0
1676104292.0290837,297,1676104292,27649641,odom,-1.1755226254463196,0.9562280178070068,1.1374834831684828,0.0,0.0,0.0
1676104292.0397055,298,1676104292,38376331,odom,-1.1755077242851257,0.9562182426452637,1.1374827856868506,0.0,0.0,0.0
1676104292.0492756,299,1676104292,47866344,odom,-1.1755379438400269,0.9562559127807617,1.13748015075624,0.0,0.0,0.0
1676104292.058972,300,1676104292,57630062,odom,-1.1755537390708923,0.9562520980834961,1.1374807513654233,0.0,0.0,0.0
1676104292.0710907,301,1676104292,68860054,odom,-1.175540030002594,0.9562423229217529,1.1374888886511325,0.0,0.0,0.0
1676104292.079046,302,1676104292,77960968,odom,-1.1755946278572083,0.9563450813293457,1.137462287476659,0.0,0.0,0.0
1676104292.089387,303,1676104292,87884426,odom,-1.175541877746582,0.9562357664108276,1.1374927054256203,0.0,0.0,0.0
1676104292.0989761,304,1676104292,97588777,odom,-1.1755383610725403,0.9562495946884155,1.1374878811776639,0.0,0.0,0.0
1676104292.1091785,305,1676104292,107804298,odom,-1.1755213141441345,0.9562364816665649,1.137476992714405,0.0,0.0,0.0
1676104292.12102,306,1676104292,118169784,odom,-1.1755239367485046,0.9562335014343262,1.1374897217541935,0.0,0.0,0.0
1676104292.1292896,307,1676104292,127593040,odom,-1.1755574941635132,0.9562975168228149,1.1374647286623718,0.0,0.0,0.0
1676104292.1391485,308,1676104292,137810945,odom,-1.1755574941635132,0.9562975168228149,1.1374647286623718,0.0,0.0,0.0
1676104292.152589,309,1676104292,148816585,odom,-1.1755439639091492,0.9562405347824097,1.1374586256980896,0.0,0.0,0.0
1676104292.1597292,310,1676104292,157885551,odom,-1.1755400896072388,0.9562498331069946,1.1374861374735834,0.0,0.0,0.0
1676104292.1692855,311,1676104292,167652130,odom,-1.175530195236206,0.9562338590621948,1.1374807319909335,0.0,0.0,0.0
1676104292.1808414,312,1676104292,178467512,odom,-1.1755720973014832,0.956304669380188,1.1374709478735925,0.0,0.0,0.0
1676104292.1898143,313,1676104292,188547611,odom,-1.175539255142212,0.9562509059906006,1.1374800926327704,0.0,0.0,0.0
1676104292.1990206,314,1676104292,197633981,odom,-1.1755444407463074,0.9562512636184692,1.137489295515418,0.0,0.0,0.0
1676104292.2116413,315,1676104292,208871603,odom,-1.1755471229553223,0.9562634229660034,1.1374771477103234,0.0,0.0,0.0
1676104292.219639,316,1676104292,217657327,odom,-1.1755185723304749,0.9562294483184814,1.137476275858283,0.0,0.0,0.0
1676104292.2290485,317,1676104292,227502107,odom,-1.175544023513794,0.9562532901763916,1.1374821850776673,0.0,0.0,0.0
1676104292.2395358,318,1676104292,237788200,odom,-1.1755333542823792,0.9562305212020874,1.1374653680205344,0.0,0.0,0.0
1676104292.2494085,319,1676104292,248175859,odom,-1.1755859851837158,0.9563103914260864,1.1374700178980828,0.0,0.0,0.0
1676104292.259344,320,1676104292,257563114,odom,-1.1755483746528625,0.9562684297561646,1.1374860793501138,0.0,0.0,0.0
1676104292.2703311,321,1676104292,268518686,odom,-1.1755693554878235,0.9562973976135254,1.1374668017327785,0.0,0.0,0.0
1676104292.2795174,322,1676104292,277489662,odom,-1.175544798374176,0.9562441110610962,1.1374767602205278,0.0,0.0,0.0
1676104292.2914157,323,1676104292,288519620,odom,-1.1755394339561462,0.9562525749206543,1.137483463793993,0.0,0.0,0.0
1676104292.29992,324,1676104292,297625780,odom,-1.1755700707435608,0.9563236236572266,1.137466588613391,0.0,0.0,0.0
1676104292.3102925,325,1676104292,309042453,odom,-1.1755587458610535,0.9562987089157104,1.1374705603837967,0.0,0.0,0.0
1676104292.3199737,326,1676104292,317680835,odom,-1.1755347847938538,0.9562628269195557,1.1374707347542048,0.0,0.0,0.0
1676104292.3287532,327,1676104292,327596902,odom,-1.1755347847938538,0.9562628269195557,1.1374707347542048,0.0,0.0,0.0
1676104292.3399003,328,1676104292,337776184,odom,-1.175549030303955,0.9562814235687256,1.1374774577021598,0.0,0.0,0.0
1676104292.3516052,329,1676104292,349026203,odom,-1.1755374670028687,0.9562313556671143,1.1374910585939886,0.0,0.0,0.0
1676104292.359139,330,1676104292,357595920,odom,-1.1755506992340088,0.9562575817108154,1.1374792207807303,0.0,0.0,0.0
1676104292.3708737,331,1676104292,368755340,odom,-1.1755203008651733,0.9562162160873413,1.1374713741123677,0.0,0.0,0.0
1676104292.3786392,332,1676104292,377515077,odom,-1.1755476593971252,0.9562499523162842,1.13747474527359,0.0,0.0,0.0
1676104292.3895915,333,1676104292,387931108,odom,-1.1755213737487793,0.9562205076217651,1.1374717228531839,0.0,0.0,0.0
1676104292.3996289,334,1676104292,397615432,odom,-1.1755338311195374,0.9562360048294067,1.137488501161337,0.0,0.0,0.0
1676104292.411345,335,1676104292,407711267,odom,-1.1755366325378418,0.9562479257583618,1.1374778645664454,0.0,0.0,0.0
1676104292.4191785,336,1676104292,417724847,odom,-1.1755399703979492,0.9562397003173828,1.137482126954198,0.0,0.0,0.0
1676104292.428581,337,1676104292,427533388,odom,-1.175548255443573,0.9562655687332153,1.1374781939327718,0.0,0.0,0.0
1676104292.439225,338,1676104292,437724351,odom,-1.175538182258606,0.9562543630599976,1.1374783295542001,0.0,0.0,0.0
1676104292.449952,339,1676104292,447790622,odom,-1.1755173206329346,0.9562112092971802,1.13749003174603,0.0,0.0,0.0
1676104292.4587383,340,1676104292,457630634,odom,-1.175541639328003,0.9562664031982422,1.1374822819501162,0.0,0.0,0.0
1676104292.4688954,341,1676104292,467611789,odom,-1.175529956817627,0.9562342166900635,1.1374834444195032,0.0,0.0,0.0
1676104292.4802685,342,1676104292,478188514,odom,-1.1755676865577698,0.9563025236129761,1.1374662979960442,0.0,0.0,0.0
1676104292.4893303,343,1676104292,487647294,odom,-1.1755775213241577,0.9563101530075073,1.1374727109521627,0.0,0.0,0.0
1676104292.499899,344,1676104292,497608900,odom,-1.1755325198173523,0.9562410116195679,1.1374744159072638,0.0,0.0,0.0
1676104292.5112627,345,1676104292,507640361,odom,-1.175534725189209,0.9562273025512695,1.1374830569297076,0.0,0.0,0.0
1676104292.5200531,346,1676104292,517938613,odom,-1.175546646118164,0.9562630653381348,1.1374764889776707,0.0,0.0,0.0
1676104292.528981,347,1676104292,527656793,odom,-1.1755269765853882,0.9562268257141113,1.137483560666442,0.0,0.0,0.0
1676104292.5392115,348,1676104292,538075447,odom,-1.1755247712135315,0.9562339782714844,1.1374802670031785,0.0,0.0,0.0
1676104292.5491393,349,1676104292,547951698,odom,-1.1755158305168152,0.9562228918075562,1.1374876099348068,0.0,0.0,0.0
1676104292.558873,350,1676104292,557649612,odom,-1.1755300164222717,0.9562422037124634,1.1374795501470567,0.0,0.0,0.0
1676104292.5698462,351,1676104292,568181753,odom,-1.175537347793579,0.9562568664550781,1.1374821657031775,0.0,0.0,0.0
1676104292.580065,352,1676104292,578562259,odom,-1.175577163696289,0.9563156366348267,1.1374618612378835,0.0,0.0,0.0
1676104292.589748,353,1676104292,588026762,odom,-1.1755457520484924,0.9562860727310181,1.137483018180728,0.0,0.0,0.0
1676104292.5996683,354,1676104292,597960948,odom,-1.1755390763282776,0.9562569856643677,1.137485362493992,0.0,0.0,0.0
1676104292.611058,355,1676104292,608711481,odom,-1.175537645816803,0.9562413692474365,1.1374886949062348,0.0,0.0,0.0
1676104292.6190138,356,1676104292,617630958,odom,-1.175517976284027,0.9562103748321533,1.137494875368476,0.0,0.0,0.0
1676104292.6288073,357,1676104292,627604484,odom,-1.1755821108818054,0.9563223123550415,1.1374706378817558,0.0,0.0,0.0
1676104292.6388354,358,1676104292,637598514,odom,-1.1755672693252563,0.9563193321228027,1.137457327607274,0.0,0.0,0.0
1676104292.649,359,1676104292,647573709,odom,-1.1755333542823792,0.9562464952468872,1.1374792982786894,0.0,0.0,0.0
1676104292.658794,360,1676104292,657637834,odom,-1.1755514740943909,0.9562475681304932,1.137481410098076,0.0,0.0,0.0
1676104292.6694167,361,1676104292,668078422,odom,-1.175536572933197,0.9562197923660278,1.1374973165541886,0.0,0.0,0.0
1676104292.6787353,362,1676104292,677500247,odom,-1.175536334514618,0.9562451839447021,1.1374803832501172,0.0,0.0,0.0
1676104292.6896646,363,1676104292,688422441,odom,-1.1755422353744507,0.95624840259552,1.1374885205358267,0.0,0.0,0.0
1676104292.6987998,364,1676104292,697649717,odom,-1.175531029701233,0.9562362432479858,1.1374899542480708,0.0,0.0,0.0
1676104292.7103672,365,1676104292,707710742,odom,-1.1755533814430237,0.9562594890594482,1.137487861803174,0.0,0.0,0.0
1676104292.718997,366,1676104292,717577219,odom,-1.1755533814430237,0.9562594890594482,1.137487861803174,0.0,0.0,0.0
1676104292.7296906,367,1676104292,727736949,odom,-1.1755533814430237,0.9562594890594482,1.137487861803174,0.0,0.0,0.0
1676104292.7411234,368,1676104292,738106966,odom,-1.175581157207489,0.9563137292861938,1.13747205221951,0.0,0.0,0.0
1676104292.7532802,369,1676104292,748157739,odom,-1.175528109073639,0.9562275409698486,1.137490477359295,0.0,0.0,0.0
1676104292.759189,370,1676104292,757619857,odom,-1.175539791584015,0.9562535285949707,1.1374838125348092,0.0,0.0,0.0
1676104292.7692573,371,1676104292,767619371,odom,-1.1755426526069641,0.956244945526123,1.1374758883684875,0.0,0.0,0.0
1676104292.7798164,372,1676104292,778316020,odom,-1.1755199432373047,0.9562208652496338,1.1374890242725613,0.0,0.0,0.0
1676104292.7893608,373,1676104292,788299322,odom,-1.1755353212356567,0.9562458992004395,1.137484800633788,0.0,0.0,0.0
1676104292.7987924,374,1676104292,797601938,odom,-1.175516664981842,0.9562152624130249,1.1374824175715446,0.0,0.0,0.0
1676104292.8108773,375,1676104292,807980775,odom,-1.1755151152610779,0.9562129974365234,1.1374886367827655,0.0,0.0,0.0
1676104292.8196204,376,1676104292,817671537,odom,-1.1755445003509521,0.9562594890594482,1.1374851493746043,0.0,0.0,0.0
1676104292.8289924,377,1676104292,827514886,odom,-1.175542950630188,0.9562599658966064,1.1374794532746078,0.0,0.0,0.0
1676104292.8386538,378,1676104292,837586641,odom,-1.1755353808403015,0.9562424421310425,1.1374764308542014,0.0,0.0,0.0
1676104292.8509443,379,1676104292,848675727,odom,-1.1755588054656982,0.9562575817108154,1.137476372730732,0.0,0.0,0.0
1676104292.8589082,380,1676104292,857751369,odom,-1.1755369901657104,0.9562565088272095,1.1374728078246117,0.0,0.0,0.0
1676104292.8693604,381,1676104292,867829561,odom,-1.1755285859107971,0.9562381505966187,1.1374873968154193,0.0,0.0,0.0
1676104292.879524,382,1676104292,878063440,odom,-1.1755298376083374,0.9562199115753174,1.137483366921544,0.0,0.0,0.0
1676104292.8892434,383,1676104292,887601613,odom,-1.1755351424217224,0.9562571048736572,1.1374883849143982,0.0,0.0,0.0
1676104292.8994403,384,1676104292,897680521,odom,-1.1755344867706299,0.9562448263168335,1.1374806351184845,0.0,0.0,0.0
1676104292.9109757,385,1676104292,907799720,odom,-1.175546944141388,0.9562395811080933,1.1374832313001157,0.0,0.0,0.0
1676104292.918846,386,1676104292,917751550,odom,-1.175550103187561,0.9562509059906006,1.137496212208271,0.0,0.0,0.0
1676104292.9288716,387,1676104292,927746534,odom,-1.175546109676361,0.9562482833862305,1.1374826306909325,0.0,0.0,0.0
1676104292.9397905,388,1676104292,937886714,odom,-1.1755295395851135,0.9562205076217651,1.137489838001132,0.0,0.0,0.0
1676104292.949662,389,1676104292,947703599,odom,-1.1755295395851135,0.9562205076217651,1.137489838001132,0.0,0.0,0.0
1676104292.9590178,390,1676104292,957831621,odom,-1.1755295395851135,0.9562205076217651,1.137489838001132,0.0,0.0,0.0
1676104292.9705505,391,1676104292,967794895,odom,-1.1755295395851135,0.9562205076217651,1.137489838001132,0.0,0.0,0.0
1676104292.982068,392,1676104292,980623960,odom,-1.1755510568618774,0.9562555551528931,1.1374818169623613,0.0,0.0,0.0
1676104292.9898746,393,1676104292,988343715,odom,-1.1755315065383911,0.9562317132949829,1.1374815263450146,0.0,0.0,0.0
1676104292.9986963,394,1676104292,997549057,odom,-1.1755391359329224,0.956233024597168,1.1374740865409374,0.0,0.0,0.0
1676104293.0111973,395,1676104293,9751558,odom,-1.1755391955375671,0.9562422037124634,1.137472865948081,0.0,0.0,0.0
1676104293.0194407,396,1676104293,17639875,odom,-1.1755330562591553,0.9562273025512695,1.1374818750858309,0.0,0.0,0.0
1676104293.0287583,397,1676104293,27636289,odom,-1.1755655407905579,0.9562910795211792,1.1374724203348159,0.0,0.0,0.0
1676104293.0388303,398,1676104293,37586927,odom,-1.1755262613296509,0.9562276601791382,1.1374871836960316,0.0,0.0,0.0
1676104293.0488858,399,1676104293,47629833,odom,-1.1755474209785461,0.9562526941299438,1.1374811776041986,0.0,0.0,0.0
1676104293.059605,400,1676104293,57896614,odom,-1.1755265593528748,0.9562250375747681,1.1374801313817502,0.0,0.0,0.0
1676104293.0694323,401,1676104293,67758798,odom,-1.1755263209342957,0.9562346935272217,1.1374812357276678,0.0,0.0,0.0
1676104293.0790954,402,1676104293,77682971,odom,-1.1755537390708923,0.9562475681304932,1.1374887917786836,0.0,0.0,0.0
1676104293.089009,403,1676104293,87635993,odom,-1.1755316853523254,0.9562289714813232,1.1374831538021566,0.0,0.0,0.0
1676104293.0992973,404,1676104293,97635746,odom,-1.1755279302597046,0.9562346935272217,1.137477535200119,0.0,0.0,0.0
1676104293.11052,405,1676104293,107624292,odom,-1.1755385994911194,0.9562516212463379,1.137479879513383,0.0,0.0,0.0
1676104293.1191127,406,1676104293,117669105,odom,-1.17558354139328,0.9563041925430298,1.1374646705389022,0.0,0.0,0.0
1676104293.1287224,407,1676104293,127566099,odom,-1.1755402088165283,0.9562234878540039,1.1374818750858309,0.0,0.0,0.0
1676104293.1391592,408,1676104293,137637853,odom,-1.1755298376083374,0.9562393426895142,1.1374815263450146,0.0,0.0,0.0
1676104293.1491885,409,1676104293,147610187,odom,-1.175534427165985,0.9562307596206665,1.1374895280092956,0.0,0.0,0.0
1676104293.1594746,410,1676104293,158243179,odom,-1.1755346059799194,0.956214427947998,1.1374928410470486,0.0,0.0,0.0
1676104293.1689856,411,1676104293,167646884,odom,-1.1755381226539612,0.9562513828277588,1.1374796276450159,0.0,0.0,0.0
1676104293.1787295,412,1676104293,177494287,odom,-1.1755284667015076,0.9562374353408813,1.1374773414552213,0.0,0.0,0.0
1676104293.1896722,413,1676104293,187839508,odom,-1.1755577325820923,0.9562468528747559,1.13748104198277,0.0,0.0,0.0
1676104293.198677,414,1676104293,197588443,odom,-1.175577461719513,0.9563332796096802,1.1374753652572633,0.0,0.0,0.0
1676104293.2118075,415,1676104293,208002567,odom,-1.175540030002594,0.9562301635742188,1.1374861955970526,0.0,0.0,0.0
1676104293.2201343,416,1676104293,218555450,odom,-1.1755249500274658,0.9562315940856934,1.137481313225627,0.0,0.0,0.0
1676104293.228789,417,1676104293,227597713,odom,-1.1755205392837524,0.9562151432037354,1.1374891211450102,0.0,0.0,0.0
1676104293.2394588,418,1676104293,237774372,odom,-1.1755371689796448,0.9562462568283081,1.1374780195623637,0.0,0.0,0.0
1676104293.2489552,419,1676104293,247584819,odom,-1.1755236983299255,0.9562140703201294,1.1374873193174602,0.0,0.0,0.0
1676104293.2596595,420,1676104293,258149385,odom,-1.175528645515442,0.9562351703643799,1.1374893342643977,0.0,0.0,0.0
1676104293.269101,421,1676104293,267753839,odom,-1.1755807995796204,0.9563314914703369,1.137468312942982,0.0,0.0,0.0
1676104293.2790868,422,1676104293,277555227,odom,-1.1755341291427612,0.9562366008758545,1.1374816619664432,0.0,0.0,0.0
1676104293.2893698,423,1676104293,288088083,odom,-1.1755080223083496,0.9562244415283203,1.1374822238266467,0.0,0.0,0.0
1676104293.2996657,424,1676104293,297595500,odom,-1.1755292415618896,0.9562273025512695,1.1374839869052173,0.0,0.0,0.0
1676104293.3113842,425,1676104293,307693004,odom,-1.1755337715148926,0.9562578201293945,1.1374922016888855,0.0,0.0,0.0
1676104293.3201692,426,1676104293,317860364,odom,-1.175537884235382,0.9562339782714844,1.1374821463286877,0.0,0.0,0.0
1676104293.330192,427,1676104293,328765630,odom,-1.1755335330963135,0.95624840259552,1.137480770739913,0.0,0.0,0.0
1676104293.3388026,428,1676104293,337614297,odom,-1.1755341291427612,0.9562289714813232,1.1374858856052161,0.0,0.0,0.0
1676104293.350441,429,1676104293,348136186,odom,-1.1755410432815552,0.9562476873397827,1.1374869318276644,0.0,0.0,0.0
1676104293.3587437,430,1676104293,357603549,odom,-1.1755410432815552,0.9562476873397827,1.1374869318276644,0.0,0.0,0.0
1676104293.3710408,431,1676104293,367986917,odom,-1.1755390763282776,0.9562286138534546,1.1374812938511372,0.0,0.0,0.0
1676104293.3793502,432,1676104293,377612590,odom,-1.1755325198173523,0.9562368392944336,1.1374807513654233,0.0,0.0,0.0
1676104293.389209,433,1676104293,387668848,odom,-1.1755470037460327,0.9562637805938721,1.1374900704950093,0.0,0.0,0.0
1676104293.3987815,434,1676104293,397627592,odom,-1.1755470037460327,0.9562637805938721,1.1374900704950093,0.0,0.0,0.0
1676104293.4117072,435,1676104293,408224821,odom,-1.1755516529083252,0.9562560319900513,1.137484355020523,0.0,0.0,0.0
1676104293.4199402,436,1676104293,418621540,odom,-1.1755409240722656,0.9562735557556152,1.137477903315425,0.0,0.0,0.0
1676104293.4287012,437,1676104293,427554130,odom,-1.1755498051643372,0.9562737941741943,1.1374863118439915,0.0,0.0,0.0
1676104293.438994,438,1676104293,437819480,odom,-1.175528347492218,0.9562299251556396,1.1374826113164425,0.0,0.0,0.0
1676104293.4490168,439,1676104293,447571516,odom,-1.1755324602127075,0.9562287330627441,1.1374858274817468,0.0,0.0,0.0
1676104293.458939,440,1676104293,457812309,odom,-1.1755802631378174,0.956302285194397,1.1374757139980793,0.0,0.0,0.0
1676104293.4687574,441,1676104293,467634916,odom,-1.1755787134170532,0.9562989473342896,1.1374719359725713,0.0,0.0,0.0
1676104293.4803932,442,1676104293,478330135,odom,-1.1755560636520386,0.9562593698501587,1.1374825144439935,0.0,0.0,0.0
1676104293.4896123,443,1676104293,487795114,odom,-1.17555433511734,0.9562532901763916,1.1374828825592995,0.0,0.0,0.0
1676104293.499159,444,1676104293,497585773,odom,-1.1755340695381165,0.9562325477600098,1.1374874355643987,0.0,0.0,0.0
1676104293.5103831,445,1676104293,508883953,odom,-1.175540566444397,0.9562430381774902,1.1374771477103234,0.0,0.0,0.0
1676104293.5204856,446,1676104293,517698287,odom,-1.1755450963974,0.9562461376190186,1.1374813907235861,0.0,0.0,0.0
1676104293.5290573,447,1676104293,527864694,odom,-1.1755175590515137,0.9562423229217529,1.1374770314633846,0.0,0.0,0.0
1676104293.5388265,448,1676104293,537678003,odom,-1.1755536794662476,0.9562612771987915,1.1374855756133795,0.0,0.0,0.0
1676104293.548713,449,1676104293,547477245,odom,-1.1755295991897583,0.9562339782714844,1.1374823594480754,0.0,0.0,0.0
1676104293.5592356,450,1676104293,557739496,odom,-1.1755388975143433,0.9562400579452515,1.1374811582297086,0.0,0.0,0.0
1676104293.5691552,451,1676104293,567713975,odom,-1.1755282282829285,0.9562073945999146,1.1374803445011379,0.0,0.0,0.0
1676104293.579391,452,1676104293,578193426,odom,-1.1755715608596802,0.9563019275665283,1.1374802670031785,0.0,0.0,0.0
1676104293.5893347,453,1676104293,587844371,odom,-1.175537347793579,0.9562453031539917,1.1374742415368557,0.0,0.0,0.0
1676104293.5990772,454,1676104293,597658395,odom,-1.175536572933197,0.9562492370605469,1.1374856531113386,0.0,0.0,0.0
1676104293.6111643,455,1676104293,609491825,odom,-1.1755131483078003,0.9562197923660278,1.1374837544113399,0.0,0.0,0.0
1676104293.6198344,456,1676104293,617677211,odom,-1.1755620837211609,0.9562592506408691,1.1374781939327718,0.0,0.0,0.0
1676104293.6298811,457,1676104293,628465652,odom,-1.175528645515442,0.9562311172485352,1.137490826100111,0.0,0.0,0.0
1676104293.6387045,458,1676104293,637590646,odom,-1.1755350232124329,0.9562389850616455,1.137482998806238,0.0,0.0,0.0
1676104293.6510167,459,1676104293,649488687,odom,-1.175562560558319,0.9562970399856567,1.1374581800848245,0.0,0.0,0.0
1676104293.6600673,460,1676104293,658523797,odom,-1.1755169034004211,0.9562346935272217,1.1374750746399165,0.0,0.0,0.0
1676104293.6696708,461,1676104293,668225049,odom,-1.1755998134613037,0.9563348293304443,1.1374739702939987,0.0,0.0,0.0
1676104293.6790512,462,1676104293,677437067,odom,-1.17558091878891,0.9563106298446655,1.137465871757269,0.0,0.0,0.0
1676104293.6902506,463,1676104293,688923358,odom,-1.1755518913269043,0.9562513828277588,1.1374811001062395,0.0,0.0,0.0
1676104293.699974,464,1676104293,697601556,odom,-1.1755180954933167,0.9562232494354248,1.137478717043996,0.0,0.0,0.0
1676104293.7086236,465,1676104293,707502841,odom,-1.1755419969558716,0.9562339782714844,1.1374874355643987,0.0,0.0,0.0
1676104293.7188973,466,1676104293,717626094,odom,-1.1755298376083374,0.9562376737594604,1.1374840837776663,0.0,0.0,0.0
1676104293.7301764,467,1676104293,727601051,odom,-1.1755136847496033,0.9562332630157471,1.137474687150121,0.0,0.0,0.0
1676104293.7391744,468,1676104293,737617969,odom,-1.1755462884902954,0.9562540054321289,1.1374734665572643,0.0,0.0,0.0
1676104293.7501671,469,1676104293,747800350,odom,-1.1755046844482422,0.9562205076217651,1.137478271430731,0.0,0.0,0.0
1676104293.759504,470,1676104293,757601022,odom,-1.1755383014678955,0.956263542175293,1.1374841419011354,0.0,0.0,0.0
1676104293.7693925,471,1676104293,767577409,odom,-1.1755316853523254,0.9562416076660156,1.1374860212266447,0.0,0.0,0.0
1676104293.7792494,472,1676104293,777518749,odom,-1.1755316853523254,0.9562416076660156,1.1374860212266447,0.0,0.0,0.0
1676104293.7901807,473,1676104293,787774801,odom,-1.1755316853523254,0.9562416076660156,1.1374860212266447,0.0,0.0,0.0
1676104293.7995493,474,1676104293,797780036,odom,-1.17551589012146,0.9562150239944458,1.1374857499837876,0.0,0.0,0.0
1676104293.809951,475,1676104293,807594299,odom,-1.1755306124687195,0.9562489986419678,1.137474377158284,0.0,0.0,0.0
1676104293.8200614,476,1676104293,818233966,odom,-1.1755589246749878,0.9562530517578125,1.137483831909299,0.0,0.0,0.0
1676104293.8289883,477,1676104293,827577114,odom,-1.1755760312080383,0.9562975168228149,1.137471800351143,0.0,0.0,0.0
1676104293.8393245,478,1676104293,837633371,odom,-1.1755760312080383,0.9562975168228149,1.137471800351143,0.0,0.0,0.0
1676104293.8532774,479,1676104293,850045680,odom,-1.175593614578247,0.9563302993774414,1.1374729821950198,0.0,0.0,0.0
1676104293.858654,480,1676104293,857603788,odom,-1.1755359172821045,0.9562584161758423,1.137483289423585,0.0,0.0,0.0
1676104293.8704307,481,1676104293,868503570,odom,-1.1755598783493042,0.9562839269638062,1.1374656973868609,0.0,0.0,0.0
1676104293.879544,482,1676104293,878220081,odom,-1.175537884235382,0.9562437534332275,1.1374855562388897,0.0,0.0,0.0
1676104293.8891206,483,1676104293,887978076,odom,-1.1755418181419373,0.9562491178512573,1.1374839094072582,0.0,0.0,0.0
1676104293.8990319,484,1676104293,897581100,odom,-1.1755606532096863,0.9562678337097168,1.137476469603181,0.0,0.0,0.0
1676104293.9097574,485,1676104293,907531023,odom,-1.175538718700409,0.9562486410140991,1.1374828825592995,0.0,0.0,0.0
1676104293.9186347,486,1676104293,917578458,odom,-1.175538718700409,0.9562486410140991,1.1374828825592995,0.0,0.0,0.0
1676104293.9291108,487,1676104293,927812576,odom,-1.1755414009094238,0.9562627077102661,1.1374828631848097,0.0,0.0,0.0
1676104293.9393919,488,1676104293,937681198,odom,-1.175580382347107,0.9562685489654541,1.1374792014062405,0.0,0.0,0.0
1676104293.949232,489,1676104293,947618007,odom,-1.1755388379096985,0.9562587738037109,1.1374836187899113,0.0,0.0,0.0
1676104293.9586706,490,1676104293,957621574,odom,-1.175609827041626,0.9563262462615967,1.1374650774031878,0.0,0.0,0.0
1676104293.971852,491,1676104293,969248533,odom,-1.1755715608596802,0.9563283920288086,1.1374848200082779,0.0,0.0,0.0
1676104293.9795523,492,1676104293,978340864,odom,-1.1757524013519287,0.9563966989517212,1.1375048532307148,0.0,0.0,0.0
1676104293.989526,493,1676104293,987906455,odom,-1.175818681716919,0.9564980268478394,1.1375100649684668,0.0,0.0,0.0
1676104294.0007277,494,1676104293,997785329,odom,-1.1758742332458496,0.9566311836242676,1.1375153542041778,0.0,0.0,0.0
1676104294.0119224,495,1676104294,7950544,odom,-1.176089584827423,0.9569083452224731,1.137494778496027,0.0,0.0,0.0
1676104294.0189579,496,1676104294,17590522,odom,-1.176089584827423,0.9569083452224731,1.137494778496027,0.0,0.0,0.0
1676104294.0321,497,1676104294,28178453,odom,-1.1764260530471802,0.9574985504150391,1.1375167104184627,0.0,0.0,0.0
1676104294.0388315,498,1676104294,37646532,odom,-1.1764260530471802,0.9574985504150391,1.1375167104184627,0.0,0.0,0.0
1676104294.0542161,499,1676104294,51414012,odom,-1.176598072052002,0.9601234197616577,1.1375794837653637,0.0,0.0,0.0
1676104294.059268,500,1676104294,57514667,odom,-1.1763795018196106,0.9613415002822876,1.1376646540224553,0.0,0.0,0.0
1676104294.068957,501,1676104294,67621946,odom,-1.1756495237350464,0.9633806943893433,1.137716858585179,0.0,0.0,0.0
1676104294.0800493,502,1676104294,78488349,odom,-1.1750637292861938,0.9650567770004272,1.137718195424974,0.0,0.0,0.0
1676104294.0905402,503,1676104294,88925838,odom,-1.1743704676628113,0.9663493633270264,1.1377739552065729,0.0,0.0,0.0
