Time,header.seq,header.stamp.secs,header.stamp.nsecs,header.frame_id,vector.x,vector.y,vector.z
1676104289.0827613,1,0,0,,0.427319364732448,0.427319364732448,0.2
1676104289.0992548,2,0,0,,0.42731736528510234,0.42731736528510234,0.2
1676104289.1029544,3,0,0,,0.4273156332057156,0.4273156332057156,0.2
1676104289.1114526,4,0,0,,0.42731971734816215,0.42731971734816215,0.2
1676104289.1189842,5,0,0,,0.42731104134289555,0.42731104134289555,0.2
1676104289.129396,6,0,0,,0.42731456750003627,0.42731456750003627,0.2
1676104289.1391625,7,0,0,,0.4273121301892214,0.4273121301892214,0.2
1676104289.1498425,8,0,0,,0.42725658131506294,0.42725658131506294,0.2
1676104289.1604362,9,0,0,,0.4272602508434281,0.4272602508434281,0.2
1676104289.1700609,10,0,0,,0.4272563643207774,0.4272563643207774,0.2
1676104289.1799862,11,0,0,,0.427260513898097,0.427260513898097,0.2
1676104289.1909873,12,0,0,,0.42725910731013866,0.42725910731013866,0.2
1676104289.198918,13,0,0,,0.4272614554983005,0.4272614554983005,0.2
1676104289.2129917,14,0,0,,0.4272677580690012,0.4272677580690012,0.2
1676104289.2199605,15,0,0,,0.4272677580690012,0.4272677580690012,0.2
1676104289.2322905,16,0,0,,0.4272663553559408,0.4272663553559408,0.2
1676104289.2392738,17,0,0,,0.4272688352906332,0.4272688352906332,0.2
1676104289.248685,18,0,0,,0.4272555619336665,0.4272555619336665,0.2
1676104289.2593598,19,0,0,,0.42725527131631974,0.42725527131631974,0.2
1676104289.2710896,20,0,0,,0.4272544769622386,0.4272544769622386,0.2
1676104289.2795126,21,0,0,,0.4272686945868656,0.4272686945868656,0.2
1676104289.2914648,22,0,0,,0.42726917894911026,0.42726917894911026,0.2
1676104289.2995272,23,0,0,,0.42726984155666087,0.42726984155666087,0.2
1676104289.3103256,24,0,0,,0.42727005855094646,0.42727005855094646,0.2
1676104289.3185778,25,0,0,,0.42727808809876444,0.42727808809876444,0.2
1676104289.3330286,26,0,0,,0.42727808809876444,0.42727808809876444,0.2
1676104289.3412664,27,0,0,,0.42727547254264353,0.42727547254264353,0.2
1676104289.3508692,28,0,0,,0.42728166619893165,0.42728166619893165,0.2
1676104289.3587344,29,0,0,,0.4272820769381151,0.4272820769381151,0.2
1676104289.3693168,30,0,0,,0.4272820769381151,0.4272820769381151,0.2
1676104289.3819926,31,0,0,,0.4272820769381151,0.4272820769381151,0.2
1676104289.3999262,32,0,0,,0.4272256271703541,0.4272256271703541,0.2
1676104289.4062657,33,0,0,,0.42722771186545494,0.42722771186545494,0.2
1676104289.4149842,34,0,0,,0.4272278784860671,0.4272278784860671,0.2
1676104289.4213355,35,0,0,,0.4272015811447427,0.4272015811447427,0.2
1676104289.4300623,36,0,0,,0.42720029467862103,0.42720029467862103,0.2
1676104289.4392037,37,0,0,,0.427200651169233,0.427200651169233,0.2
1676104289.4516268,38,0,0,,0.4272036280195788,0.4272036280195788,0.2
1676104289.466537,39,0,0,,0.4272036280195788,0.4272036280195788,0.2
1676104289.471856,40,0,0,,0.4272069100581482,0.4272069100581482,0.2
1676104289.479922,41,0,0,,0.4272049803589657,0.4272049803589657,0.2
1676104289.4913228,42,0,0,,0.4272690056670085,0.4272690056670085,0.2
1676104289.5001059,43,0,0,,0.4272668163496629,0.4272668163496629,0.2
1676104289.5125632,44,0,0,,0.4272707222468034,0.4272707222468034,0.2
1676104289.5191617,45,0,0,,0.4272795525772497,0.4272795525772497,0.2
1676104289.530299,46,0,0,,0.4272818736411259,0.4272818736411259,0.2
1676104289.539116,47,0,0,,0.42727930845867845,0.42727930845867845,0.2
1676104289.550029,48,0,0,,0.4273214901233837,0.4273214901233837,0.2
1676104289.5584245,49,0,0,,0.42731964179705834,0.42731964179705834,0.2
1676104289.574933,50,0,0,,0.4273214746237919,0.4273214746237919,0.2
1676104289.579551,51,0,0,,0.4273278892132454,0.4273278892132454,0.2
1676104289.590867,52,0,0,,0.4273236423250847,0.4273236423250847,0.2
1676104289.5988698,53,0,0,,0.42732520778385924,0.42732520778385924,0.2
1676104289.6130438,54,0,0,,0.42726943542629486,0.42726943542629486,0.2
1676104289.6389832,55,0,0,,0.42726943542629486,0.42726943542629486,0.2
1676104289.6571352,56,0,0,,0.4272877008164302,0.4272877008164302,0.2
1676104289.6652098,57,0,0,,0.4272878170633689,0.4272878170633689,0.2
1676104289.6740563,58,0,0,,0.42728858429316435,0.42728858429316435,0.2
1676104289.6813276,59,0,0,,0.4271808917798102,0.4271808917798102,0.2
1676104289.6903503,60,0,0,,0.4271777531124652,0.4271777531124652,0.2
1676104289.7003489,61,0,0,,0.42717972931042314,0.42717972931042314,0.2
1676104289.7117164,62,0,0,,0.4272213997427747,0.4272213997427747,0.2
1676104289.7203991,63,0,0,,0.4272236743078754,0.4272236743078754,0.2
1676104289.7306042,64,0,0,,0.427220469767265,0.427220469767265,0.2
1676104289.747003,65,0,0,,0.4272207720093057,0.4272207720093057,0.2
1676104289.7519119,66,0,0,,0.4272432470142097,0.4272432470142097,0.2
1676104289.7600422,67,0,0,,0.427243390385434,0.427243390385434,0.2
1676104289.770984,68,0,0,,0.4272425766568631,0.4272425766568631,0.2
1676104289.7806096,69,0,0,,0.4272602547696978,0.4272602547696978,0.2
1676104289.7902093,70,0,0,,0.4272602547696978,0.4272602547696978,0.2
1676104289.8124804,71,0,0,,0.4272595262888819,0.4272595262888819,0.2
1676104289.819646,72,0,0,,0.4272595262888819,0.4272595262888819,0.2
1676104289.8273082,73,0,0,,0.42728500621963295,0.42728500621963295,0.2
1676104289.8343565,74,0,0,,0.4272819295506552,0.4272819295506552,0.2
1676104289.8421774,75,0,0,,0.42728197992432865,0.42728197992432865,0.2
1676104289.8503811,76,0,0,,0.42729987784415485,0.42729987784415485,0.2
1676104289.859819,77,0,0,,0.42730008708864453,0.42730008708864453,0.2
1676104289.8724234,78,0,0,,0.42729790939599277,0.42729790939599277,0.2
1676104289.879868,79,0,0,,0.42723487691063433,0.42723487691063433,0.2
1676104289.8918216,80,0,0,,0.4272342026783899,0.4272342026783899,0.2
1676104289.9005435,81,0,0,,0.42723513652879747,0.42723513652879747,0.2
1676104289.9118767,82,0,0,,0.42718703651867806,0.42718703651867806,0.2
1676104289.920264,83,0,0,,0.4271863312872499,0.4271863312872499,0.2
1676104289.931072,84,0,0,,0.42718502157174054,0.42718502157174054,0.2
1676104289.9403267,85,0,0,,0.42718990394316614,0.42718990394316614,0.2
1676104289.955528,86,0,0,,0.4271610981152952,0.4271610981152952,0.2
1676104289.9607172,87,0,0,,0.4271617529730499,0.4271617529730499,0.2
1676104289.9703498,88,0,0,,0.4271586646793783,0.4271586646793783,0.2
1676104289.9814143,89,0,0,,0.4271935157118738,0.4271935157118738,0.2
1676104289.9902506,90,0,0,,0.4271934692130983,0.4271934692130983,0.2
1676104290.0001752,91,0,0,,0.42719297322615984,0.42719297322615984,0.2
1676104290.013289,92,0,0,,0.42719188437983396,0.42719188437983396,0.2
1676104290.0210366,93,0,0,,0.4271448103188351,0.4271448103188351,0.2
1676104290.0306458,94,0,0,,0.42714512806046756,0.42714512806046756,0.2
1676104290.0400374,95,0,0,,0.42714434920597827,0.42714434920597827,0.2
1676104290.0500286,96,0,0,,0.42712830172885213,0.42712830172885213,0.2
1676104290.0603733,97,0,0,,0.4271256551735476,0.4271256551735476,0.2
1676104290.07162,98,0,0,,0.4271288635890559,0.4271288635890559,0.2
1676104290.079943,99,0,0,,0.42718921385269615,0.42718921385269615,0.2
1676104290.0897136,100,0,0,,0.427188330375962,0.427188330375962,0.2
1676104290.100364,101,0,0,,0.42718567607086155,0.42718567607086155,0.2
1676104290.1134214,102,0,0,,0.4271879041371867,0.4271879041371867,0.2
1676104290.120805,103,0,0,,0.4271455198240281,0.4271455198240281,0.2
1676104290.1304982,104,0,0,,0.42714317938566215,0.42714317938566215,0.2
1676104290.1401522,105,0,0,,0.42714161392688754,0.42714161392688754,0.2
1676104290.1512587,106,0,0,,0.4272000047908724,0.4272000047908724,0.2
1676104290.161062,107,0,0,,0.4271999311678112,0.4271999311678112,0.2
1676104290.1701355,108,0,0,,0.42719754423066975,0.42719754423066975,0.2
1676104290.1804016,109,0,0,,0.42717475582521414,0.42717475582521414,0.2
1676104290.1899438,110,0,0,,0.42717202402215454,0.42717202402215454,0.2
1676104290.2001429,111,0,0,,0.4271768133960292,0.4271768133960292,0.2
1676104290.2138183,112,0,0,,0.42717630190949896,0.42717630190949896,0.2
1676104290.220189,113,0,0,,0.42719161345791073,0.42719161345791073,0.2
1676104290.230311,114,0,0,,0.4271891490228102,0.4271891490228102,0.2
1676104290.240349,115,0,0,,0.4271903851152584,0.4271903851152584,0.2
1676104290.251019,116,0,0,,0.427254699286148,0.427254699286148,0.2
1676104290.259847,117,0,0,,0.42725175823859873,0.42725175823859873,0.2
1676104290.2757325,118,0,0,,0.4272533701961488,0.4272533701961488,0.2
1676104290.2823102,119,0,0,,0.4272477243367583,0.4272477243367583,0.2
1676104290.2915573,120,0,0,,0.42724754609145227,0.42724754609145227,0.2
1676104290.300093,121,0,0,,0.4272484760669619,0.4272484760669619,0.2
1676104290.3158712,122,0,0,,0.42724866981185977,0.42724866981185977,0.2
1676104290.3199522,123,0,0,,0.4272375763328746,0.4272375763328746,0.2
1676104290.3301342,124,0,0,,0.4272377468283847,0.4272377468283847,0.2
1676104290.3402743,125,0,0,,0.427236917600222,0.427236917600222,0.2
1676104290.3505332,126,0,0,,0.42723372993789616,0.42723372993789616,0.2
1676104290.3607082,127,0,0,,0.4272328542109579,0.4272328542109579,0.2
1676104290.3730245,128,0,0,,0.42723366018973297,0.42723366018973297,0.2
1676104290.3801074,129,0,0,,0.4272024888728932,0.4272024888728932,0.2
1676104290.391451,130,0,0,,0.42720278336513795,0.42720278336513795,0.2
1676104290.400325,131,0,0,,0.42720238037575037,0.42720238037575037,0.2
1676104290.4097922,132,0,0,,0.42719846285391605,0.42719846285391605,0.2
1676104290.4203851,133,0,0,,0.42724629928909247,0.42724629928909247,0.2
1676104290.4299457,134,0,0,,0.42724611329399054,0.42724611329399054,0.2
1676104290.440211,135,0,0,,0.4272469115229696,0.4272469115229696,0.2
1676104290.456552,136,0,0,,0.427193734189272,0.427193734189272,0.2
1676104290.4610949,137,0,0,,0.427190859014988,0.427190859014988,0.2
1676104290.4714093,138,0,0,,0.42719239734947684,0.42719239734947684,0.2
1676104290.4800315,139,0,0,,0.42715281005356465,0.42715281005356465,0.2
1676104290.4901314,140,0,0,,0.4271518490788713,0.4271518490788713,0.2
1676104290.4998622,141,0,0,,0.42714931102070963,0.42714931102070963,0.2
1676104290.5120866,142,0,0,,0.427110362800397,0.427110362800397,0.2
1676104290.5204997,143,0,0,,0.42711257149223236,0.42711257149223236,0.2
1676104290.5299506,144,0,0,,0.4271103046769276,0.4271103046769276,0.2
1676104290.5407116,145,0,0,,0.4271135750908033,0.4271135750908033,0.2
1676104290.5517528,146,0,0,,0.42716945652656263,0.42716945652656263,0.2
1676104290.5601077,147,0,0,,0.42716891791574657,0.42716891791574657,0.2
1676104290.570181,148,0,0,,0.427170138508603,0.427170138508603,0.2
1676104290.5816839,149,0,0,,0.42715406156640506,0.42715406156640506,0.2
1676104290.593105,150,0,0,,0.4271563865051791,0.4271563865051791,0.2
1676104290.6003985,151,0,0,,0.4271547202990577,0.4271547202990577,0.2
1676104290.6116703,152,0,0,,0.4271246383936331,0.4271246383936331,0.2
1676104290.6219282,153,0,0,,0.4271227513183281,0.4271227513183281,0.2
1676104290.6295004,154,0,0,,0.4271257621140406,0.4271257621140406,0.2
1676104290.6400206,155,0,0,,0.4271229683126137,0.4271229683126137,0.2
1676104290.6530092,156,0,0,,0.42715303042672575,0.42715303042672575,0.2
1676104290.6603055,157,0,0,,0.4271516703375429,0.4271516703375429,0.2
1676104290.6702511,158,0,0,,0.4271539681520313,0.4271539681520313,0.2
1676104290.6821392,159,0,0,,0.42716005304303023,0.42716005304303023,0.2
1676104290.6903598,160,0,0,,0.4271596810528264,0.4271596810528264,0.2
1676104290.7002597,161,0,0,,0.42716196724262095,0.42716196724262095,0.2
1676104290.7126718,162,0,0,,0.42716196724262095,0.42716196724262095,0.2
1676104290.7212985,163,0,0,,0.4271829104288668,0.4271829104288668,0.2
1676104290.7339618,164,0,0,,0.4271849253758043,0.4271849253758043,0.2
1676104290.739441,165,0,0,,0.4271851423700899,0.4271851423700899,0.2
1676104290.7514508,166,0,0,,0.4272132883951068,0.4272132883951068,0.2
1676104290.7603307,167,0,0,,0.4272148964777589,0.4272148964777589,0.2
1676104290.770502,168,0,0,,0.4272135983869434,0.4272135983869434,0.2
1676104290.779724,169,0,0,,0.4272564287254587,0.4272564287254587,0.2
1676104290.7916331,170,0,0,,0.4272568859634176,0.4272568859634176,0.2
1676104290.799956,171,0,0,,0.42725755244586616,0.42725755244586616,0.2
1676104290.8114533,172,0,0,,0.42725372017178687,0.42725372017178687,0.2
1676104290.8203523,173,0,0,,0.4272741166596115,0.4272741166596115,0.2
1676104290.8323646,174,0,0,,0.4272778714357317,0.4272778714357317,0.2
1676104290.8401897,175,0,0,,0.4272779760579765,0.4272779760579765,0.2
1676104290.8531773,176,0,0,,0.4272705115574599,0.4272705115574599,0.2
1676104290.8608668,177,0,0,,0.42726776425480845,0.42726776425480845,0.2
1676104290.8701978,178,0,0,,0.42726984894990927,0.42726984894990927,0.2
1676104290.8808143,179,0,0,,0.4272763731791452,0.4272763731791452,0.2
1676104290.8906555,180,0,0,,0.4272763344301656,0.4272763344301656,0.2
1676104290.90065,181,0,0,,0.4272779812617973,0.4272779812617973,0.2
1676104290.9155762,182,0,0,,0.42728073822498325,0.42728073822498325,0.2
1676104290.9202185,183,0,0,,0.42728131558477883,0.42728131558477883,0.2
1676104290.9297135,184,0,0,,0.42728029648661614,0.42728029648661614,0.2
1676104290.9400187,185,0,0,,0.427280133740902,0.427280133740902,0.2
1676104290.9504857,186,0,0,,0.42732267759220677,0.42732267759220677,0.2
1676104290.9617202,187,0,0,,0.4273213678766974,0.4273213678766974,0.2
1676104290.9711697,188,0,0,,0.4273198450418003,0.4273198450418003,0.2
1676104290.9800482,189,0,0,,0.42730871138507504,0.42730871138507504,0.2
1676104290.9901135,190,0,0,,0.42730878500813624,0.42730878500813624,0.2
1676104290.999762,191,0,0,,0.4273095406132378,0.4273095406132378,0.2
1676104291.0125353,192,0,0,,0.4273344421032444,0.4273344421032444,0.2
1676104291.0202975,193,0,0,,0.4273297999754921,0.4273297999754921,0.2
1676104291.0298815,194,0,0,,0.4273367592922226,0.4273367592922226,0.2
1676104291.039984,195,0,0,,0.4273353875783459,0.4273353875783459,0.2
1676104291.0514803,196,0,0,,0.4273525201904774,0.4273525201904774,0.2
1676104291.059854,197,0,0,,0.4273499627578259,0.4273499627578259,0.2
1676104291.0718818,198,0,0,,0.4273505091184378,0.4273505091184378,0.2
1676104291.0865703,199,0,0,,0.4273831318035722,0.4273831318035722,0.2
1676104291.0916076,200,0,0,,0.4273800047609211,0.4273800047609211,0.2
1676104291.1009374,201,0,0,,0.4273832790496946,0.4273832790496946,0.2
1676104291.1140757,202,0,0,,0.4273870284114592,0.4273870284114592,0.2
1676104291.1206007,203,0,0,,0.4273907831875794,0.4273907831875794,0.2
1676104291.130792,204,0,0,,0.4273868307916634,0.4273868307916634,0.2
1676104291.142179,205,0,0,,0.4273898183379881,0.4273898183379881,0.2
1676104291.1533623,206,0,0,,0.4273768754734472,0.4273768754734472,0.2
1676104291.160531,207,0,0,,0.42737915778834373,0.42737915778834373,0.2
1676104291.1708336,208,0,0,,0.4273804907532409,0.4273804907532409,0.2
1676104291.1809704,209,0,0,,0.4274645966089703,0.4274645966089703,0.2
1676104291.190812,210,0,0,,0.4274665883065201,0.4274665883065201,0.2
1676104291.1999962,211,0,0,,0.42746529796550053,0.42746529796550053,0.2
1676104291.2154472,212,0,0,,0.42752845700561537,0.42752845700561537,0.2
1676104291.2204783,213,0,0,,0.42752902661561504,0.42752902661561504,0.2
1676104291.2311413,214,0,0,,0.42752680242418784,0.42752680242418784,0.2
1676104291.2417395,215,0,0,,0.4275251749670459,0.4275251749670459,0.2
1676104291.2501183,216,0,0,,0.4275152469973127,0.4275152469973127,0.2
1676104291.2597473,217,0,0,,0.42751096910996833,0.42751096910996833,0.2
1676104291.27128,218,0,0,,0.4275118254624168,0.4275118254624168,0.2
1676104291.284558,219,0,0,,0.4275150881264964,0.4275150881264964,0.2
1676104291.2900474,220,0,0,,0.42744699908446987,0.42744699908446987,0.2
1676104291.300796,221,0,0,,0.42744693321120464,0.42744693321120464,0.2
1676104291.3148305,222,0,0,,0.42744716570508207,0.42744716570508207,0.2
1676104291.3205805,223,0,0,,0.42743119083031084,0.42743119083031084,0.2
1676104291.3307295,224,0,0,,0.4274316093192902,0.4274316093192902,0.2
1676104291.340541,225,0,0,,0.4274341551272478,0.4274341551272478,0.2
1676104291.3543024,226,0,0,,0.42741004292898815,0.42741004292898815,0.2
1676104291.3605626,227,0,0,,0.4274048311912362,0.4274048311912362,0.2
1676104291.3716278,228,0,0,,0.42740881458633584,0.42740881458633584,0.2
1676104291.3806477,229,0,0,,0.4273961053449475,0.4273961053449475,0.2
1676104291.3903399,230,0,0,,0.4273959774733149,0.4273959774733149,0.2
1676104291.4003596,231,0,0,,0.4273930984241329,0.4273930984241329,0.2
1676104291.4146216,232,0,0,,0.4273946406335198,0.4273946406335198,0.2
1676104291.4197044,233,0,0,,0.4274015142435674,0.4274015142435674,0.2
1676104291.4298809,234,0,0,,0.427401010506833,0.427401010506833,0.2
1676104291.4402916,235,0,0,,0.4274003285247926,0.4274003285247926,0.2
1676104291.453665,236,0,0,,0.4273500816878304,0.4273500816878304,0.2
1676104291.4615107,237,0,0,,0.42734597429599613,0.42734597429599613,0.2
1676104291.4700363,238,0,0,,0.4273480938651786,0.4273480938651786,0.2
1676104291.4805498,239,0,0,,0.4273688082990796,0.4273688082990796,0.2
1676104291.4910834,240,0,0,,0.4273677892009169,0.4273677892009169,0.2
1676104291.500195,241,0,0,,0.4273708929941804,0.4273708929941804,0.2
1676104291.5133162,242,0,0,,0.42736878117479393,0.42736878117479393,0.2
1676104291.5204153,243,0,0,,0.427388118720986,0.427388118720986,0.2
1676104291.5308783,244,0,0,,0.42738899832282223,0.42738899832282223,0.2
1676104291.5414157,245,0,0,,0.427391265138127,0.427391265138127,0.2
1676104291.550109,246,0,0,,0.4273837783288397,0.4273837783288397,0.2
1676104291.5597763,247,0,0,,0.42738100390190265,0.42738100390190265,0.2
1676104291.5713997,248,0,0,,0.42738284447843217,0.42738284447843217,0.2
1676104291.5812142,249,0,0,,0.42745506079534534,0.42745506079534534,0.2
1676104291.5910172,250,0,0,,0.42745527391473304,0.42745527391473304,0.2
1676104291.6002812,251,0,0,,0.4274553242884065,0.4274553242884065,0.2
1676104291.617536,252,0,0,,0.4274695044708299,0.4274695044708299,0.2
1676104291.6254897,253,0,0,,0.4274723486459302,0.4274723486459302,0.2
1676104291.6302216,254,0,0,,0.42747094205797187,0.42747094205797187,0.2
1676104291.6400018,255,0,0,,0.4274729260057258,0.4274729260057258,0.2
1676104291.6539292,256,0,0,,0.4274898943785904,0.4274898943785904,0.2
1676104291.660964,257,0,0,,0.4274835976694105,0.4274835976694105,0.2
1676104291.6696794,258,0,0,,0.4274885536638974,0.4274885536638974,0.2
1676104291.6800764,259,0,0,,0.42752096663592853,0.42752096663592853,0.2
1676104291.6941223,260,0,0,,0.4275238069361309,0.4275238069361309,0.2
1676104291.7000954,261,0,0,,0.42752648061572107,0.42752648061572107,0.2
1676104291.7131956,262,0,0,,0.4275249732804159,0.4275249732804159,0.2
1676104291.7199483,263,0,0,,0.4275117762979772,0.4275117762979772,0.2
1676104291.7313287,264,0,0,,0.42751519395797516,0.42751519395797516,0.2
1676104291.740602,265,0,0,,0.427517449148586,0.427517449148586,0.2
1676104291.750604,266,0,0,,0.4274700742905774,0.4274700742905774,0.2
1676104291.76037,267,0,0,,0.42746949305588383,0.42746949305588383,0.2
1676104291.773674,268,0,0,,0.4274695511793532,0.4274695511793532,0.2
1676104291.7805514,269,0,0,,0.42749393569182953,0.42749393569182953,0.2
1676104291.7901723,270,0,0,,0.4274942379338702,0.4274942379338702,0.2
1676104291.8011386,271,0,0,,0.42749504003774724,0.42749504003774724,0.2
1676104291.8117864,272,0,0,,0.4274946486730536,0.4274946486730536,0.2
1676104291.8206494,273,0,0,,0.42748695324390545,0.42748695324390545,0.2
1676104291.8336806,274,0,0,,0.42748669750064033,0.42748669750064033,0.2
1676104291.8402166,275,0,0,,0.4274868331220688,0.4274868331220688,0.2
1676104291.850859,276,0,0,,0.4274950659205154,0.4274950659205154,0.2
1676104291.8600092,277,0,0,,0.42749271773235353,0.42749271773235353,0.2
1676104291.874912,278,0,0,,0.4274909817780688,0.4274909817780688,0.2
1676104291.8817887,279,0,0,,0.4274920320692135,0.4274920320692135,0.2
1676104291.891314,280,0,0,,0.4274881920453383,0.4274881920453383,0.2
1676104291.9003243,281,0,0,,0.42748918789411317,0.42748918789411317,0.2
1676104291.9126322,282,0,0,,0.4274879750510527,0.4274879750510527,0.2
1676104291.9208229,283,0,0,,0.4274290523015243,0.4274290523015243,0.2
1676104291.929946,284,0,0,,0.4274314159892779,0.4274314159892779,0.2
1676104291.9410832,285,0,0,,0.42743046663927853,0.42743046663927853,0.2
1676104291.9499283,286,0,0,,0.4274420670077298,0.4274420670077298,0.2
1676104291.9603386,287,0,0,,0.4274402070567105,0.4274402070567105,0.2
1676104291.9767575,288,0,0,,0.4274427063658927,0.4274427063658927,0.2
1676104291.9807458,289,0,0,,0.4274540028414317,0.4274540028414317,0.2
1676104291.9900846,290,0,0,,0.4274512632885762,0.4274512632885762,0.2
1676104292.0010655,291,0,0,,0.4274538594702073,0.4274538594702073,0.2
1676104292.0138857,292,0,0,,0.4274696203241451,0.4274696203241451,0.2
1676104292.0195644,293,0,0,,0.4274697791949613,0.4274697791949613,0.2
1676104292.0305548,294,0,0,,0.42746987994230823,0.42746987994230823,0.2
1676104292.0426602,295,0,0,,0.42746974044598174,0.42746974044598174,0.2
1676104292.0502088,296,0,0,,0.4274542636836274,0.4274542636836274,0.2
1676104292.0604146,297,0,0,,0.4274543838054641,0.4274543838054641,0.2
1676104292.0719087,298,0,0,,0.4274560112626059,0.4274560112626059,0.2
1676104292.0799892,299,0,0,,0.42745012466134974,0.42745012466134974,0.2
1676104292.0906193,300,0,0,,0.427456208251142,0.427456208251142,0.2
1676104292.1001718,301,0,0,,0.4274552434015507,0.4274552434015507,0.2
1676104292.1117892,302,0,0,,0.42745306570889896,0.42745306570889896,0.2
1676104292.1211786,303,0,0,,0.4274675463050558,0.4274675463050558,0.2
1676104292.1304317,304,0,0,,0.42746254768669145,0.42746254768669145,0.2
1676104292.145301,305,0,0,,0.42746254768669145,0.42746254768669145,0.2
1676104292.1539714,306,0,0,,0.4274677831325168,0.4274677831325168,0.2
1676104292.1607792,307,0,0,,0.42747328548761554,0.42747328548761554,0.2
1676104292.1704206,308,0,0,,0.4274722043910856,0.4274722043910856,0.2
1676104292.181937,309,0,0,,0.4274738251064998,0.4274738251064998,0.2
1676104292.1908245,310,0,0,,0.4274756540583353,0.4274756540583353,0.2
1676104292.2008224,311,0,0,,0.4274774946348649,0.4274774946348649,0.2
1676104292.2144432,312,0,0,,0.4274750650738459,0.4274750650738459,0.2
1676104292.2204938,313,0,0,,0.42751740825943185,0.42751740825943185,0.2
1676104292.230625,314,0,0,,0.4275185901033087,0.4275185901033087,0.2
1676104292.2402856,315,0,0,,0.42751522669188213,0.42751522669188213,0.2
1676104292.251905,316,0,0,,0.427522448493531,0.427522448493531,0.2
1676104292.2602286,317,0,0,,0.4275256607839372,0.4275256607839372,0.2
1676104292.270956,318,0,0,,0.4275218052604701,0.4275218052604701,0.2
1676104292.2796063,319,0,0,,0.4275296528029582,0.4275296528029582,0.2
1676104292.295387,320,0,0,,0.4275309935176512,0.4275309935176512,0.2
1676104292.299552,321,0,0,,0.42752761848153087,0.42752761848153087,0.2
1676104292.311496,322,0,0,,0.4275567985436041,0.4275567985436041,0.2
1676104292.3204122,323,0,0,,0.42755683341768574,0.42755683341768574,0.2
1676104292.3305507,324,0,0,,0.42755683341768574,0.42755683341768574,0.2
1676104292.340689,325,0,0,,0.42755817800727675,0.42755817800727675,0.2
1676104292.3545728,326,0,0,,0.42755996724141765,0.42755996724141765,0.2
1676104292.3603327,327,0,0,,0.427557599678766,0.427557599678766,0.2
1676104292.3713768,328,0,0,,0.4275560303450935,0.4275560303450935,0.2
1676104292.379743,329,0,0,,0.42756443826835605,0.42756443826835605,0.2
1676104292.390438,330,0,0,,0.4275638337842748,0.4275638337842748,0.2
1676104292.4005709,331,0,0,,0.42756718944590544,0.42756718944590544,0.2
1676104292.412122,332,0,0,,0.42756506212692713,0.42756506212692713,0.2
1676104292.4200847,333,0,0,,0.42760312638957054,0.42760312638957054,0.2
1676104292.4299424,334,0,0,,0.42760233978528533,0.42760233978528533,0.2
1676104292.4404786,335,0,0,,0.427602366909571,0.427602366909571,0.2
1676104292.4504347,336,0,0,,0.4276356967107952,0.4276356967107952,0.2
1676104292.4595146,337,0,0,,0.4276341467516125,0.4276341467516125,0.2
1676104292.469972,338,0,0,,0.42763437924548986,0.42763437924548986,0.2
1676104292.4810402,339,0,0,,0.42755824014056476,0.42755824014056476,0.2
1676104292.4902985,340,0,0,,0.4275595227317885,0.4275595227317885,0.2
1676104292.5005538,341,0,0,,0.4275598637228087,0.4275598637228087,0.2
1676104292.5110557,342,0,0,,0.4275615919272975,0.4275615919272975,0.2
1676104292.520408,343,0,0,,0.4275703095308505,0.4275703095308505,0.2
1676104292.5305142,344,0,0,,0.42757172386860476,0.42757172386860476,0.2
1676104292.5403817,345,0,0,,0.4275710651359521,0.4275710651359521,0.2
1676104292.5502605,346,0,0,,0.42752305953298697,0.42752305953298697,0.2
1676104292.5599988,347,0,0,,0.427521447575437,0.427521447575437,0.2
1676104292.5706463,348,0,0,,0.4275219706866611,0.4275219706866611,0.2
1676104292.581268,349,0,0,,0.4276048491110094,0.4276048491110094,0.2
1676104292.5903833,350,0,0,,0.4276090804995783,0.4276090804995783,0.2
1676104292.6005325,351,0,0,,0.4276095493622311,0.4276095493622311,0.2
1676104292.6114292,352,0,0,,0.4276158986818977,0.4276158986818977,0.2
1676104292.6205199,353,0,0,,0.42761713477434593,0.42761713477434593,0.2
1676104292.6300423,354,0,0,,0.4276122872770019,0.4276122872770019,0.2
1676104292.6400735,355,0,0,,0.42760962522210555,0.42760962522210555,0.2
1676104292.650023,356,0,0,,0.4276494135141373,0.4276494135141373,0.2
1676104292.660729,357,0,0,,0.4276498358780146,0.4276498358780146,0.2
1676104292.6704676,358,0,0,,0.42765301716923715,0.42765301716923715,0.2
1676104292.6798916,359,0,0,,0.42763322367802264,0.42763322367802264,0.2
1676104292.690968,360,0,0,,0.42763485113516453,0.42763485113516453,0.2
1676104292.7002459,361,0,0,,0.4276351378776133,0.4276351378776133,0.2
1676104292.7115965,362,0,0,,0.427634719388634,0.427634719388634,0.2
1676104292.7200913,363,0,0,,0.42757582668175925,0.42757582668175925,0.2
1676104292.7319741,364,0,0,,0.42757582668175925,0.42757582668175925,0.2
1676104292.7473443,365,0,0,,0.4275726647650264,0.4275726647650264,0.2
1676104292.754859,366,0,0,,0.42757343811190696,0.42757343811190696,0.2
1676104292.7599964,367,0,0,,0.4275721051470098,0.4275721051470098,0.2
1676104292.7703178,368,0,0,,0.42757052031374543,0.42757052031374543,0.2
1676104292.7806273,369,0,0,,0.42756590460471816,0.42756590460471816,0.2
1676104292.7903168,370,0,0,,0.4275650598769635,0.4275650598769635,0.2
1676104292.8002925,371,0,0,,0.4275645832645148,0.4275645832645148,0.2
1676104292.812038,372,0,0,,0.427565827106759,0.427565827106759,0.2
1676104292.820579,373,0,0,,0.4275821903894935,0.4275821903894935,0.2
1676104292.8304935,374,0,0,,0.4275810511694942,0.4275810511694942,0.2
1676104292.839427,375,0,0,,0.42758044668541295,0.42758044668541295,0.2
1676104292.8532481,376,0,0,,0.4275872078072839,0.4275872078072839,0.2
1676104292.859967,377,0,0,,0.4275864948260598,0.4275864948260598,0.2
1676104292.8738773,378,0,0,,0.42758941262422134,0.42758941262422134,0.2
1676104292.8803113,379,0,0,,0.42756754392394797,0.42756754392394797,0.2
1676104292.8901958,380,0,0,,0.4275685475225188,0.4275685475225188,0.2
1676104292.900015,381,0,0,,0.42756699756333605,0.42756699756333605,0.2
1676104292.912971,382,0,0,,0.4275675167996623,0.4275675167996623,0.2
1676104292.9201632,383,0,0,,0.427536249367795,0.427536249367795,0.2
1676104292.930137,384,0,0,,0.4275335330643273,0.4275335330643273,0.2
1676104292.941947,385,0,0,,0.4275349745263672,0.4275349745263672,0.2
1676104292.9508522,386,0,0,,0.42749110160135084,0.42749110160135084,0.2
1676104292.9605825,387,0,0,,0.42749110160135084,0.42749110160135084,0.2
1676104292.9721258,388,0,0,,0.42749110160135084,0.42749110160135084,0.2
1676104292.988086,389,0,0,,0.4274285929753911,0.4274285929753911,0.2
1676104292.9904635,390,0,0,,0.4274285348519218,0.4274285348519218,0.2
1676104293.000172,391,0,0,,0.42742704689110633,0.42742704689110633,0.2
1676104293.0118842,392,0,0,,0.4273917244670168,0.4273917244670168,0.2
1676104293.0203798,393,0,0,,0.42739352629456673,0.42739352629456673,0.2
1676104293.0299826,394,0,0,,0.42739163534436375,0.42739163534436375,0.2
1676104293.0399816,395,0,0,,0.4273945880166069,0.4273945880166069,0.2
1676104293.0500796,396,0,0,,0.42740142156838445,0.42740142156838445,0.2
1676104293.060094,397,0,0,,0.4274012123238948,0.4274012123238948,0.2
1676104293.0707579,398,0,0,,0.4274014331930783,0.4274014331930783,0.2
1676104293.0799768,399,0,0,,0.4274494428656064,0.4274494428656064,0.2
1676104293.09006,400,0,0,,0.427448315270301,0.427448315270301,0.2
1676104293.1002922,401,0,0,,0.42744719154989347,0.42744719154989347,0.2
1676104293.111447,402,0,0,,0.4274476604125463,0.4274476604125463,0.2
1676104293.120462,403,0,0,,0.42746229168586436,0.42746229168586436,0.2
1676104293.1295598,404,0,0,,0.42746573259525006,0.42746573259525006,0.2
1676104293.1412606,405,0,0,,0.4274656628470868,0.4274656628470868,0.2
1676104293.1502314,406,0,0,,0.4273964887644351,0.4273964887644351,0.2
1676104293.1606023,407,0,0,,0.4273971513719857,0.4273971513719857,0.2
1676104293.1703596,408,0,0,,0.42739450869157913,0.42739450869157913,0.2
1676104293.1799219,409,0,0,,0.4273681138288789,0.4273681138288789,0.2
1676104293.1904676,410,0,0,,0.4273688539343886,0.4273688539343886,0.2
1676104293.2002559,411,0,0,,0.4273677185892873,0.4273677185892873,0.2
1676104293.21398,412,0,0,,0.4273698846572451,0.4273698846572451,0.2
1676104293.220793,413,0,0,,0.427336927578561,0.427336927578561,0.2
1676104293.230656,414,0,0,,0.42733848916243766,0.42733848916243766,0.2
1676104293.2404137,415,0,0,,0.42733626884590836,0.42733626884590836,0.2
1676104293.2513702,416,0,0,,0.4273308293467015,0.4273308293467015,0.2
1676104293.260682,417,0,0,,0.42733123233608905,0.42733123233608905,0.2
1676104293.270375,418,0,0,,0.4273270280718059,0.4273270280718059,0.2
1676104293.2794118,419,0,0,,0.4273278116688878,0.4273278116688878,0.2
1676104293.29048,420,0,0,,0.42732792404092845,0.42732792404092845,0.2
1676104293.3001404,421,0,0,,0.42732827665664264,0.42732827665664264,0.2
1676104293.313674,422,0,0,,0.42732991961337624,0.42732991961337624,0.2
1676104293.3210945,423,0,0,,0.42739037732899193,0.42739037732899193,0.2
1676104293.3316052,424,0,0,,0.42739010221123697,0.42739010221123697,0.2
1676104293.3404665,425,0,0,,0.4273911251842976,0.4273911251842976,0.2
1676104293.350815,426,0,0,,0.42734352746406573,0.42734352746406573,0.2
1676104293.3597682,427,0,0,,0.42734352746406573,0.42734352746406573,0.2
1676104293.3723295,428,0,0,,0.42734239986876027,0.42734239986876027,0.2
1676104293.3798428,429,0,0,,0.4273385097712279,0.4273385097712279,0.2
1676104293.390438,430,0,0,,0.42734037359714505,0.42734037359714505,0.2
1676104293.400268,431,0,0,,0.42734037359714505,0.42734037359714505,0.2
1676104293.416879,432,0,0,,0.4273392305022478,0.4273392305022478,0.2
1676104293.4206688,433,0,0,,0.4273218341945857,0.4273218341945857,0.2
1676104293.4295564,434,0,0,,0.42732351590029904,0.42732351590029904,0.2
1676104293.4407616,435,0,0,,0.4273227757947892,0.4273227757947892,0.2
1676104293.4497507,436,0,0,,0.4273032461385057,0.4273032461385057,0.2
1676104293.460372,437,0,0,,0.4273012234417722,0.4273012234417722,0.2
1676104293.470376,438,0,0,,0.4273004678366706,0.4273004678366706,0.2
1676104293.481382,439,0,0,,0.4272923238486424,0.4272923238486424,0.2
1676104293.4905467,440,0,0,,0.4272923974717036,0.4272923974717036,0.2
1676104293.5003004,441,0,0,,0.4272933080727235,0.4272933080727235,0.2
1676104293.5112872,442,0,0,,0.4273271967942454,0.4273271967942454,0.2
1676104293.5205557,443,0,0,,0.42732804539689795,0.42732804539689795,0.2
1676104293.5307863,444,0,0,,0.42732717354485766,0.42732717354485766,0.2
1676104293.539504,445,0,0,,0.42732888237485667,0.42732888237485667,0.2
1676104293.5498853,446,0,0,,0.4272966486917064,0.4272966486917064,0.2
1676104293.559992,447,0,0,,0.42729640844803307,0.42729640844803307,0.2
1676104293.5704963,448,0,0,,0.4272962457023189,0.4272962457023189,0.2
1676104293.5803268,449,0,0,,0.42728872714210303,0.42728872714210303,0.2
1676104293.5906425,450,0,0,,0.42728752204883846,0.42728752204883846,0.2
1676104293.600841,451,0,0,,0.42728980436373504,0.42728980436373504,0.2
1676104293.6118438,452,0,0,,0.42725007808431986,0.42725007808431986,0.2
1676104293.6205401,453,0,0,,0.4272489659886063,0.4272489659886063,0.2
1676104293.6315677,454,0,0,,0.4272514924220741,0.4272514924220741,0.2
1676104293.639659,455,0,0,,0.4272499269632995,0.4272499269632995,0.2
1676104293.6551945,456,0,0,,0.4272006435567513,0.4272006435567513,0.2
1676104293.6610444,457,0,0,,0.42720402246776973,0.42720402246776973,0.2
1676104293.670339,458,0,0,,0.4272038015985862,0.4272038015985862,0.2
1676104293.6801984,459,0,0,,0.4271770866826922,0.4271770866826922,0.2
1676104293.6919975,460,0,0,,0.4271801323524863,0.4271801323524863,0.2
1676104293.7012982,461,0,0,,0.4271796557400376,0.4271796557400376,0.2
1676104293.710181,462,0,0,,0.42718139944411815,0.42718139944411815,0.2
1676104293.7198799,463,0,0,,0.42715205983471133,0.42715205983471133,0.2
1676104293.730822,464,0,0,,0.4271501805092022,0.4271501805092022,0.2
1676104293.7401464,465,0,0,,0.4271499363906309,0.4271499363906309,0.2
1676104293.7506282,466,0,0,,0.42718167496871207,0.42718167496871207,0.2
1676104293.7596714,467,0,0,,0.42718284906279297,0.42718284906279297,0.2
1676104293.769931,468,0,0,,0.42718322492789484,0.42718322492789484,0.2
1676104293.7800477,469,0,0,,0.42718625982876873,0.42718625982876873,0.2
1676104293.7913616,470,0,0,,0.42718625982876873,0.42718625982876873,0.2
1676104293.801169,471,0,0,,0.4271862055801973,0.4271862055801973,0.2
1676104293.8110363,472,0,0,,0.4271839310150966,0.4271839310150966,0.2
1676104293.821509,473,0,0,,0.42713401195496326,0.42713401195496326,0.2
1676104293.8306553,474,0,0,,0.4271316056433321,0.4271316056433321,0.2
1676104293.8404896,475,0,0,,0.4271316056433321,0.4271316056433321,0.2
1676104293.8551338,476,0,0,,0.4270801591971517,0.4270801591971517,0.2
1676104293.8601024,477,0,0,,0.4270822206428647,0.4270822206428647,0.2
1676104293.8716142,478,0,0,,0.4270787022355199,0.4270787022355199,0.2
1676104293.8808458,479,0,0,,0.42710169133350256,0.42710169133350256,0.2
1676104293.8902755,480,0,0,,0.42710136196717624,0.42710136196717624,0.2
1676104293.9002721,481,0,0,,0.4270998740063608,0.4270998740063608,0.2
1676104293.91208,482,0,0,,0.4271011565975845,0.4271011565975845,0.2
1676104293.9198997,483,0,0,,0.42713925379104917,0.42713925379104917,0.2
1676104293.9303365,484,0,0,,0.4271392499161512,0.4271392499161512,0.2
1676104293.940125,485,0,0,,0.42713851756043736,0.42713851756043736,0.2
1676104293.9502094,486,0,0,,0.4274461969704554,0.4274461969704554,0.2
1676104293.9600487,487,0,0,,0.4274424886931107,0.4274424886931107,0.2
1676104293.972925,488,0,0,,0.42744643721412867,0.42744643721412867,0.2
1676104293.9808002,489,0,0,,0.42723763332083825,0.42723763332083825,0.2
1676104293.9907017,490,0,0,,0.42723867566838863,0.42723867566838863,0.2
1676104294.0007648,491,0,0,,0.42723973351553085,0.42723973351553085,0.2
1676104294.0107641,492,0,0,,0.42723561837390067,0.42723561837390067,0.2
1676104294.0196369,493,0,0,,0.42664598184689884,0.42664598184689884,0.2
1676104294.0329015,494,0,0,,0.42665036823138597,0.42665036823138597,0.2
1676104294.0398602,495,0,0,,0.42665036823138597,0.42665036823138597,0.2
1676104294.0568259,496,0,0,,0.4264050211465359,0.4264050211465359,0.2
1676104294.0595796,497,0,0,,0.42642205519795423,0.42642205519795423,0.2
1676104294.0697608,498,0,0,,0.42643249611049894,0.42643249611049894,0.2
1676104294.0815685,499,0,0,,0.42569562221944335,0.42569562221944335,0.2
1676104294.0916228,500,0,0,,0.42570677417576314,0.42570677417576314,0.2
1676104294.099806,501,0,0,,0.4257012640708685,0.4257012640708685,0.2
1676104294.1149065,502,0,0,,0.42570007447719577,0.42570007447719577,0.2
1676104294.1207104,503,0,0,,0.42607645546600226,0.42607645546600226,0.2
1676104294.1307826,504,0,0,,0.4260773854415119,0.4260773854415119,0.2
1676104294.1403546,505,0,0,,0.4260771606974304,0.4260771606974304,0.2
1676104294.15417,506,0,0,,0.4263262674045563,0.4263262674045563,0.2
1676104294.159625,507,0,0,,0.42631412928670653,0.42631412928670653,0.2
1676104294.1699538,508,0,0,,0.4263063523665071,0.4263063523665071,0.2
1676104294.1802619,509,0,0,,0.42690788536749785,0.42690788536749785,0.2
1676104294.1898332,510,0,0,,0.42691153745882215,0.42691153745882215,0.2
1676104294.2003355,511,0,0,,0.4269145966907591,0.4269145966907591,0.2
1676104294.215848,512,0,0,,0.4269148039977998,0.4269148039977998,0.2
1676104294.2231405,513,0,0,,0.4270029558415711,0.4270029558415711,0.2
1676104294.2306614,514,0,0,,0.42699979973718527,0.42699979973718527,0.2
1676104294.2401233,515,0,0,,0.42700000316932796,0.42700000316932796,0.2
1676104294.250659,516,0,0,,0.4275421938507643,0.4275421938507643,0.2
1676104294.2603097,517,0,0,,0.42754109337974455,0.42754109337974455,0.2
1676104294.2699006,518,0,0,,0.427542133789846,0.427542133789846,0.2
1676104294.2805245,519,0,0,,0.42696476255923516,0.42696476255923516,0.2
1676104294.2907267,520,0,0,,0.42696476255923516,0.42696476255923516,0.2
1676104294.3098052,521,0,0,,0.4269630789160729,0.4269630789160729,0.2
1676104294.3185468,522,0,0,,0.42696950155943636,0.42696950155943636,0.2
1676104294.3215196,523,0,0,,0.4275023600256164,0.4275023600256164,0.2
1676104294.3299382,524,0,0,,0.4275014668616373,0.4275014668616373,0.2
1676104294.340331,525,0,0,,0.4275038576736767,0.4275038576736767,0.2
1676104294.350222,526,0,0,,0.4272591191898287,0.4272591191898287,0.2
1676104294.3603802,527,0,0,,0.42725318284615876,0.42725318284615876,0.2
1676104294.3709745,528,0,0,,0.4272578172241152,0.4272578172241152,0.2
1676104294.38465,529,0,0,,0.42747275210385216,0.42747275210385216,0.2
1676104294.3901951,530,0,0,,0.4274782467091549,0.4274782467091549,0.2
1676104294.400577,531,0,0,,0.4274689411417116,0.4274689411417116,0.2
1676104294.4127846,532,0,0,,0.42687654023662214,0.42687654023662214,0.2
1676104294.4202337,533,0,0,,0.42687654023662214,0.42687654023662214,0.2
1676104294.4304528,534,0,0,,0.42687654023662214,0.42687654023662214,0.2
1676104294.441968,535,0,0,,0.42687654023662214,0.42687654023662214,0.2
1676104294.4585311,536,0,0,,0.42752887938968376,0.42752887938968376,0.2
1676104294.4610293,537,0,0,,0.4275284512134595,0.4275284512134595,0.2
1676104294.4700103,538,0,0,,0.4275284512134595,0.4275284512134595,0.2
1676104294.4858096,539,0,0,,0.4273384871945531,0.4273384871945531,0.2
1676104294.4901845,540,0,0,,0.42733904324240984,0.42733904324240984,0.2
1676104294.4999037,541,0,0,,0.4273401553381235,0.4273401553381235,0.2
1676104294.512558,542,0,0,,0.4273401553381235,0.4273401553381235,0.2
1676104294.5207894,543,0,0,,0.42741376219311733,0.42741376219311733,0.2
1676104294.5298448,544,0,0,,0.4274120184890367,0.4274120184890367,0.2
1676104294.5399997,545,0,0,,0.42741417680719873,0.42741417680719873,0.2
1676104294.5553498,546,0,0,,0.4273017004410551,0.4273017004410551,0.2
1676104294.5601695,547,0,0,,0.42730392463248223,0.42730392463248223,0.2
1676104294.5706801,548,0,0,,0.42730441480707376,0.42730441480707376,0.2
1676104294.5811062,549,0,0,,0.4273065614721552,0.4273065614721552,0.2
1676104294.5903409,550,0,0,,0.4273099520078674,0.4273099520078674,0.2
1676104294.6000655,551,0,0,,0.4273099520078674,0.4273099520078674,0.2
1676104294.6199653,552,0,0,,0.4274302960632928,0.4274302960632928,0.2
1676104294.626678,553,0,0,,0.42743103810625155,0.42743103810625155,0.2
1676104294.629766,554,0,0,,0.427432167639006,0.427432167639006,0.2
1676104294.640177,555,0,0,,0.42742727558033544,0.42742727558033544,0.2
1676104294.655247,556,0,0,,0.4272360926056653,0.4272360926056653,0.2
1676104294.6602256,557,0,0,,0.4272285307423026,0.4272285307423026,0.2
1676104294.67066,558,0,0,,0.4272310862375051,0.4272310862375051,0.2
1676104294.6802127,559,0,0,,0.4273160951841995,0.4273160951841995,0.2
1676104294.689956,560,0,0,,0.4273187223650143,0.4273187223650143,0.2
1676104294.7006793,561,0,0,,0.42732344199072575,0.42732344199072575,0.2
1676104294.7145016,562,0,0,,0.4273173254643008,0.4273173254643008,0.2
1676104294.72085,563,0,0,,0.4271655205126107,0.4271655205126107,0.2
1676104294.730771,564,0,0,,0.4271682620029152,0.4271682620029152,0.2
1676104294.7400603,565,0,0,,0.42716802175924184,0.42716802175924184,0.2
1676104294.7504556,566,0,0,,0.42720391682028774,0.42720391682028774,0.2
1676104294.7601364,567,0,0,,0.4272034208333493,0.4272034208333493,0.2
1676104294.7699752,568,0,0,,0.4272004797858,0.4272004797858,0.2
1676104294.7802982,569,0,0,,0.42750453353127466,0.42750453353127466,0.2
1676104294.7896638,570,0,0,,0.4275035880561732,0.4275035880561732,0.2
1676104294.80044,571,0,0,,0.42750329356392847,0.42750329356392847,0.2
1676104294.813149,572,0,0,,0.4275005850102567,0.4275005850102567,0.2
1676104294.8201087,573,0,0,,0.42733764092743404,0.42733764092743404,0.2
1676104294.8314347,574,0,0,,0.42733751886814836,0.42733751886814836,0.2
1676104294.840263,575,0,0,,0.4273379024830461,0.4273379024830461,0.2
1676104294.8500335,576,0,0,,0.4270965161895752,0.4270965161895752,0.2
1676104294.8600354,577,0,0,,0.42709596595406535,0.42709596595406535,0.2
1676104294.8731058,578,0,0,,0.42709546996712683,0.42709546996712683,0.2
1676104294.8819823,579,0,0,,0.427560009331127,0.427560009331127,0.2
1676104294.8899057,580,0,0,,0.42755528776796653,0.42755528776796653,0.2
1676104294.9001667,581,0,0,,0.4275563494900067,0.4275563494900067,0.2
1676104294.9137769,582,0,0,,0.4275570004728635,0.4275570004728635,0.2
1676104294.9203215,583,0,0,,0.4272447022617609,0.4272447022617609,0.2
1676104294.930354,584,0,0,,0.4272459635410458,0.4272459635410458,0.2
1676104294.9468105,585,0,0,,0.4272460526636988,0.4272460526636988,0.2
1676104294.9564455,586,0,0,,0.4276928941187077,0.4276928941187077,0.2
1676104294.9606552,587,0,0,,0.4276933242323808,0.4276933242323808,0.2
1676104294.9698122,588,0,0,,0.42769240975646305,0.42769240975646305,0.2
1676104294.9818246,589,0,0,,0.42731822764433924,0.42731822764433924,0.2
1676104294.990457,590,0,0,,0.42731642969168726,0.42731642969168726,0.2
1676104295.00003,591,0,0,,0.42732018446780745,0.42732018446780745,0.2
1676104295.01777,592,0,0,,0.4273195296100527,0.4273195296100527,0.2
1676104295.0216038,593,0,0,,0.42727225388966505,0.42727225388966505,0.2
1676104295.0299385,594,0,0,,0.42726879941813656,0.42726879941813656,0.2
1676104295.0402951,595,0,0,,0.42726751101456584,0.42726751101456584,0.2
1676104295.0504856,596,0,0,,0.42734248755753046,0.42734248755753046,0.2
1676104295.0598798,597,0,0,,0.42734248755753046,0.42734248755753046,0.2
1676104295.0804627,598,0,0,,0.4273466104489565,0.4273466104489565,0.2
1676104295.0874407,599,0,0,,0.427256851980798,0.427256851980798,0.2
1676104295.092376,600,0,0,,0.4272559723789618,0.4272559723789618,0.2
1676104295.099957,601,0,0,,0.42725567594926805,0.42725567594926805,0.2
1676104295.1136518,602,0,0,,0.4272518785492704,0.4272518785492704,0.2
1676104295.119737,603,0,0,,0.42758155625158456,0.42758155625158456,0.2
1676104295.1299548,604,0,0,,0.4275803182216874,0.4275803182216874,0.2
1676104295.140453,605,0,0,,0.42757555209720044,0.42757555209720044,0.2
1676104295.1511636,606,0,0,,0.42729470979049805,0.42729470979049805,0.2
1676104295.1601255,607,0,0,,0.4272986040629447,0.4272986040629447,0.2
1676104295.1719427,608,0,0,,0.42729398324713114,0.42729398324713114,0.2
1676104295.1804745,609,0,0,,0.4271947156754881,0.4271947156754881,0.2
1676104295.1901793,610,0,0,,0.42718744636692113,0.42718744636692113,0.2
1676104295.2012393,611,0,0,,0.42718744636692113,0.42718744636692113,0.2
1676104295.2143102,612,0,0,,0.42752835086356616,0.42752835086356616,0.2
1676104295.2199776,613,0,0,,0.42752887009989243,0.42752887009989243,0.2
1676104295.2304964,614,0,0,,0.42752974776427966,0.42752974776427966,0.2
1676104295.23983,615,0,0,,0.4275285930446885,0.4275285930446885,0.2
1676104295.2502754,616,0,0,,0.42706522277683023,0.42706522277683023,0.2
1676104295.2602577,617,0,0,,0.42706408743172886,0.42706408743172886,0.2
1676104295.2729993,618,0,0,,0.42706473453968763,0.42706473453968763,0.2
1676104295.2815347,619,0,0,,0.42762300180604684,0.42762300180604684,0.2
1676104295.29036,620,0,0,,0.4276229475574755,0.4276229475574755,0.2
1676104295.2999053,621,0,0,,0.4276245382030867,0.4276245382030867,0.2
1676104295.3108754,622,0,0,,0.427442773063723,0.427442773063723,0.2
1676104295.3201692,623,0,0,,0.42744507862800735,0.42744507862800735,0.2
1676104295.3298793,624,0,0,,0.42744144009882584,0.42744144009882584,0.2
1676104295.3411715,625,0,0,,0.4274399579503574,0.4274399579503574,0.2
1676104295.3502276,626,0,0,,0.4275524540309905,0.4275524540309905,0.2
1676104295.3602173,627,0,0,,0.4275511636899709,0.4275511636899709,0.2
1676104295.3709362,628,0,0,,0.42755331232088795,0.42755331232088795,0.2
1676104295.3806539,629,0,0,,0.42766304974297065,0.42766304974297065,0.2
1676104295.3903003,630,0,0,,0.42766439045766375,0.42766439045766375,0.2
1676104295.3996227,631,0,0,,0.42766016681889074,0.42766016681889074,0.2
1676104295.413442,632,0,0,,0.42766016681889074,0.42766016681889074,0.2
1676104295.4276223,633,0,0,,0.4272866656660661,0.4272866656660661,0.2
1676104295.435384,634,0,0,,0.42728737670984124,0.42728737670984124,0.2
1676104295.4396853,635,0,0,,0.42729317549463364,0.42729317549463364,0.2
1676104295.4507122,636,0,0,,0.42776671151306483,0.42776671151306483,0.2
1676104295.4599125,637,0,0,,0.42776671151306483,0.42776671151306483,0.2
1676104295.4714992,638,0,0,,0.4277713575157151,0.4277713575157151,0.2
1676104295.4817843,639,0,0,,0.4209827903705836,0.4209827903705836,0.2
1676104295.490503,640,0,0,,0.42091280196368697,0.42091280196368697,0.2
1676104295.500399,641,0,0,,0.4205748333638907,0.4205748333638907,0.2
1676104295.5121534,642,0,0,,0.42006776034235954,0.42006776034235954,0.2
1676104295.5203927,643,0,0,,0.3625398663824797,0.3625398663824797,0.2
1676104295.5299637,644,0,0,,0.36143490435600284,0.36143490435600284,0.2
1676104295.541233,645,0,0,,0.3592232443487644,0.3592232443487644,0.2
1676104295.5501628,646,0,0,,0.2554519492149353,0.2554519492149353,0.2
1676104295.5597892,647,0,0,,0.25330902602255345,0.25330902602255345,0.2
1676104295.5705624,648,0,0,,0.2508654959964753,0.2508654959964753,0.2
1676104295.5812883,649,0,0,,0.13266451958656314,0.13266451958656314,0.2
1676104295.5907667,650,0,0,,0.1280994596797228,0.1280994596797228,0.2
1676104295.6003156,651,0,0,,0.12488419335186483,0.12488419335186483,0.2
1676104295.6167874,652,0,0,,0.08391552102923394,0.08391552102923394,0.2
1676104295.619749,653,0,0,,0.07876902105927469,0.07876902105927469,0.2
1676104295.6299365,654,0,0,,0.07529639175891878,0.07529639175891878,0.2
1676104295.6395092,655,0,0,,0.07011456821918491,0.07011456821918491,0.2
1676104295.6505795,656,0,0,,0.07811646814346314,0.07811646814346314,0.2
1676104295.6598585,657,0,0,,0.07314071942687037,0.07314071942687037,0.2
1676104295.6698365,658,0,0,,0.06993414062023165,0.06993414062023165,0.2
1676104295.680342,659,0,0,,0.09655432331562042,0.09655432331562042,0.2
1676104295.6901526,660,0,0,,0.0935380949962139,0.0935380949962139,0.2
1676104295.701021,661,0,0,,0.08924323559880257,0.08924323559880257,0.2
1676104295.711465,662,0,0,,0.08785354994535446,0.08785354994535446,0.2
1676104295.719896,663,0,0,,0.1183572865843773,0.1183572865843773,0.2
1676104295.7302425,664,0,0,,0.11592509063482284,0.11592509063482284,0.2
1676104295.7400568,665,0,0,,0.11204960074517133,0.11248716492056848,0.19956243582460284
1676104295.7496583,666,0,0,,0.14619481591111422,0.14689789063334466,0.19929692527776957
1676104295.7603369,667,0,0,,0.14392706103339195,0.1449056077170372,0.19902145331635476
1676104295.7723217,668,0,0,,0.14081765338499547,0.14208577121257782,0.19873188217241766
1676104295.779622,669,0,0,,0.17914882665011286,0.1805143726146221,0.19863445403549077
1676104295.7905865,670,0,0,,0.17655082144677642,0.178026236230135,0.19852458521664143
1676104295.8005595,671,0,0,,0.17488520766247515,0.17647823128938678,0.19840697637308838
1676104295.8203242,672,0,0,,0.19083485652825238,0.19246555239319804,0.19836930413505435
1676104295.8277636,673,0,0,,0.19013744245718125,0.1918090928578377,0.19832834959934356
1676104295.8329015,674,0,0,,0.18941417704422478,0.19113017656207087,0.19828400048215392
1676104295.841966,675,0,0,,0.1866663382007837,0.18844013703346252,0.1982262011673212
1676104295.8495836,676,0,0,,0.19635744103292826,0.1981405371797085,0.19821690385321977
1676104295.8599722,677,0,0,,0.19440350922141675,0.19620557748079304,0.19819793174062372
1676104295.8711615,678,0,0,,0.19307697903601526,0.1949045246720314,0.19817245436398387
1676104295.880422,679,0,0,,0.18340924066563252,0.18531023512601855,0.198099005539614
1676104295.890117,680,0,0,,0.1820689447286308,0.18404969073534014,0.19801925399329068
1676104295.9001715,681,0,0,,0.18002800056552293,0.1820982552957535,0.19792974526976945
1676104295.910364,682,0,0,,0.17796754025394323,0.18013710943698885,0.1978304308169544
1676104295.9201295,683,0,0,,0.17870252207385898,0.18096725498199462,0.19773526709186437
1676104295.9310124,684,0,0,,0.17659541865964534,0.17896532494306566,0.1976300937165797
1676104295.9402893,685,0,0,,0.17515004477415683,0.17763179209709168,0.19751825267706516
1676104295.9504414,686,0,0,,0.1656313836025536,0.16827177206516267,0.19735961153739096
1676104295.9600177,687,0,0,,0.1627615761078894,0.16557409409999846,0.19718748200789096
1676104295.9701023,688,0,0,,0.16193194427728058,0.16491986295461655,0.19701208132266404
1676104295.9817784,689,0,0,,0.1531235370487273,0.15632980669260027,0.19679373035612704
1676104295.9897695,690,0,0,,0.15088482007405163,0.1543194922566414,0.19656532781741023
1676104296.0005717,691,0,0,,0.14865031115124824,0.15232336650133135,0.1963269446499169
1676104296.0150988,692,0,0,,0.16012912105433347,0.16398226507902147,0.196146855975312
1676104296.0201347,693,0,0,,0.15931973994621637,0.1633561034536362,0.1959636364925802
1676104296.0307796,694,0,0,,0.1572218055432737,0.161450914478302,0.1957708910649717
1676104296.0407066,695,0,0,,0.1551910397841394,0.15962203852653503,0.19556900125760437
1676104296.050153,696,0,0,,0.15340030902326704,0.15804110225439072,0.19535920676887633
1676104296.0600965,697,0,0,,0.15142951917168498,0.1562888680624962,0.1951406511091888
1676104296.0700157,698,0,0,,0.1506572956833184,0.15573795480012895,0.19491934088318946
1676104296.085481,699,0,0,,0.1672298414904654,0.17244825931072236,0.19478158217974306
1676104296.0904865,700,0,0,,0.16549918101487757,0.17086328242301943,0.19463589859185815
1676104296.1007783,701,0,0,,0.16484810958406332,0.17036040894746782,0.1944877006365955
1676104296.11655,702,0,0,,0.1704175413001001,0.1760495927000046,0.1943679486000955
1676104296.1200647,703,0,0,,0.16880902959523797,0.17456823979616165,0.19424078979907633
1676104296.1303122,704,0,0,,0.1672185802618921,0.1731122293162346,0.1941063509456575
1676104296.1479063,705,0,0,,0.16567079959927203,0.17170591905832291,0.19396488054094913
1676104296.1522734,706,0,0,,0.16958142807754878,0.1757378582453728,0.193843569832176
1676104296.159919,707,0,0,,0.16763446872808338,0.17392129243373872,0.19371317629434467
1676104296.170335,708,0,0,,0.1666435271818817,0.1730650257587433,0.1935785014231384
1676104296.181386,709,0,0,,0.17920536886937025,0.18569837556838992,0.19350699330098034
1676104296.1904778,710,0,0,,0.17827979523065687,0.18484855913400652,0.19343123609665036
1676104296.1998627,711,0,0,,0.17696114693229797,0.1836118515777588,0.19334929535453915
1676104296.2114794,712,0,0,,0.18222559079456926,0.1889316372537613,0.19329395354080797
1676104296.2206974,713,0,0,,0.1801163671016872,0.18688797369241716,0.19322839340927006
1676104296.22992,714,0,0,,0.1792620019575894,0.18610309308290482,0.1931589088746846
1676104296.2405515,715,0,0,,0.17799292803640962,0.1849094718027115,0.19308345623369813
1676104296.2512662,716,0,0,,0.17256022602370383,0.17957887541294099,0.19298135061076285
1676104296.2599838,717,0,0,,0.1716735664912641,0.1787982247567177,0.19287534173454643
1676104296.271536,718,0,0,,0.17036960395706297,0.17760623106718065,0.19276337288988232
1676104296.280347,719,0,0,,0.17385292588875892,0.18118363482475283,0.1926692910640061
1676104296.2912657,720,0,0,,0.17297351336912514,0.18040221124887468,0.19257130212025048
1676104296.3005717,721,0,0,,0.1717115153450191,0.17924399325847626,0.19246752208654286
1676104296.310287,722,0,0,,0.17085146541692617,0.17849148590087893,0.19235997951604725
1676104296.3199801,723,0,0,,0.16965818855599762,0.17741115327358248,0.19224703528241516
1676104296.3313208,724,0,0,,0.16880489845724705,0.17667449072122576,0.1921304077360213
1676104296.3397887,725,0,0,,0.16754804487655758,0.17553993745326996,0.19200810742328764
1676104296.3515947,726,0,0,,0.17846493790065646,0.18652420943021775,0.19194072847043872
1676104296.3604372,727,0,0,,0.1776615283846319,0.18579184071063998,0.19186968767399193
1676104296.371881,728,0,0,,0.17648277296977644,0.18468963711023334,0.1917931358595431
1676104296.3798113,729,0,0,,0.1736690999135673,0.18196613338708878,0.19170296652647853
1676104296.3900993,730,0,0,,0.17249103821259143,0.1808836534190178,0.19160738479357364
1676104296.400234,731,0,0,,0.17170956398957374,0.18020117332935334,0.1915083906602204
1676104296.412413,732,0,0,,0.17126326207274795,0.17985559344530105,0.1914076686274469
1676104296.4202197,733,0,0,,0.18290397515960335,0.1915386134648323,0.19136536169477106
1676104296.438802,734,0,0,,0.18252441951751117,0.19120304260969165,0.19132137690781953
1676104296.442116,735,0,0,,0.1796450719583571,0.18838178611993792,0.1912632858384192
1676104296.449706,736,0,0,,0.17698120561795833,0.18578897490501406,0.19119223071294428
1676104296.460251,737,0,0,,0.1755296156493485,0.18441530839443207,0.19111430725491643
1676104296.4699402,738,0,0,,0.17478534165514115,0.18375227303504946,0.19103306862009167
1676104296.481546,739,0,0,,0.17601134118412137,0.18505300752639772,0.1909583336577237
1676104296.489994,740,0,0,,0.17525544205289484,0.18437523223400118,0.19088020981889367
1676104296.500679,741,0,0,,0.17449322878707052,0.18369454623699188,0.19079868255007865
1676104296.513929,742,0,0,,0.17221198160995843,0.18150577020883563,0.19070621140112282
1676104296.5199957,743,0,0,,0.17178189606975913,0.18116983549118043,0.1906120605785787
1676104296.5320113,744,0,0,,0.1706663901942909,0.1801535618066788,0.1905128283876121
1676104296.5403404,745,0,0,,0.17058316712552907,0.18016949128150941,0.19041367584401966
1676104296.5520782,746,0,0,,0.16481336758670212,0.17452705646038058,0.19028631112632155
1676104296.5668402,747,0,0,,0.16260218913380503,0.17245360995769501,0.19014857917611003
1676104296.5706112,748,0,0,,0.16110902082753778,0.17110491706609726,0.19000410376144053
1676104296.5841324,749,0,0,,0.170356836787802,0.18045048062324526,0.18990635616455676
1676104296.5899131,750,0,0,,0.16959565802084806,0.1797903501057625,0.18980530791508557
1676104296.6005747,751,0,0,,0.16851363352791668,0.1788142543411255,0.1896993791867912
1676104296.6130474,752,0,0,,0.1713069500221312,0.18169907545804978,0.18960787456408143
1676104296.6201596,753,0,0,,0.17122926132201555,0.18171282264471056,0.189516438677305
1676104296.6313791,754,0,0,,0.17115164135783315,0.1817265698313713,0.18942507152646185
1676104296.6404605,755,0,0,,0.17107409012958408,0.1817403170180321,0.189333773111552
1676104296.6510143,756,0,0,,0.17198177889571786,0.18273433411359788,0.18924744478212
1676104296.6687183,757,0,0,,0.17158890806033017,0.1824293166947365,0.18915959136559368
1676104296.6728656,758,0,0,,0.16813934126971367,0.17908432826280596,0.18905501300690772
1676104296.6798193,759,0,0,,0.17340295630370972,0.18442581422567367,0.18897714207803606
1676104296.6904416,760,0,0,,0.17246091139088274,0.1835659396147728,0.18889497177610995
1676104296.7007802,761,0,0,,0.1718010405255258,0.1829911131834984,0.18880992734202742
1676104296.7112603,762,0,0,,0.171162975130111,0.1824408435702324,0.1887221315598786
1676104296.7203758,763,0,0,,0.17112030230496525,0.1824857420349121,0.18863456027005315
1676104296.730539,764,0,0,,0.17049890389896036,0.18195457077503205,0.18854433312392832
1676104296.7401433,765,0,0,,0.16985687727639082,0.18140551656961443,0.1884513607067764
1676104296.7505953,766,0,0,,0.171772427726537,0.18340404678583147,0.18836838094070554
1676104296.7610953,767,0,0,,0.17003642424541116,0.18175924706935884,0.18827717717605236
1676104296.7703848,768,0,0,,0.16941980880526902,0.18123644938230515,0.18818335942296388
1676104296.780323,769,0,0,,0.17095992473340632,0.18286225404024126,0.18809767069316508
1676104296.7902324,770,0,0,,0.17035212140690686,0.1823427370285988,0.18800938437830808
1676104296.799858,771,0,0,,0.1694805314231098,0.18156333039283754,0.18791720103027226
1676104296.812255,772,0,0,,0.16888679238073231,0.18106427000045777,0.18782252238027455
1676104296.8200634,773,0,0,,0.16809458549479844,0.18037021205425263,0.18772437344054582
1676104296.829787,774,0,0,,0.16751696371331812,0.1798931246495247,0.18762383906379343
1676104296.840275,775,0,0,,0.1666803448753655,0.17916070230007172,0.1875196425752938
1676104296.8497376,776,0,0,,0.1648552106257856,0.1774483264183998,0.1874068842073858
1676104296.8601172,777,0,0,,0.16402633862256408,0.17673577553749084,0.18729056308507325
1676104296.8742821,778,0,0,,0.16319777756680848,0.17602707908630372,0.18717069848050477
1676104296.880219,779,0,0,,0.16717867924069763,0.18010744354248048,0.18707123569821715
1676104296.8899221,780,0,0,,0.1666216259654343,0.17965212961912155,0.18696949634631277
1676104296.9006639,781,0,0,,0.1658503978029311,0.1789859715986252,0.1868644262043059
1676104296.9165628,782,0,0,,0.17047478316740394,0.18369189747571946,0.1867828856916845
1676104296.920627,783,0,0,,0.16976609385501742,0.18306786881923676,0.18669822503578068
1676104296.9311447,784,0,0,,0.16931291794949174,0.182701186978817,0.18661173097067477
1676104296.9402635,785,0,0,,0.16882855469090344,0.1823052972340584,0.18652325745684506
1676104296.9530528,786,0,0,,0.16647031930506825,0.18004682770967484,0.18642349159539343
1676104296.960225,787,0,0,,0.1658253390123546,0.17950432578802109,0.18632101322433353
1676104296.9711275,788,0,0,,0.16536052261230352,0.17914379043579104,0.1862167321765125
1676104296.979889,789,0,0,,0.1779618301665962,0.19178616715431215,0.18617566301228405
1676104296.9897506,790,0,0,,0.17757945740228295,0.19144656158208848,0.1861328958201945
1676104297.0003924,791,0,0,,0.1770465182727158,0.1909588283109665,0.18608768996174932
1676104297.0142734,792,0,0,,0.17686458751937748,0.190822783639431,0.18604180387994648
1676104297.0203757,793,0,0,,0.17120171195049882,0.18523373937368393,0.1859679725768149
1676104297.0306942,794,0,0,,0.17084371359696984,0.18495098608970642,0.18589272750726343
1676104297.0405293,795,0,0,,0.170476423533386,0.18466039405584336,0.18581602947754264
1676104297.055642,796,0,0,,0.17122313810377718,0.18547971007585526,0.18574342802792193
1676104297.0630097,797,0,0,,0.17085836553385852,0.18518899254322052,0.18566937299063802
1676104297.0699809,798,0,0,,0.17019639443644882,0.18460400143861772,0.18559239299783112
1676104297.0816233,799,0,0,,0.17979633245901466,0.19423277558326724,0.18556355687574744
1676104297.0908844,800,0,0,,0.17934043842552305,0.19380784233808518,0.18553259608743788
1676104297.1060076,801,0,0,,0.1790314216221869,0.19353116968631745,0.18550025193586947
1676104297.1118937,802,0,0,,0.17886904114469884,0.19340178030729294,0.18546726083740592
1676104297.1200032,803,0,0,,0.18058244980774524,0.19513949151277543,0.18544295829496982
1676104297.1298661,804,0,0,,0.18041826862433555,0.19500030878543856,0.185417959838897
1676104297.1412902,805,0,0,,0.179837796825248,0.19444759899139405,0.18539019783385396
1676104297.1499553,806,0,0,,0.17942553691816926,0.19406501401424409,0.18536052290392518
