Time,header.seq,header.stamp.secs,header.stamp.nsecs,header.frame_id,vector.x,vector.y,vector.z
1676104289.0713315,1,1676104289,68997859,,0.5004451813029379,-0.4841121158065622,-4.652803841740581
1676104289.0827913,2,1676104289,79665184,,0.5103150668904683,-0.47650431069116506,-4.652835680999562
1676104289.0992353,3,1676104289,93254566,,0.4754322727654983,-0.4970897349125492,-4.597181142999034
1676104289.1042404,4,1676104289,100773811,,0.483675701980117,-0.5019849521020836,-4.602999312901914
1676104289.1103597,5,1676104289,108677148,,0.5051921735336075,-0.4908950261443502,-4.635066571391672
1676104289.118369,6,1676104289,116783142,,0.500361547938345,-0.4847366458757265,-4.6427139130218364
1676104289.129357,7,1676104289,127513885,,0.4946319673214039,-0.4926551172203511,-4.641897538833223
1676104289.1389177,8,1676104289,137099504,,0.49936072180139024,-0.4855350954092921,-4.6312205988786985
1676104289.1497812,9,1676104289,148068904,,0.4817068847473207,-0.4933169314185611,-4.637773439515505
1676104289.1593158,10,1676104289,157819747,,0.5085767035635651,-0.48218865544285516,-4.641071892508323
1676104289.1694252,11,1676104289,167881488,,0.4883033464906327,-0.4862811626068046,-4.634378695612547
1676104289.1791558,12,1676104289,177845001,,0.5072320378864023,-0.48210073927685365,-4.638196874499641
1676104289.1904833,13,1676104289,188887596,,0.5056387300546563,-0.4939303991933736,-4.626295229450666
1676104289.1986847,14,1676104289,196797370,,0.49671598487631974,-0.4934436797183966,-4.626477503556995
1676104289.2131329,15,1676104289,211018800,,0.4899489453004547,-0.4885610694381588,-4.632484301567452
1676104289.2200537,16,1676104289,217789649,,0.4899489453004547,-0.4885610694381588,-4.632484301567452
1676104289.23077,17,1676104289,229304313,,0.4987174710191986,-0.483567092679525,-4.628488277380155
1676104289.2388759,18,1676104289,237049579,,0.5077512932680339,-0.4912296176424064,-4.641064030121445
1676104289.24808,19,1676104289,246972322,,0.5016358933936772,-0.4846819843362172,-4.638680383418069
1676104289.2584255,20,1676104289,257340669,,0.4965193546646593,-0.490253088712071,-4.624436547477239
1676104289.2706013,21,1676104289,269049644,,0.5007453985193239,-0.4807913089207993,-4.648191336532005
1676104289.279548,22,1676104289,277343750,,0.502448860499054,-0.4885235193859119,-4.629984861441653
1676104289.2910833,23,1676104289,289298534,,0.5004512556229574,-0.49795707607703177,-4.6327179045511695
1676104289.2997668,24,1676104289,297353029,,0.49524441418736503,-0.4785679148325907,-4.640889869889767
1676104289.30963,25,1676104289,307131290,,0.503191595147408,-0.4844918738236317,-4.624209918476086
1676104289.319031,26,1676104289,316790103,,0.5071146313551402,-0.48641152076952454,-4.657970561923724
1676104289.3336926,27,1676104289,329800605,,0.5071146313551402,-0.48641152076952454,-4.657970561923724
1676104289.3408039,28,1676104289,338814496,,0.5026338243734788,-0.49018519212049544,-4.630769164973622
1676104289.3504431,29,1676104289,348459959,,0.5036192761474886,-0.48455875186357306,-4.649310796482504
1676104289.358762,30,1676104289,356759786,,0.49090361409698424,-0.49281669068117323,-4.62751896990906
1676104289.3687866,31,1676104289,367141723,,0.49090361409698424,-0.49281669068117323,-4.62751896990906
1676104289.3815413,32,1676104289,378822326,,0.49090361409698424,-0.49281669068117323,-4.62751896990906
1676104289.3994267,33,1676104289,395046234,,0.488574951078298,-0.4911736908601294,-4.63881972024552
1676104289.404537,34,1676104289,400746583,,0.5110334346514079,-0.4822092674407617,-4.649655398616632
1676104289.41329,35,1676104289,410686731,,0.49749839825380754,-0.49515782321885626,-4.61987281269709
1676104289.4202428,36,1676104289,418817520,,0.4924840212796457,-0.49742753076384616,-4.635066854296696
1676104289.4294353,37,1676104289,427683353,,0.5116207132290549,-0.4887401418229506,-4.644452145620902
1676104289.4382894,38,1676104289,436708211,,0.4950164360681623,-0.4845529678815655,-4.638648176147798
1676104289.451013,39,1676104289,448777437,,0.48062781945029526,-0.4776364339786929,-4.599485219143903
1676104289.4626896,40,1676104289,459379673,,0.5138364578528802,-0.48397991928391976,-4.64682262034878
1676104289.4704697,41,1676104289,467717409,,0.5034187291607131,-0.4880654607282081,-4.654260454855453
1676104289.479382,42,1676104289,478225708,,0.4985483930832504,-0.492486433149008,-4.612323935031873
1676104289.4905124,43,1676104289,488758563,,0.49450084265133526,-0.4910625553144163,-4.62602059542502
1676104289.499065,44,1676104289,497229337,,0.4881219260934353,-0.49649895148322226,-4.610172514776333
1676104289.5125296,45,1676104289,508354902,,0.4924189440686729,-0.4868290629134515,-4.623474469491518
1676104289.5178676,46,1676104289,516730070,,0.4981228277222528,-0.49023215376123175,-4.626069327383523
1676104289.5293517,47,1676104289,527913808,,0.511154901764043,-0.48672867946694565,-4.626204973859615
1676104289.5384598,48,1676104289,536861658,,0.5020736625246094,-0.477883643914497,-4.654700380401772
1676104289.5496318,49,1676104289,547898530,,0.4967013606645403,-0.487611056788337,-4.6451070599189
1676104289.559029,50,1676104289,556751012,,0.49555401327339305,-0.48533270199963713,-4.639864769071237
1676104289.5713162,51,1676104289,569644689,,0.5036061157794351,-0.48542390045633077,-4.628688434870704
1676104289.580499,52,1676104289,577800273,,0.5127489970881673,-0.4881443655675343,-4.621600424802505
1676104289.5903788,53,1676104289,587820529,,0.4837200501257711,-0.4901058286315159,-4.591180655897982
1676104289.597937,54,1676104289,596745967,,0.4914893369066619,-0.4866522549053195,-4.6419358687450805
1676104289.612571,55,1676104289,610146999,,0.5024426890229176,-0.49918403047866194,-4.615591988731113
1676104289.6404505,56,1676104289,631898880,,0.5024426890229176,-0.49918403047866194,-4.615591988731113
1676104289.655672,57,1676104289,650022745,,0.5004137116387152,-0.4894618427708691,-4.625928376172557
1676104289.6650097,58,1676104289,661239147,,0.4775209272268412,-0.48687101596465443,-4.6033785533851175
1676104289.6733596,59,1676104289,670920610,,0.5074013007040354,-0.492955723698221,-4.638167330502925
1676104289.6809504,60,1676104289,679677486,,0.5028875081948101,-0.48321715537341203,-4.636086517285686
1676104289.6899946,61,1676104289,688419818,,0.5023191392630754,-0.501391560142626,-4.632572770017324
1676104289.6999185,62,1676104289,698113679,,0.5031028409735643,-0.4885317223790203,-4.648638559867948
1676104289.711285,63,1676104289,709784507,,0.5152541936157057,-0.4875458974135297,-4.638318593839979
1676104289.7195597,64,1676104289,717945814,,0.5120367075086609,-0.4840048390946003,-4.6298022446380305
1676104289.7293406,65,1676104289,728068590,,0.4866687478268146,-0.4886717471077043,-4.621365738081354
1676104289.7456272,66,1676104289,739534854,,0.5010299653086043,-0.49079681316675294,-4.630667402547443
1676104289.751268,67,1676104289,750088930,,0.5144552370059488,-0.49427660960321385,-4.647431981443211
1676104289.75923,68,1676104289,758225202,,0.4933926300476187,-0.4764324999665649,-4.656691841460845
1676104289.7706165,69,1676104289,769074440,,0.48667118944005544,-0.4829363755591088,-4.621548107547666
1676104289.7797391,70,1676104289,778157234,,0.512206107742161,-0.4793556390981203,-4.665749381937055
1676104289.789809,71,1676104289,788305521,,0.512206107742161,-0.4793556390981203,-4.665749381937055
1676104289.802825,72,1676104289,799397230,,0.5070180315276479,-0.4792543366842947,-4.660500826178449
1676104289.8185582,73,1676104289,814814090,,0.4905640111970855,-0.4877326196321747,-4.616835209925609
1676104289.8252356,74,1676104289,821598529,,0.5012135919877623,-0.4887871017911928,-4.627170519429977
1676104289.8329978,75,1676104289,831003904,,0.47927024031426047,-0.4939283925567186,-4.624361864323204
1676104289.840389,76,1676104289,838241577,,0.474704510545453,-0.49577272745515405,-4.584510429650957
1676104289.8495288,77,1676104289,847955465,,0.4970775590951147,-0.5006563624192953,-4.647057038885458
1676104289.8596547,78,1676104289,858133077,,0.5098441273121133,-0.49100395347981274,-4.646736564406952
1676104289.8693516,79,1676104289,868145227,,0.49648671298164126,-0.4911048393291469,-4.628048472594155
1676104289.87982,80,1676104289,878015041,,0.4972608623354919,-0.48877393009935266,-4.636163570058072
1676104289.8911622,81,1676104289,889700889,,0.5178262482680187,-0.4835302755417527,-4.643659608824252
1676104289.8997934,82,1676104289,898171663,,0.49045194022556193,-0.484701927428733,-4.633118464477014
1676104289.911947,83,1676104289,909935474,,0.5042030482837849,-0.48573043428486323,-4.6402578482893055
1676104289.9195845,84,1676104289,918252706,,0.4951050036764095,-0.5006467633998676,-4.637111719151218
1676104289.9293835,85,1676104289,928033351,,0.4868571962231525,-0.4861662015406747,-4.605643448019464
1676104289.939887,86,1676104289,938105583,,0.5045029530760127,-0.48431721220921586,-4.648780190518744
1676104289.954419,87,1676104289,949748992,,0.4974760683022802,-0.49388548836171015,-4.6372065546146475
1676104289.9609091,88,1676104289,958796501,,0.5098562861785904,-0.5001212083195603,-4.624512851434081
1676104289.9695776,89,1676104289,968188047,,0.4894545318638586,-0.4866793151730389,-4.604520081478485
1676104289.9800463,90,1676104289,978968381,,0.4935839965581298,-0.4905934006328652,-4.636864554930443
1676104289.9901445,91,1676104289,988018751,,0.5120684632184416,-0.48700419374735204,-4.650847841150647
1676104289.9992938,92,1676104289,998002290,,0.5036433705092773,-0.4968614951190112,-4.639942156493495
1676104290.0113716,93,1676104290,8365869,,0.4882887893218302,-0.48310499860783046,-4.65378070156399
1676104290.0206997,94,1676104290,18134355,,0.49233492230228026,-0.49013449140786025,-4.641042723357131
1676104290.029742,95,1676104290,28017520,,0.5071503166582384,-0.4927922881833187,-4.637704373565779
1676104290.039489,96,1676104290,38055419,,0.5121985235571651,-0.48386449063272985,-4.658551862996408
1676104290.0495834,97,1676104290,47974348,,0.49942041342803833,-0.4741440426456645,-4.639001841806533
1676104290.0597613,98,1676104290,58238983,,0.4742376357558654,-0.4818407704278263,-4.612538120172669
1676104290.0712476,99,1676104290,69764137,,0.5013797527252914,-0.4877091362709998,-4.63799438100906
1676104290.079804,100,1676104290,77958345,,0.5032533450899968,-0.4769997232295116,-4.650925601855123
1676104290.0897896,101,1676104290,88040113,,0.5091450908896354,-0.48402320339743066,-4.644231486053626
1676104290.0993173,102,1676104290,97998380,,0.4977048081975014,-0.4901911288678489,-4.632635060080538
1676104290.1115525,103,1676104290,108564138,,0.4941459444190398,-0.48406711558662163,-4.62771769019885
1676104290.1205,104,1676104290,118802547,,0.5089495346255171,-0.4801171877645347,-4.642474940140063
1676104290.1295774,105,1676104290,127937316,,0.5034234400703503,-0.47861160413515114,-4.6563518629958365
1676104290.139556,106,1676104290,138087987,,0.48719802742315066,-0.48729205807776294,-4.613824882157957
1676104290.1499665,107,1676104290,148486137,,0.5085996080834749,-0.4917111230961558,-4.64673095751284
1676104290.1605895,108,1676104290,158768177,,0.5026804057658915,-0.48690031105164094,-4.640199340577955
1676104290.1692915,109,1676104290,167965888,,0.4995495487738012,-0.4802819351763713,-4.647446982657211
1676104290.1799965,110,1676104290,178282499,,0.49379461231797284,-0.49637089225950437,-4.629230306165261
1676104290.1898692,111,1676104290,188037157,,0.48669590575890703,-0.49432415707468436,-4.588766851223314
1676104290.1992693,112,1676104290,197959899,,0.4903631461900889,-0.49028942266688214,-4.622744550871381
1676104290.2137358,113,1676104290,210606813,,0.4961848830751143,-0.47983291762461383,-4.628561749812893
1676104290.2199068,114,1676104290,218393325,,0.5015126287540017,-0.47949536068264453,-4.655376490809393
1676104290.2297144,115,1676104290,228227853,,0.49066880535877194,-0.4842651092706144,-4.634716941386967
1676104290.2394948,116,1676104290,238327741,,0.49671042261314935,-0.4877963823454329,-4.627527150255635
1676104290.2510064,117,1676104290,249111890,,0.48762827991808133,-0.4795366158575567,-4.65939233162324
1676104290.2595196,118,1676104290,257978439,,0.48232134997596704,-0.49791975513850667,-4.595806354957266
1676104290.2751565,119,1676104290,270534038,,0.5071429293504178,-0.47852892992631557,-4.650288074345069
1676104290.281703,120,1676104290,279568910,,0.4961897521531394,-0.4869801512811771,-4.640968307618332
1676104290.2909205,121,1676104290,289365768,,0.5064969445141159,-0.49506190850108966,-4.631269911293647
1676104290.2995708,122,1676104290,297989606,,0.5069383257544905,-0.4905127500122992,-4.624695274395154
1676104290.3158026,123,1676104290,310054302,,0.507050546783213,-0.4799530371086219,-4.644322728366439
1676104290.319538,124,1676104290,317966938,,0.5075127635191176,-0.4854454589169888,-4.645799594028305
1676104290.3302379,125,1676104290,328177452,,0.49753288625215464,-0.48186591335163137,-4.65394055453861
1676104290.340208,126,1676104290,338285684,,0.5027818230348028,-0.4682203406735495,-4.64345477637924
1676104290.3502083,127,1676104290,348589658,,0.5049717646217783,-0.4920519908991645,-4.639087488086127
1676104290.3604577,128,1676104290,358676195,,0.49094721314754924,-0.48468659711164525,-4.6212479934458965
1676104290.3721204,129,1676104290,369947671,,0.47339983922491935,-0.4966939159795036,-4.600383792922475
1676104290.3796053,130,1676104290,378190040,,0.5103213812433531,-0.4877909555370431,-4.630670576534882
1676104290.3909664,131,1676104290,389053583,,0.4998970099080746,-0.48281142158394574,-4.621281590538414
1676104290.399917,132,1676104290,398037672,,0.49167750944732086,-0.4920717303812014,-4.6311461041174145
1676104290.410131,133,1676104290,408182621,,0.48831971110194233,-0.48528023492442063,-4.610316837741824
1676104290.4199464,134,1676104290,418397188,,0.5170732181570085,-0.49077310556378795,-4.6480967321835065
1676104290.429504,135,1676104290,427999734,,0.49007848414215865,-0.4867030736538114,-4.635710765373054
1676104290.4399397,136,1676104290,438135623,,0.5003921274076351,-0.48702924862001973,-4.629317684554664
1676104290.4557946,137,1676104290,452447891,,0.5085788192181976,-0.4799135559186777,-4.626699269416199
1676104290.4606948,138,1676104290,459001541,,0.5011566378947607,-0.4859137959284733,-4.624870120729088
1676104290.4707375,139,1676104290,469553470,,0.49995448044793844,-0.48933477849326196,-4.637380743730256
1676104290.480302,140,1676104290,478011369,,0.504606201650144,-0.47713483092765446,-4.6422456553095595
1676104290.4895568,141,1676104290,488089561,,0.4952164026907012,-0.4802601590220068,-4.659223035183337
1676104290.4998271,142,1676104290,498041152,,0.5115802147236084,-0.4895361329265904,-4.640445563505337
1676104290.5134404,143,1676104290,510035753,,0.49318178116681044,-0.4980823485795422,-4.645104227832972
1676104290.5201523,144,1676104290,518025875,,0.4967906435525961,-0.479279791447125,-4.6310668571308575
1676104290.529589,145,1676104290,527987480,,0.48018123361852794,-0.47663849210243586,-4.617006872915725
1676104290.5412328,146,1676104290,538208961,,0.4964378510316302,-0.491219815943949,-4.630421861076624
1676104290.5507834,147,1676104290,549080133,,0.499074470326084,-0.49062714257491175,-4.63857835158037
1676104290.559377,148,1676104290,558424472,,0.4907549648396347,-0.4845711767932023,-4.63017964755371
1676104290.570081,149,1676104290,568272352,,0.5081764305084321,-0.4872104154741754,-4.638242950405323
1676104290.5810194,150,1676104290,578126907,,0.49902596305852837,-0.48960018441976183,-4.634843243078946
1676104290.5924938,151,1676104290,590635538,,0.5152185366366758,-0.48693736736946336,-4.647084249301365
1676104290.600011,152,1676104290,598089694,,0.4985526787595995,-0.4902902048901933,-4.628502130868936
1676104290.611183,153,1676104290,609243392,,0.4985526787595995,-0.4902902048901933,-4.628502130868936
1676104290.6213577,154,1676104290,619805097,,0.49464886643910494,-0.48330935376257994,-4.6258583711135115
1676104290.6293886,155,1676104290,627941846,,0.5016848864720472,-0.48793308087234016,-4.64700686930689
1676104290.6397274,156,1676104290,637995243,,0.5066828594144975,-0.4839745693590782,-4.654832524234756
1676104290.6528163,157,1676104290,649718046,,0.5089888213859166,-0.47787648658895465,-4.643914667223246
1676104290.6597755,158,1676104290,658298969,,0.5090036841410677,-0.4801919762886087,-4.6509738968680985
1676104290.669771,159,1676104290,668181180,,0.5186252025982364,-0.4846397807505811,-4.654425003178529
1676104290.681776,160,1676104290,679231882,,0.4848703780862424,-0.4932645161574258,-4.59082236876314
1676104290.68968,161,1676104290,688092947,,0.48767347271001027,-0.4843779502571357,-4.601073326415879
1676104290.699998,162,1676104290,698078632,,0.49486059780116093,-0.5007953885042341,-4.630808462586713
1676104290.7118337,163,1676104290,708298444,,0.49486059780116093,-0.5007953885042341,-4.630808462586713
1676104290.720326,164,1676104290,718410015,,0.49486059780116093,-0.5007953885042341,-4.630808462586713
1676104290.733964,165,1676104290,730587720,,0.5048771756341742,-0.49721938978140645,-4.630621780657186
1676104290.7395563,166,1676104290,737949371,,0.4992528430312579,-0.48995538424439644,-4.631771512754756
1676104290.7506666,167,1676104290,748691082,,0.49898651225182367,-0.49211931853393875,-4.6503016353339675
1676104290.7593882,168,1676104290,758077383,,0.49615523752075763,-0.4921571008584372,-4.630699391044134
1676104290.7701137,169,1676104290,768250703,,0.508924940918932,-0.487204162335625,-4.6422829261364695
1676104290.7793577,170,1676104290,777936220,,0.5001519906849686,-0.49324097954112567,-4.64013530518482
1676104290.791126,171,1676104290,789215564,,0.5024222477381719,-0.4796845635776156,-4.652013845059464
1676104290.799402,172,1676104290,797972679,,0.5030694755689555,-0.4942093570869522,-4.636706576425722
1676104290.811119,173,1676104290,809296369,,0.49011171340170395,-0.49286803608067314,-4.597071488134968
1676104290.8203168,174,1676104290,818353891,,0.4831793931014743,-0.48551297614289957,-4.605439211819294
1676104290.8318474,175,1676104290,829376459,,0.5203540722660509,-0.49233221385112935,-4.641347287828263
1676104290.8396,176,1676104290,838045835,,0.5077861887646304,-0.47499482102230106,-4.659543377247453
1676104290.8515263,177,1676104290,849621772,,0.5137817187264988,-0.49089738137361855,-4.6496600345933805
1676104290.8611155,178,1676104290,858066320,,0.5109256352697779,-0.4937428975697437,-4.625622977179306
1676104290.869856,179,1676104290,868283510,,0.49569845582796157,-0.49702906718651224,-4.621351785887053
1676104290.8800187,180,1676104290,878385066,,0.4972807739711708,-0.48512463128205335,-4.621325843387606
1676104290.8903966,181,1676104290,888610363,,0.48943538164884914,-0.49050988534271883,-4.634467672684945
1676104290.900016,182,1676104290,898053884,,0.5006778931949472,-0.48759060268571247,-4.641229703107401
1676104290.915029,183,1676104290,911420822,,0.4978187754951737,-0.4861206828679888,-4.641808476568251
1676104290.919538,184,1676104290,918309688,,0.49693393489737786,-0.47895139274051557,-4.640418928910754
1676104290.929837,185,1676104290,928122043,,0.4897614762968008,-0.47996302811093183,-4.6398628708227605
1676104290.9393404,186,1676104290,937966346,,0.506021455191141,-0.47599434566205323,-4.639202416119712
1676104290.9496117,187,1676104290,948135852,,0.506021455191141,-0.47599434566205323,-4.639202416119712
1676104290.9610033,188,1676104290,959461450,,0.49324767910112916,-0.4871696712214496,-4.622159829800279
1676104290.9711514,189,1676104290,969322204,,0.48333254349270693,-0.501418299001718,-4.5926515071594585
1676104290.9796546,190,1676104290,977945804,,0.4994493929379709,-0.4982287204186651,-4.62666454877204
1676104290.9900715,191,1676104290,988334655,,0.493583904570804,-0.48590923017425813,-4.623431072713828
1676104290.9990542,192,1676104290,998014926,,0.4985704112308508,-0.47875220812211905,-4.627510847775083
1676104291.0116563,193,1676104291,9995698,,0.49433000947096006,-0.4874254220702491,-4.651015793220038
1676104291.019771,194,1676104291,17961263,,0.48536247222145645,-0.4908762734368213,-4.6117890171161555
1676104291.0295944,195,1676104291,28080224,,0.5037523114176896,-0.4835337733642057,-4.636123836805995
1676104291.0396502,196,1676104291,38142204,,0.4960740720942675,-0.4914464282688575,-4.627235100333414
1676104291.0510437,197,1676104291,48908948,,0.49647195960595275,-0.4859826054722139,-4.6310795883114
1676104291.059697,198,1676104291,57954788,,0.4934133348657758,-0.49051147020450114,-4.622861524831222
1676104291.0710855,199,1676104291,68264961,,0.5116308212212761,-0.47315224968333464,-4.627132107519655
1676104291.086277,200,1676104291,81165313,,0.5082818427530622,-0.48071665024694243,-4.644778767221554
1676104291.0911078,201,1676104291,89622020,,0.511314611558368,-0.4889942027970603,-4.643747137784235
1676104291.1005106,202,1676104291,98068714,,0.4998960404601066,-0.48743352401440715,-4.639863969227289
1676104291.1146011,203,1676104291,110665798,,0.49218735048713413,-0.48300014719077217,-4.625422366289028
1676104291.1204545,204,1676104291,117984294,,0.5067890793167014,-0.4927968875152856,-4.643868255549096
1676104291.1296084,205,1676104291,127985715,,0.5089382725088046,-0.4942776961948204,-4.64105460678904
1676104291.140694,206,1676104291,138434886,,0.49955853830455793,-0.49381596381454956,-4.633742530811026
1676104291.1520858,207,1676104291,150187253,,0.47855464838744083,-0.5020126259293369,-4.5991842988665965
1676104291.160271,208,1676104291,158835887,,0.49198720079188624,-0.4871019553679664,-4.6441819960664485
1676104291.170269,209,1676104291,168367624,,0.5104932930878678,-0.49368676972847336,-4.646423388008138
1676104291.1802373,210,1676104291,178430557,,0.49617929607396377,-0.4876002130939634,-4.615238154904425
1676104291.1904228,211,1676104291,188816308,,0.49046599584845174,-0.48633360272339055,-4.621311320232306
1676104291.1991005,212,1676104291,197994709,,0.486016270579654,-0.4868780662949048,-4.6292977245983105
1676104291.2151425,213,1676104291,211365938,,0.5119508361017155,-0.4877741631010983,-4.6230169951843525
1676104291.2200778,214,1676104291,218566179,,0.4901430675481073,-0.49263904701325567,-4.6323173480570015
1676104291.2301037,215,1676104291,228033304,,0.4988525683280857,-0.4864061487476053,-4.646159597981011
1676104291.2416224,216,1676104291,238083839,,0.4851221553955372,-0.48287666776002924,-4.597816243651118
1676104291.2495735,217,1676104291,248020887,,0.49860641396981836,-0.4805078855698972,-4.642748021772262
1676104291.2595294,218,1676104291,258013248,,0.4932739341908292,-0.47423241832398794,-4.615856011006011
1676104291.2709024,219,1676104291,268923997,,0.4878696933845491,-0.4988721856272908,-4.6026172307351825
1676104291.2870388,220,1676104291,280863046,,0.4949181929744636,-0.48105122884991136,-4.636694114207031
1676104291.2898915,221,1676104291,288412332,,0.49892765730046434,-0.49288325742394673,-4.621825692176012
1676104291.30043,222,1676104291,298149585,,0.4944028490334392,-0.47394454881181775,-4.636601031023542
1676104291.3120797,223,1676104291,308335065,,0.49746959873439034,-0.49692727081227644,-4.637733924322343
1676104291.319626,224,1676104291,318218469,,0.47363817102370864,-0.4970369755489347,-4.58403565411037
1676104291.3296573,225,1676104291,328136682,,0.4835303070438974,-0.5014709538296105,-4.604775181600198
1676104291.339971,226,1676104291,338124036,,0.5080159215732748,-0.48078388502835484,-4.653161295441814
1676104291.351606,227,1676104291,349380493,,0.48898413591482565,-0.49197033327456935,-4.599802929777774
1676104291.3603103,228,1676104291,358034849,,0.47756966062889344,-0.49481958964491285,-4.587787819852452
1676104291.3706386,229,1676104291,369232177,,0.5050116621178173,-0.4881571709141147,-4.6500591100853885
1676104291.3797994,230,1676104291,378073453,,0.5048835629414041,-0.49411389370103465,-4.651789741923388
1676104291.3897977,231,1676104291,388338327,,0.5026452485546508,-0.4978325375056148,-4.630457188511651
1676104291.4001036,232,1676104291,398074865,,0.474613537292007,-0.4950061786457872,-4.589404864482503
1676104291.411722,233,1676104291,408694982,,0.4966239605732039,-0.4906278509892247,-4.625899625843913
1676104291.4194372,234,1676104291,418057680,,0.5120945017021099,-0.48017961889213956,-4.653617502339917
1676104291.4294121,235,1676104291,427941799,,0.5083154424256489,-0.4769960600709281,-4.648593431514682
1676104291.4394546,236,1676104291,438073396,,0.5028985242917677,-0.4820601209710306,-4.637120880748904
1676104291.4527862,237,1676104291,450602054,,0.4936689865790388,-0.49068745943282155,-4.627230208980218
1676104291.4620411,238,1676104291,459489822,,0.5034635483547737,-0.4906739604824911,-4.627824800577069
1676104291.4694948,239,1676104291,468084335,,0.5013704683940355,-0.4870206723916127,-4.643338538493675
1676104291.479609,240,1676104291,477937698,,0.4991701218291955,-0.48628728992704945,-4.6476688075644885
1676104291.491537,241,1676104291,489104747,,0.4808050046653579,-0.48983250122407107,-4.603560780340685
1676104291.5000713,242,1676104291,497999191,,0.5102467446163484,-0.4799693250351089,-4.655393470958835
1676104291.5120103,243,1676104291,510044097,,0.49554296082025073,-0.48717998780854516,-4.6164017834305975
1676104291.5203328,244,1676104291,518198728,,0.48637974052753324,-0.49726675848235063,-4.602542513098234
1676104291.530003,245,1676104291,528213500,,0.49961803618348083,-0.49089653415476714,-4.63035213962872
1676104291.5415363,246,1676104291,538033723,,0.5092552009582575,-0.48487195191791277,-4.637304294757058
1676104291.5496943,247,1676104291,548312664,,0.4877530198154385,-0.4876019204407579,-4.6319384656022935
1676104291.5593343,248,1676104291,557920694,,0.4842021180288865,-0.48812001267307004,-4.606877149605985
1676104291.5706081,249,1676104291,569174289,,0.4875746079108558,-0.4978033629785841,-4.6380764619030455
1676104291.5810885,250,1676104291,578682661,,0.5015144823043102,-0.4898680041083274,-4.643428825708532
1676104291.5906901,251,1676104291,588833570,,0.5089769636981534,-0.4797226849095108,-4.650161051819025
1676104291.598865,252,1676104291,597969055,,0.5014154827685432,-0.4783930748347782,-4.6239673815017035
1676104291.6175158,253,1676104291,611673355,,0.4932180029702242,-0.47959875738962143,-4.622069423747788
1676104291.6227565,254,1676104291,621185541,,0.5167103520336086,-0.4914512326210756,-4.648964813744714
1676104291.6296518,255,1676104291,628119468,,0.5091942989867645,-0.482487877849511,-4.657507908198329
1676104291.6396277,256,1676104291,638070106,,0.5115436103186813,-0.48948496896848376,-4.643355850247419
1676104291.6540015,257,1676104291,649339437,,0.5181980950405501,-0.5042770083804999,-4.630987438889861
1676104291.6606607,258,1676104291,658974409,,0.47371929752379044,-0.49605904895861286,-4.589489274018327
1676104291.669504,259,1676104291,667930603,,0.5055154574946287,-0.48703786875532107,-4.637276841048474
1676104291.6796324,260,1676104291,677927494,,0.4763654587984999,-0.49185141336930854,-4.609577212697741
1676104291.6937063,261,1676104291,689439058,,0.5127740274971523,-0.4882520861926446,-4.6403706613607225
1676104291.6997476,262,1676104291,697996377,,0.506628700365764,-0.48351016464630714,-4.63488065512075
1676104291.7119982,263,1676104291,709506034,,0.49989195155083677,-0.48975315676269876,-4.631936084030768
1676104291.7200267,264,1676104291,717930316,,0.4931435964427567,-0.48558155283175447,-4.606135693111219
1676104291.7311802,265,1676104291,728856086,,0.50949638036794,-0.4927396129503752,-4.6516524421065055
1676104291.740375,266,1676104291,739218235,,0.5044053682316942,-0.48296706616379054,-4.6462536547419635
1676104291.750223,267,1676104291,748489141,,0.5004637094941624,-0.4885109834184389,-4.643816430333044
1676104291.7602324,268,1676104291,758033514,,0.4910141072988129,-0.48917428967664833,-4.612120545704342
1676104291.7725484,269,1676104291,770959854,,0.5014899476929003,-0.49471767683470913,-4.632661754730499
1676104291.7799778,270,1676104291,778459548,,0.5076100593423957,-0.47803387615469256,-4.655197633071882
1676104291.7901373,271,1676104291,788043022,,0.5044475643637504,-0.4798392347752593,-4.649207071583762
1676104291.8003194,272,1676104291,798217058,,0.49933058916387124,-0.4758342683647401,-4.646431984571693
1676104291.8116448,273,1676104291,808038711,,0.4925426827952422,-0.49136298558793856,-4.639397821364366
1676104291.8202455,274,1676104291,818333625,,0.49842957681209465,-0.4882192697347237,-4.631197873832675
1676104291.831891,275,1676104291,828361272,,0.5016749781675328,-0.48114715366090693,-4.643961803978315
1676104291.8395681,276,1676104291,838005542,,0.5116403957337182,-0.4793772584565907,-4.647250873581327
1676104291.8507597,277,1676104291,848611354,,0.5073690417740737,-0.4820597154557206,-4.636713491364233
1676104291.8595264,278,1676104291,858041286,,0.5131314733816159,-0.48472703824989366,-4.648725118975327
1676104291.874728,279,1676104291,868068456,,0.487733359366478,-0.4876778828539718,-4.599662551490228
1676104291.881827,280,1676104291,878470420,,0.5021698608008285,-0.47805469751762325,-4.636674991161569
1676104291.8905087,281,1676104291,888946294,,0.5087027203074835,-0.48422405331357693,-4.656201172749405
1676104291.8999078,282,1676104291,897966623,,0.5059307223082367,-0.47421007601519544,-4.6522547243813985
1676104291.9106555,283,1676104291,908550977,,0.4948048299367093,-0.4890286084458959,-4.636110819281408
1676104291.919823,284,1676104291,918017387,,0.49287417917390236,-0.49100174581419415,-4.647537779312198
1676104291.9296634,285,1676104291,927970647,,0.510343978095504,-0.49552652644744766,-4.6490273600343945
1676104291.9399834,286,1676104291,938065290,,0.5055686800450759,-0.4856505228900205,-4.647789564643732
1676104291.9499664,287,1676104291,948222875,,0.5176081643464495,-0.48073568436142394,-4.643508955164846
1676104291.9596903,288,1676104291,958086490,,0.48670367191016733,-0.4871748203571026,-4.6247189790471905
1676104291.9730678,289,1676104291,970741987,,0.5059088312535807,-0.49295230434814885,-4.652313927696997
1676104291.9798844,290,1676104291,978329181,,0.5016553760141327,-0.48585564231483924,-4.640385873114947
1676104291.9900498,291,1676104291,988014221,,0.5005275299723126,-0.4832750726262292,-4.639272118656442
1676104292.0004823,292,1676104291,998497962,,0.5105633746691365,-0.47821051211633225,-4.653421396153951
1676104292.0145373,293,1676104292,10562896,,0.5045159219404914,-0.48124947213625413,-4.638468917766888
1676104292.0194404,294,1676104292,18015384,,0.5053882121992053,-0.49113317225162484,-4.651386329837597
1676104292.0304005,295,1676104292,28061866,,0.5049646711404808,-0.47890228123781126,-4.648791451135364
1676104292.0416036,296,1676104292,38866281,,0.507461984131028,-0.49010151169822475,-4.657975694000425
1676104292.0502422,297,1676104292,48257827,,0.49657176171844664,-0.48109418449328256,-4.628132128383391
1676104292.0596528,298,1676104292,58092832,,0.5016732769119395,-0.4892553027468172,-4.636855157674367
1676104292.0715697,299,1676104292,69964170,,0.5180573249237931,-0.4757876315662944,-4.653257750799769
1676104292.0795572,300,1676104292,78361749,,0.46995752345948677,-0.49161049395564677,-4.57899938470581
1676104292.0899363,301,1676104292,88320732,,0.4954870196775055,-0.49103504344565263,-4.644239572520219
1676104292.1001031,302,1676104292,97968101,,0.5025335535208741,-0.4966501082144746,-4.632229463691896
1676104292.1101546,303,1676104292,108285665,,0.5144889953370686,-0.48467355667341105,-4.641097769634611
1676104292.1203744,304,1676104292,118561506,,0.5040280053765547,-0.49869461682174293,-4.649801916518027
1676104292.1298387,305,1676104292,128041028,,0.4913581298765779,-0.485431277743955,-4.612747248630543
1676104292.1416347,306,1676104292,138279438,,0.4913581298765779,-0.485431277743955,-4.612747248630543
1676104292.1541069,307,1676104292,150782108,,0.501825219896347,-0.5007950094800517,-4.651133253120192
1676104292.1603084,308,1676104292,158779621,,0.5012386950760478,-0.48742591897701626,-4.6415923843648415
1676104292.1699045,309,1676104292,168071985,,0.4875958353457265,-0.4894254171790052,-4.639468843202061
1676104292.1814764,310,1676104292,179095506,,0.49339426943975345,-0.4891340913565991,-4.6024021044804355
1676104292.1901739,311,1676104292,188975334,,0.49238952566656796,-0.48074286327891447,-4.632128024729371
1676104292.1999881,312,1676104292,198016166,,0.5069680295447797,-0.49533784890874094,-4.6349179698317995
1676104292.213086,313,1676104292,209623336,,0.49158691319103287,-0.49380568453517765,-4.622960994186322
1676104292.2200084,314,1676104292,218265295,,0.5119314927595089,-0.4803049461109059,-4.648415396175789
1676104292.2309272,315,1676104292,227900266,,0.5013549353475402,-0.4934031927974562,-4.639724117547938
1676104292.2400522,316,1676104292,238245964,,0.4902807200475695,-0.4981871286357099,-4.642015139171144
1676104292.2504814,317,1676104292,248762130,,0.47910067918587496,-0.49675499434731224,-4.59708026940391
1676104292.2596426,318,1676104292,257953166,,0.5030609098050339,-0.4793467333112406,-4.62226063666331
1676104292.2707822,319,1676104292,269039392,,0.47834564382838973,-0.5029320900259294,-4.6046718445211035
1676104292.2793777,320,1676104292,277886629,,0.4969680561162971,-0.48493600328840253,-4.6369279154795215
1676104292.2915165,321,1676104292,289255142,,0.49785018432838213,-0.483109356682462,-4.625827592600659
1676104292.299801,322,1676104292,298040390,,0.48092844697598797,-0.4879903024907725,-4.595755029508515
1676104292.3112173,323,1676104292,309518098,,0.4914564869383108,-0.4897834318220638,-4.606076691800004
1676104292.320241,324,1676104292,318162441,,0.49850062374338705,-0.47745023014811483,-4.634728775280354
1676104292.3293931,325,1676104292,328001022,,0.49850062374338705,-0.47745023014811483,-4.634728775280354
1676104292.3402026,326,1676104292,338276147,,0.49200766730589957,-0.4914358115388892,-4.619764898966735
1676104292.3527453,327,1676104292,349492073,,0.5043894957011007,-0.4781523909000873,-4.644599561893105
1676104292.3593645,328,1676104292,357999563,,0.4941962276727702,-0.4878918293962147,-4.624291420206499
1676104292.3706245,329,1676104292,369571685,,0.5106519134566427,-0.49244660294136744,-4.643351981207621
1676104292.3791766,330,1676104292,377922773,,0.49814079480364126,-0.48282296337510994,-4.639849577378721
1676104292.3901882,331,1676104292,388334274,,0.49571330156758703,-0.483276217004476,-4.652542286244124
1676104292.3999548,332,1676104292,398054361,,0.4985382715783408,-0.4792228203175695,-4.635056410541094
1676104292.4115179,333,1676104292,410210132,,0.5017580399259692,-0.4829081941998752,-4.637783387274326
1676104292.4197423,334,1676104292,418117523,,0.49278212110850866,-0.48844054248204494,-4.643993109895232
1676104292.429543,335,1676104292,427918195,,0.4828002832962961,-0.4950378094610695,-4.6256054709188215
1676104292.439801,336,1676104292,438159465,,0.4895589316462992,-0.48569449290720174,-4.619170330178013
1676104292.449856,337,1676104292,448285341,,0.5033396957688975,-0.48489592202624554,-4.658692010628728
1676104292.4591827,338,1676104292,458072900,,0.48748087645654137,-0.49567910395431186,-4.619642061006573
1676104292.4700081,339,1676104292,468030929,,0.5068533777260192,-0.4936828722535485,-4.649522509326486
1676104292.4811673,340,1676104292,479006290,,0.472907887219642,-0.4919864943731378,-4.597208105404011
1676104292.4899569,341,1676104292,488068819,,0.48922487361154754,-0.4756319639544775,-4.5937943873508775
1676104292.500277,342,1676104292,498015403,,0.49720641684321765,-0.476527749750689,-4.647205417522528
1676104292.50987,343,1676104292,508084297,,0.5067461704512548,-0.4799324095507839,-4.640825073996901
1676104292.5198963,344,1676104292,518431425,,0.4957934023102386,-0.4843493891603961,-4.632425849995926
1676104292.5299892,345,1676104292,528282642,,0.49785993010964835,-0.4981019028629668,-4.638951944617332
1676104292.5397375,346,1676104292,538480997,,0.4994085261160239,-0.48242233425511427,-4.642331681397586
1676104292.5496588,347,1676104292,548373222,,0.5127088660456048,-0.48737461595369913,-4.6539990143527925
1676104292.5600314,348,1676104292,558069705,,0.5052454714845017,-0.483080257702045,-4.634333248225527
1676104292.5702612,349,1676104292,568620204,,0.495971839061545,-0.4883044008777654,-4.634106127976798
1676104292.5807002,350,1676104292,579025268,,0.4794903592605554,-0.49081103069770965,-4.6044845775630625
1676104292.5903556,351,1676104292,588451862,,0.49055611703890817,-0.48263234891897283,-4.6143422796995015
1676104292.6007783,352,1676104292,598380804,,0.4850772095570469,-0.4871044290938628,-4.629658848108768
1676104292.6113727,353,1676104292,609157085,,0.505448251815019,-0.4893777391083594,-4.639917159462206
1676104292.6201098,354,1676104292,618033409,,0.5188484993425375,-0.4773038090555019,-4.6617835163143715
1676104292.6296058,355,1676104292,628028154,,0.4796075235389182,-0.49367278218394245,-4.59385351918006
1676104292.6396096,356,1676104292,638002157,,0.48090532482094983,-0.4819291005575069,-4.597169510269634
1676104292.6495686,357,1676104292,648013591,,0.49161879781139656,-0.4834826336955134,-4.637777182721926
1676104292.6598856,358,1676104292,658077955,,0.498808492999418,-0.49979929752096025,-4.631636288817805
1676104292.6697512,359,1676104292,668500900,,0.5184288835054853,-0.48640162075823806,-4.652727449413967
1676104292.679548,360,1676104292,677906513,,0.49605397818471836,-0.4833771698696109,-4.636375793084282
1676104292.6904695,361,1676104292,688905954,,0.5087054652157919,-0.4863304632132963,-4.629949850294294
1676104292.6999702,362,1676104292,698066949,,0.5038437366118704,-0.4747330946554444,-4.646377445005739
1676104292.71088,363,1676104292,708259344,,0.4927491189129528,-0.48948911324404304,-4.6282697776424975
1676104292.719485,364,1676104292,718289136,,0.4927491189129528,-0.48948911324404304,-4.6282697776424975
1676104292.7314124,365,1676104292,728251218,,0.4927491189129528,-0.48948911324404304,-4.6282697776424975
1676104292.741993,366,1676104292,740056276,,0.5092739735926148,-0.4797520655146986,-4.628582103232802
1676104292.7532792,367,1676104292,749295949,,0.5207999730744997,-0.48312610718473314,-4.6467489564374675
1676104292.7593348,368,1676104292,758023262,,0.5078144936213373,-0.4845507087470274,-4.62608685726346
1676104292.769744,369,1676104292,768028497,,0.4953732330175547,-0.48495768520365085,-4.6318850161035865
1676104292.7806828,370,1676104292,778771400,,0.4955575076301694,-0.48186492185646884,-4.65110168283721
1676104292.7898614,371,1676104292,788697481,,0.4923242106208541,-0.49098086031671195,-4.635267372594287
1676104292.8003821,372,1676104292,798016071,,0.5012166857055411,-0.4816095236567447,-4.6580637110817
1676104292.811283,373,1676104292,808473110,,0.5087054997834152,-0.4777106027772505,-4.65786903557588
1676104292.8200471,374,1676104292,818189859,,0.4857043110949071,-0.4849824318426296,-4.632657932906922
1676104292.8300958,375,1676104292,827920436,,0.48126687494444786,-0.48974738922629824,-4.6239705619572975
1676104292.839566,376,1676104292,837981462,,0.49598880503325027,-0.4857286501457957,-4.634422383882029
1676104292.8515918,377,1676104292,849386692,,0.49550555898343845,-0.4906082441869323,-4.61319907759856
1676104292.8594859,378,1676104292,858168125,,0.49972991953400253,-0.49508113409997906,-4.625720200271816
1676104292.8738575,379,1676104292,868247032,,0.5028764217214468,-0.4842939086514075,-4.642471241655413
1676104292.8797798,380,1676104292,878458976,,0.5055422332307634,-0.4763053396539409,-4.6473296614611765
1676104292.8895369,381,1676104292,888033628,,0.4841204677506263,-0.4926689012711445,-4.631658481346384
1676104292.899995,382,1676104292,898098230,,0.49715232760072503,-0.4891225692846992,-4.625644876014608
1676104292.9137442,383,1676104292,909411430,,0.4897632638884593,-0.48418810228500814,-4.632354474341172
1676104292.9200196,384,1676104292,918222665,,0.5081159762151783,-0.47887404275881473,-4.635973351826363
1676104292.9299347,385,1676104292,928157091,,0.5054359327930196,-0.49695752836163715,-4.631707830068597
1676104292.9398258,386,1676104292,938311338,,0.5078898883798496,-0.48102365526786933,-4.6495562893958
1676104292.9498706,387,1676104292,948156595,,0.5078898883798496,-0.48102365526786933,-4.6495562893958
1676104292.9600053,388,1676104292,958279371,,0.5078898883798496,-0.48102365526786933,-4.6495562893958
1676104292.9713025,389,1676104292,968302011,,0.5078898883798496,-0.48102365526786933,-4.6495562893958
1676104292.9860659,390,1676104292,981354475,,0.5146050248551871,-0.4908971400571093,-4.6412726766216705
1676104292.9900684,391,1676104292,988857030,,0.5019270527871105,-0.4865065379819847,-4.639404379407921
1676104292.9993682,392,1676104292,997934579,,0.49628974105631396,-0.4986317189062823,-4.637853397745328
1676104293.0122964,393,1676104293,10315418,,0.49657060704144557,-0.49438439779727206,-4.627683919450448
1676104293.0199976,394,1676104293,18095254,,0.49992591400936875,-0.4895358765901491,-4.6409453666062666
1676104293.029684,395,1676104293,28061151,,0.4876448010242198,-0.48417678814033216,-4.614554670163868
1676104293.039336,396,1676104293,37971258,,0.5050578918507163,-0.48701406476098175,-4.647942474177719
1676104293.0505753,397,1676104293,48064231,,0.5004360324774975,-0.4872177112449403,-4.620631793244384
1676104293.0603313,398,1676104293,58468580,,0.499274988634342,-0.4925548425030931,-4.643392549071285
1676104293.069778,399,1676104293,68362236,,0.4983952836021572,-0.47639796680758123,-4.639051206497193
1676104293.0793447,400,1676104293,78082084,,0.5036344769831914,-0.4837690070892505,-4.622940050395637
1676104293.0895503,401,1676104293,88052034,,0.49815548676719373,-0.4782707619564896,-4.6513786467382054
1676104293.0991979,402,1676104293,98029613,,0.5063961849783934,-0.48574459736865255,-4.641767750269999
1676104293.1109788,403,1676104293,108048200,,0.5068056658192898,-0.49498196049293025,-4.6331223883634935
1676104293.1197588,404,1676104293,118184089,,0.47430054130591,-0.4842123287558685,-4.600869427449175
1676104293.129485,405,1676104293,127950906,,0.5091375881406048,-0.4926439520850502,-4.643241670122623
1676104293.1396105,406,1676104293,138103961,,0.5165146852319283,-0.48901636677539523,-4.635143942160718
1676104293.1495357,407,1676104293,148020744,,0.5013832088087413,-0.4794520535814305,-4.646482611327299
1676104293.1601112,408,1676104293,158704757,,0.500762399949783,-0.4709893529857291,-4.657688858940117
1676104293.169799,409,1676104293,168073415,,0.49772500293687055,-0.4837514510812557,-4.636509630291036
1676104293.1797245,410,1676104293,177896976,,0.5120345248110036,-0.47832178401537534,-4.639442572805495
1676104293.1900756,411,1676104293,188361167,,0.4891648402663844,-0.488316457334235,-4.632336399070479
1676104293.2001505,412,1676104293,197984457,,0.47833341681949787,-0.4944368168701137,-4.5866959303065995
1676104293.2132075,413,1676104293,210685968,,0.48880948634877097,-0.4834448372118271,-4.627372059098354
1676104293.2204022,414,1676104293,218951463,,0.5040410626560955,-0.4903262690819415,-4.631870397787331
1676104293.2307174,415,1676104293,228007793,,0.5116016644732664,-0.4926677632696057,-4.653177082899539
1676104293.2399294,416,1676104293,238200426,,0.5052770560219547,-0.49324656648363313,-4.636163760756225
1676104293.2496088,417,1676104293,247994184,,0.49674390644112093,-0.48310111494092395,-4.6559552504334025
1676104293.2601922,418,1676104293,258615016,,0.5008970919990495,-0.4932124295051426,-4.653701928505015
1676104293.269557,419,1676104293,268144607,,0.4769754270388558,-0.4999143947007812,-4.585839845432638
1676104293.2795205,420,1676104293,277975320,,0.5072351344916377,-0.4915571715697317,-4.650824985117033
1676104293.2899528,421,1676104293,288522005,,0.5085779596748058,-0.48195495028490437,-4.651676938700494
1676104293.2998788,422,1676104293,297985553,,0.5130217129568744,-0.4862791107483469,-4.644248811572665
1676104293.3136294,423,1676104293,308295011,,0.49315407050732973,-0.4917248856371109,-4.629575844914245
1676104293.3206236,424,1676104293,318723678,,0.49914241093697326,-0.4879683366260762,-4.641408877690446
1676104293.3313951,425,1676104293,329173803,,0.4819718589030423,-0.48533153983932326,-4.626667838404336
1676104293.3396988,426,1676104293,338107347,,0.5085408184193636,-0.47030870158461635,-4.6439378714757025
1676104293.3497384,427,1676104293,348577976,,0.508721018970699,-0.4869251597548772,-4.636088245656198
1676104293.359437,428,1676104293,358001232,,0.508721018970699,-0.4869251597548772,-4.636088245656198
1676104293.3714893,429,1676104293,368455648,,0.4990358592682523,-0.48570805821916146,-4.643467879957292
1676104293.379318,430,1676104293,377988576,,0.5078334782856812,-0.48715077246693844,-4.63582359388915
1676104293.3898563,431,1676104293,388141393,,0.4970004338176446,-0.4964810493145898,-4.61805136026147
1676104293.3999891,432,1676104293,398044586,,0.4970004338176446,-0.4964810493145898,-4.61805136026147
1676104293.4167585,433,1676104293,410255432,,0.5035513156041903,-0.4865477613406617,-4.625018889887852
1676104293.4204042,434,1676104293,419119834,,0.5039275139170536,-0.47295953463641566,-4.62784688276705
1676104293.4295208,435,1676104293,427967309,,0.49100621988016935,-0.4816490468772703,-4.618163701616969
1676104293.4397264,436,1676104293,438298940,,0.5021223985984565,-0.4882559505191859,-4.647201737883209
1676104293.4494815,437,1676104293,447976112,,0.4943585949660322,-0.48226285339809005,-4.641125853966407
1676104293.4599206,438,1676104293,458241939,,0.4816942023054014,-0.4879425858920717,-4.595917973464657
1676104293.4699528,439,1676104293,468041181,,0.48892693014851796,-0.4951979245187898,-4.597410184451584
1676104293.4814196,440,1676104293,478989839,,0.48006556199026235,-0.49433651718267746,-4.62247255199453
1676104293.489941,441,1676104293,488197326,,0.5028467600595622,-0.4910288547903803,-4.6278023791956056
1676104293.4998515,442,1676104293,498015165,,0.5043012705101318,-0.47933587019235224,-4.652212342515599
1676104293.5107758,443,1676104293,509323596,,0.5022902787128158,-0.4941872954763859,-4.632469711731472
1676104293.5200353,444,1676104293,518171072,,0.5056174232614455,-0.4826012194339654,-4.632411945673654
1676104293.529796,445,1676104293,528324127,,0.4887288440540938,-0.4803869782954597,-4.632511310069419
1676104293.539848,446,1676104293,538074254,,0.49697581146035785,-0.49200532667557406,-4.624377936894925
1676104293.5490568,447,1676104293,547905206,,0.5018202389330532,-0.48432026979433884,-4.647502591208663
1676104293.5596004,448,1676104293,558284044,,0.4967761852634786,-0.4970209205915927,-4.636248400061043
1676104293.5701323,449,1676104293,568140506,,0.492014861287114,-0.48069821148179454,-4.658685480467364
1676104293.5799663,450,1676104293,578628540,,0.49301251022191933,-0.4877046330482497,-4.607616369314176
1676104293.590277,451,1676104293,588538408,,0.48567880382072853,-0.49129847441991226,-4.592022647572668
1676104293.600062,452,1676104293,598058700,,0.4991827681931834,-0.4831887705228363,-4.632620304967137
1676104293.6136951,453,1676104293,610086202,,0.5040526818945555,-0.49580070869589404,-4.628600886715634
1676104293.6206412,454,1676104293,618163824,,0.49425257987026006,-0.4904479790706231,-4.614983921271914
1676104293.631026,455,1676104293,628888845,,0.5079938312103189,-0.4811276020529827,-4.649364866965403
1676104293.639582,456,1676104293,637980461,,0.5004467626972411,-0.5058535347682188,-4.637833239485938
1676104293.654051,457,1676104293,650149106,,0.4876580299916132,-0.47957227510005845,-4.601831364881482
1676104293.6607537,458,1676104293,658947467,,0.507082115704195,-0.48169633407687573,-4.64832657393733
1676104293.6699097,459,1676104293,668616294,,0.4708291378881229,-0.4814961676740549,-4.585698893360305
1676104293.6795802,460,1676104293,678152084,,0.47744401455138463,-0.49294680258848333,-4.595694537271544
1676104293.690926,461,1676104293,689304590,,0.5031649715131733,-0.4847827492506621,-4.6243043925932845
1676104293.7000995,462,1676104293,698067188,,0.5093191625534278,-0.48967753798105484,-4.640784348104251
1676104293.7098424,463,1676104293,707869291,,0.5043841111330548,-0.4844866800760708,-4.642891966479008
1676104293.7196174,464,1676104293,718059539,,0.4978372752456639,-0.4879566783535309,-4.640266728053511
1676104293.7303565,465,1676104293,728011608,,0.504605783565335,-0.4824260850195273,-4.64567089292402
1676104293.7395291,466,1676104293,738035917,,0.49445387711926647,-0.49120257395252415,-4.629713019874615
1676104293.7498415,467,1676104293,748259544,,0.5072854572854206,-0.4798432655227697,-4.650124634275321
1676104293.7595613,468,1676104293,758069038,,0.4953154315095172,-0.485509274182389,-4.62176698864339
1676104293.7692811,469,1676104293,767965555,,0.4984300083744938,-0.4895827861878255,-4.629068660427629
1676104293.780085,470,1676104293,777940273,,0.4984300083744938,-0.4895827861878255,-4.629068660427629
1676104293.790438,471,1676104293,788282394,,0.4984300083744938,-0.4895827861878255,-4.629068660427629
1676104293.800626,472,1676104293,798210859,,0.49887052294511214,-0.4822865326212196,-4.651862093585273
1676104293.81115,473,1676104293,808005332,,0.5009010686978669,-0.4831404898493475,-4.627462908968539
1676104293.820884,474,1676104293,819308757,,0.5003125021789729,-0.4903855108254395,-4.619471820115811
1676104293.8301787,475,1676104293,827993869,,0.48309640754558364,-0.49819141131033556,-4.600396627522767
1676104293.8398263,476,1676104293,838038444,,0.48309640754558364,-0.49819141131033556,-4.600396627522767
1676104293.855552,477,1676104293,851923942,,0.4925073479263558,-0.500468352347775,-4.636303747197366
1676104293.859564,478,1676104293,858015060,,0.4921904052519191,-0.4905543858777178,-4.621527036926444
1676104293.8715935,479,1676104293,869097709,,0.48633727788458486,-0.49025791107319083,-4.613525405363875
1676104293.8807213,480,1676104293,878641843,,0.49862328615715906,-0.49305290950353803,-4.641021224595459
1676104293.890041,481,1676104293,888424873,,0.4982149317095133,-0.4845429516069548,-4.63036408635023
1676104293.900197,482,1676104293,897974729,,0.4933122038310924,-0.49194699369168277,-4.6243666851941185
1676104293.9112122,483,1676104293,907931804,,0.5075097383508377,-0.48153816598390714,-4.6368106324816925
1676104293.9192185,484,1676104293,917959451,,0.5075097383508377,-0.48153816598390714,-4.6368106324816925
1676104293.9297218,485,1676104293,928274154,,0.49464496286935516,-0.4891315087398771,-4.626886288729398
1676104293.9400802,486,1676104293,938216686,,0.49068339257934235,-0.49418316936474044,-4.581314164860467
1676104293.9496,487,1676104293,948051691,,0.501291140014474,-0.5094433752271953,-4.638078670454188
1676104293.9597507,488,1676104293,958017587,,0.48984348515875115,-0.47550717090513384,-4.624108553855207
1676104293.9738894,489,1676104293,970623493,,0.4876980715523564,-0.4756899485569937,-4.711789421078831
1676104293.9799938,490,1676104293,978759765,,0.5299127034658776,-0.421228105774246,-4.688454649903761
1676104293.990734,491,1676104293,988296747,,0.5653780114064468,-0.41209842233963245,-4.70743008786944
1676104294.0003626,492,1676104293,998202085,,0.5775973239530336,-0.4112160139914308,-4.769366075434805
1676104294.0111015,493,1676104294,8587360,,0.571763761088677,-0.41120919643956777,-4.773835858316517
1676104294.0193033,494,1676104294,17965078,,0.571763761088677,-0.41120919643956777,-4.773835858316517
1676104294.0327194,495,1676104294,29356956,,0.6401136729965367,-0.3402351099418262,-4.699915763718732
1676104294.0398324,496,1676104294,38099765,,0.6401136729965367,-0.3402351099418262,-4.699915763718732
1676104294.0537097,497,1676104294,51999330,,1.0748996027672566,-0.31408082984345365,-4.4953296583607925
1676104294.059303,498,1676104294,57919263,,1.3610082746902814,-0.3470873598656908,-4.472422329819234
1676104294.0692463,499,1676104294,68033933,,1.9164789955011186,-0.3763076677714192,-4.492072448672604
1676104294.0804124,500,1676104294,78938007,,2.259399483306594,-0.5468918233476898,-4.400601055069405
1676104294.0911062,501,1676104294,89728593,,2.7216650885550777,-0.7618004620378608,-4.380667955093655
1676104294.099331,502,1676104294,98004817,,2.928050401780201,-0.8454666505401055,-4.415258367054551
1676104294.1137547,503,1676104294,110374689,,3.439160945155637,-1.073487065615723,-4.4231950114325596
1676104294.1198347,504,1676104294,118470191,,4.03068157607158,-1.372494110381222,-4.401259523259204
1676104294.1302216,505,1676104294,127975225,,4.414318361668434,-1.4529896715879853,-4.396290555911674
1676104294.1396384,506,1676104294,138052940,,4.536958829495309,-1.5289565427448302,-4.4469884064451035
1676104294.1516929,507,1676104294,148507833,,4.673241504374863,-1.635866587422382,-4.38752049353081
1676104294.1595128,508,1676104294,157971620,,5.433837656600207,-2.074382132275434,-4.462860113834361
1676104294.1700468,509,1676104294,168103933,,5.630070596046697,-2.1648518513613393,-4.44527534990494
1676104294.1794798,510,1676104294,178115606,,5.869824831909688,-2.2625783725117783,-4.5177898866171455
1676104294.189736,511,1676104294,187952756,,6.066553961451042,-2.3331594378719447,-4.5741393891761035
1676104294.199781,512,1676104294,198045730,,6.167921412609636,-2.4756661052698834,-4.494351440757406
1676104294.2158134,513,1676104294,208184003,,6.2620060542071325,-2.5696640488140297,-4.483476435248659
1676104294.2217093,514,1676104294,220073461,,6.348584987623882,-2.6255858028627803,-4.389615098015219
1676104294.2291987,515,1676104294,228002786,,6.364704005456857,-2.676764963600243,-4.330919597627277
1676104294.2397883,516,1676104294,238036155,,6.44487153217584,-2.669885338754969,-4.376083698734598
1676104294.2499735,517,1676104294,248285770,,6.423885116697404,-2.6890517154683224,-4.327606106608268
1676104294.2597482,518,1676104294,258075714,,6.4644556347137385,-2.7041713185024543,-4.29414544035863
1676104294.2697706,519,1676104294,268039464,,6.490887375227403,-2.6689554435339096,-4.309203533859089
1676104294.2802515,520,1676104294,278393507,,6.490887375227403,-2.6689554435339096,-4.309203533859089
1676104294.290133,521,1676104294,288346290,,6.490887375227403,-2.6689554435339096,-4.309203533859089
1676104294.303126,522,1676104294,300943136,,6.464370796357114,-2.663007032269923,-4.285343798847297
1676104294.317433,523,1676104294,314092397,,6.4492325441628635,-2.679388990327129,-4.268102786875058
1676104294.3209598,524,1676104294,319586277,,6.528614381807054,-2.689359694850773,-4.3046373135905505
1676104294.3299696,525,1676104294,328006744,,6.526792927726105,-2.7124559193675375,-4.273805909016347
1676104294.3398747,526,1676104294,338041305,,6.488475572756822,-2.7430800829367996,-4.200312708653744
1676104294.3499854,527,1676104294,348212957,,6.5058473745334435,-2.7584284585892305,-4.1899116600275015
1676104294.3597414,528,1676104294,357990026,,6.535092005052916,-2.780318401946701,-4.211065510034332
1676104294.3701897,529,1676104294,368660688,,6.525681203828545,-2.7767435855065665,-4.221056116779492
1676104294.3808753,530,1676104294,379669904,,6.532738842928933,-2.757384019075428,-4.230494583616076
1676104294.3895838,531,1676104294,388226985,,6.542132535845213,-2.82972149898493,-4.191149126764556
1676104294.4001408,532,1676104294,398198604,,6.539446057427111,-2.7792597412730604,-4.171411010391289
1676104294.4122117,533,1676104294,410193681,,6.724496751120296,-2.6402880189915594,-4.506776758797779
1676104294.4201381,534,1676104294,418175458,,6.724496751120296,-2.6402880189915594,-4.506776758797779
1676104294.4295912,535,1676104294,428200483,,6.724496751120296,-2.6402880189915594,-4.506776758797779
1676104294.441173,536,1676104294,438280344,,6.724496751120296,-2.6402880189915594,-4.506776758797779
1676104294.4559548,537,1676104294,453067779,,6.698981935032451,-2.743975658404554,-4.340557573194734
1676104294.4606993,538,1676104294,459385156,,6.714931737861725,-2.730226788870289,-4.347075419965784
1676104294.4691916,539,1676104294,467933416,,6.714931737861725,-2.730226788870289,-4.347075419965784
1676104294.483108,540,1676104294,479471445,,6.600973983018762,-2.7882812424469705,-4.088484517988521
1676104294.4896264,541,1676104294,487931251,,6.606233437950617,-2.7963716360650555,-4.078606776420409
1676104294.5000484,542,1676104294,498034238,,6.60177570456568,-2.789140203144647,-4.047607713721133
1676104294.511895,543,1676104294,508226633,,6.60177570456568,-2.789140203144647,-4.047607713721133
1676104294.5199459,544,1676104294,518349885,,6.657789736040618,-2.828554490314642,-4.026487609534476
1676104294.5292947,545,1676104294,527955293,,6.631345486803519,-2.8427186413306007,-4.015805864933614
1676104294.53983,546,1676104294,538041353,,6.616122770838658,-2.8079777988437677,-4.013806816075621
1676104294.552026,547,1676104294,550516843,,6.642220475208377,-2.8303929417819997,-4.039754847907518
1676104294.559615,548,1676104294,557977437,,6.669608516536008,-2.9047666733833544,-3.970656567914744
1676104294.5701962,549,1676104294,568378925,,6.672020340390759,-2.8799898510623887,-3.9654868998834467
1676104294.579895,550,1676104294,578149795,,6.68600334416951,-2.8690125877861488,-4.0152466584487
1676104294.5898871,551,1676104294,588133811,,6.701512424452482,-2.880846402626697,-4.000582153946048
1676104294.5991468,552,1676104294,597995042,,6.701512424452482,-2.880846402626697,-4.000582153946048
1676104294.6195,553,1676104294,617251157,,6.661434162414068,-2.931841708332198,-3.888690794691076
1676104294.6222975,554,1676104294,620906352,,6.691102179787436,-2.8942068536594605,-3.9621988020932983
1676104294.6289978,555,1676104294,627837181,,6.622419790665836,-2.88315099533416,-3.8983010324977987
1676104294.6401412,556,1676104294,638107299,,6.671805155932848,-2.890018594334663,-3.949911549526154
1676104294.6530855,557,1676104294,650884866,,6.679592695044475,-2.9117992587302552,-3.9384093122726784
1676104294.660138,558,1676104294,657934427,,6.664615362766481,-2.940299913040383,-3.894087159259724
1676104294.6701543,559,1676104294,668156623,,6.64840281062477,-2.9324944478323824,-3.9082644751511464
1676104294.6800737,560,1676104294,678591251,,6.607618222789022,-2.9185215587776194,-3.8272770052428213
1676104294.6892433,561,1676104294,687951803,,6.664928407897791,-2.931520692284285,-3.8871003907822588
1676104294.7003334,562,1676104294,698550224,,6.633451647276949,-2.913481400107851,-3.8052071489922534
1676104294.711923,563,1676104294,708494901,,6.619543911820314,-2.9004980235957962,-3.81411960898
1676104294.7203145,564,1676104294,718925476,,6.64133928218068,-2.9288535539600487,-3.80183481397011
1676104294.730739,565,1676104294,728004455,,6.670419883643016,-2.9237171054120923,-3.809946027443245
1676104294.7398436,566,1676104294,738174676,,6.652661156031148,-2.917520143695741,-3.7456614051292596
1676104294.7509038,567,1676104294,748650789,,6.655119698890857,-2.912619309894323,-3.682119185841525
1676104294.7594993,568,1676104294,758048295,,6.612187121242191,-2.877406132146106,-3.6806525106271817
1676104294.7700074,569,1676104294,768127679,,6.659882622568104,-2.9018642279074367,-3.7066772189696433
1676104294.7801726,570,1676104294,778378486,,6.60903708585006,-2.8616406370667224,-3.658176557309491
1676104294.7893229,571,1676104294,788079977,,6.60774797699047,-2.867766709597167,-3.64017485950832
1676104294.8004057,572,1676104294,798127651,,6.658094204373976,-2.8899908856756715,-3.617875970822748
1676104294.812133,573,1676104294,808657169,,6.689653109196045,-2.8711706570550786,-3.5862132233074844
1676104294.819128,574,1676104294,817972660,,6.637396253073609,-2.840954756610478,-3.5435347408957747
1676104294.8311243,575,1676104294,828164577,,6.660155459791553,-2.879244765634463,-3.519673628977964
1676104294.839885,576,1676104294,838243007,,6.73272663231409,-2.8486819127956386,-3.5464895588051673
1676104294.849806,577,1676104294,848067045,,6.72722105464204,-2.8660181796221034,-3.4844731887982605
