Time,header.seq,header.stamp.secs,header.stamp.nsecs,header.frame_id,child_frame_id,pose.pose.position.x,pose.pose.position.y,pose.pose.position.z,pose.pose.orientation.x,pose.pose.orientation.y,pose.pose.orientation.z,pose.pose.orientation.w,pose.covariance,twist.twist.linear.x,twist.twist.linear.y,twist.twist.linear.z,twist.twist.angular.x,twist.twist.angular.y,twist.twist.angular.z,twist.covariance
1676104288.874821,3983,1676104288,682035960,map,base_link,-0.41285404562950123,0.5180329680442811,0.1254716664552688,-0.05174645814343511,0.01831158379848628,-0.03945033527175432,0.9977127370548214,"(0.0006006246549077332, -2.1170653802529052e-23, 7.328811294858926e-21, 0.0, 0.0, 0.0, -2.1170653802529052e-23, 0.0006005293107591569, -4.605860126125953e-36, 0.0, 0.0, 0.0, 7.328811294858923e-21, -4.6058601261259536e-36, 0.0005407803691923618, 0.0, 0.0, 0.0, 0.0, 0.0, 0.0, 0.0, 0.0, 0.0, 0.0, 0.0, 0.0, 0.0, 0.0, 0.0, 0.0, 0.0, 0.0, 0.0, 0.0, 0.0)",-0.0007251672795973718,-0.008058124221861362,-0.000281941203866153,0.0020086150616407394,-1.1386267942725684e-05,-2.6150106350542046e-05,"(0.0019730671774595976, 0.0, 0.0, 0.0, 0.0, 0.0, 0.0, 0.001974411541596055, -5.998714987137333e-20, 0.0, 0.0, 0.0, 0.0, -5.998714987137333e-20, 0.0014845792902633548, 0.0, 0.0, 0.0, 0.0, 0.0, 0.0, 0.0, 0.0, 0.0, 0.0, 0.0, 0.0, 0.0, 0.0, 0.0, 0.0, 0.0, 0.0, 0.0, 0.0, 0.0)"
1676104288.8749573,3984,1676104288,712074008,map,base_link,-0.4128860533237456,0.5180142521858216,0.1254903376102447,-0.051745085433373916,0.018308795879695177,-0.039443800231276256,0.997713138975693,"(0.0005785817629657686, -1.954214197156528e-23, 6.807206157623838e-21, 0.0, 0.0, 0.0, -1.954214197156528e-23, 0.0005784937529824674, -4.3868077164221614e-36, 0.0, 0.0, 0.0, 6.807206157623842e-21, -4.386807716422161e-36, 0.0005229967064224184, 0.0, 0.0, 0.0, 0.0, 0.0, 0.0, 0.0, 0.0, 0.0, 0.0, 0.0, 0.0, 0.0, 0.0, 0.0, 0.0, 0.0, 0.0, 0.0, 0.0, 0.0)",-0.0008610363584011793,-0.008005327545106411,-0.00011946746963076196,0.00197584624402225,-2.548546763136976e-05,0.000565672351513058,"(0.0019310321658849716, 0.0, 0.0, 0.0, 0.0, 0.0, 0.0, 0.0019323533633723855, -5.827120562096366e-20, 0.0, 0.0, 0.0, 0.0, -5.827120562096365e-20, 0.0014565328601747751, 0.0, 0.0, 0.0, 0.0, 0.0, 0.0, 0.0, 0.0, 0.0, 0.0, 0.0, 0.0, 0.0, 0.0, 0.0, 0.0, 0.0, 0.0, 0.0, 0.0, 0.0)"
1676104288.8751714,3985,1676104288,742109008,map,base_link,-0.4129247963428496,0.5179981589317323,0.12550248205661768,-0.0517536001691667,0.01830788653563337,-0.039443190901832986,0.9977127054752788,"(0.0005918970564380288, -2.0356397887047165e-23, 7.09882828824972e-21, 0.0, 0.0, 0.0, -2.0356397887047165e-23, 0.0005918053793720901, -4.514485418167261e-36, 0.0, 0.0, 0.0, 7.098828288249721e-21, -4.514485418167261e-36, 0.0005339307244867086, 0.0, 0.0, 0.0, 0.0, 0.0, 0.0, 0.0, 0.0, 0.0, 0.0, 0.0, 0.0, 0.0, 0.0, 0.0, 0.0, 0.0, 0.0, 0.0, 0.0, 0.0)",-0.0010778723517432809,-0.007999921217560768,-0.00038717064308002494,-0.0015379782998934388,-0.00015323387924581753,0.0011726716766133904,"(0.0019566381815820932, 0.0, 0.0, 0.0, 0.0, 0.0, 0.0, 0.0019579753279685974, -5.934779098259075e-20, 0.0, 0.0, 0.0, 0.0, -5.934779098259076e-20, 0.0014733638381585479, 0.0, 0.0, 0.0, 0.0, 0.0, 0.0, 0.0, 0.0, 0.0, 0.0, 0.0, 0.0, 0.0, 0.0, 0.0, 0.0, 0.0, 0.0, 0.0, 0.0, 0.0)"
1676104288.8755832,3986,1676104288,782157008,map,base_link,-0.4129749834537505,0.5179787278175355,0.12551751732826227,-0.05176181840293042,0.01830557885356483,-0.039439466184355294,0.9977124603385072,"(0.0005869160522706807, -1.991695818662837e-23, 6.977025615406788e-21, 0.0, 0.0, 0.0, -1.991695818662837e-23, 0.000586826354265213, -4.464207731427609e-36, 0.0, 0.0, 0.0, 6.977025615406792e-21, -4.464207731427609e-36, 0.0005299443146213889, 0.0, 0.0, 0.0, 0.0, 0.0, 0.0, 0.0, 0.0, 0.0, 0.0, 0.0, 0.0, 0.0, 0.0, 0.0, 0.0, 0.0, 0.0, 0.0, 0.0, 0.0)",-0.0011165878968313336,-0.008043057285249233,-0.00022211695613805107,-0.0003302571421954781,3.0717284971615354e-05,0.00041948960279114544,"(0.0019484958611428738, 0.0, 0.0, 0.0, 0.0, 0.0, 0.0, 0.0019498318433761597, -5.905558432459474e-20, 0.0, 0.0, 0.0, 0.0, -5.905558432459474e-20, 0.001467606402002275, 0.0, 0.0, 0.0, 0.0, 0.0, 0.0, 0.0, 0.0, 0.0, 0.0, 0.0, 0.0, 0.0, 0.0, 0.0, 0.0, 0.0, 0.0, 0.0, 0.0, 0.0)"
1676104288.8758373,3987,1676104288,812193520,map,base_link,-0.4130101203918456,0.5179727077484132,0.12552826106548304,-0.05176887918563501,0.018305219241755474,-0.03944089400732717,0.9977120414048598,"(0.0005668100202456117, -1.8559864994158558e-23, 6.525193086692027e-21, 0.0, 0.0, 0.0, -1.8559864994158558e-23, 0.0005667264340445399, -4.269142207612956e-36, 0.0, 0.0, 0.0, 6.52519308669203e-21, -4.269142207612956e-36, 0.00051352777518332, 0.0, 0.0, 0.0, 0.0, 0.0, 0.0, 0.0, 0.0, 0.0, 0.0, 0.0, 0.0, 0.0, 0.0, 0.0, 0.0, 0.0, 0.0, 0.0, 0.0, 0.0)",-0.0009301546378992498,-0.007929077371954918,-0.00016837082512210957,-0.0021197544410824776,-0.00017351526184938845,0.00030869562760926783,"(0.0019118150230497122, 0.0, 0.0, 0.0, 0.0, 0.0, 0.0, 0.0019131317967548966, -5.759142880305254e-20, 0.0, 0.0, 0.0, 0.0, -5.759142880305254e-20, 0.0014428620925173163, 0.0, 0.0, 0.0, 0.0, 0.0, 0.0, 0.0, 0.0, 0.0, 0.0, 0.0, 0.0, 0.0, 0.0, 0.0, 0.0, 0.0, 0.0, 0.0, 0.0, 0.0)"
1676104288.876004,3988,1676104288,842229520,map,base_link,-0.4130381643772124,0.5179715752601625,0.12554098665714258,-0.051772323068266,0.018295718119204957,-0.03945353568881085,0.9977115582882156,"(0.0005805455730296671, -1.9464593789138432e-23, 6.833852051641931e-21, 0.0, 0.0, 0.0, -1.9464593789138432e-23, 0.0005804579122923315, -4.4024000027889494e-36, 0.0, 0.0, 0.0, 6.833852051641927e-21, -4.402400002788953e-36, 0.0005247429362498224, 0.0, 0.0, 0.0, 0.0, 0.0, 0.0, 0.0, 0.0, 0.0, 0.0, 0.0, 0.0, 0.0, 0.0, 0.0, 0.0, 0.0, 0.0, 0.0, 0.0, 0.0)",-0.0009727416909299791,-0.007699303328990936,-5.7118766562779423e-05,0.0003258562064729631,-0.0005264833453111352,-0.0008125170716084539,"(0.001939639332704246, 0.0, 0.0, 0.0, 0.0, 0.0, 0.0, 0.0019409748492762446, -5.8771176117122e-20, 0.0, 0.0, 0.0, 0.0, -5.8771176117122e-20, 0.0014610717771574855, 0.0, 0.0, 0.0, 0.0, 0.0, 0.0, 0.0, 0.0, 0.0, 0.0, 0.0, 0.0, 0.0, 0.0, 0.0, 0.0, 0.0, 0.0, 0.0, 0.0, 0.0)"
1676104288.8858023,3989,1676104288,882278520,map,base_link,-0.41307154297828663,0.5179930925369264,0.12555851042270655,-0.051777851861508545,0.018290785963591252,-0.03944742039088069,0.9977116238805823,"(0.000545480172149837, -1.7215696498759888e-23, 6.075121268470176e-21, 0.0, 0.0, 0.0, -1.7215696498759888e-23, 0.0005454026395455003, -4.0679969500888934e-36, 0.0, 0.0, 0.0, 6.0751212684701716e-21, -4.0679969500888934e-36, 0.0004958730423822999, 0.0, 0.0, 0.0, 0.0, 0.0, 0.0, 0.0, 0.0, 0.0, 0.0, 0.0, 0.0, 0.0, 0.0, 0.0, 0.0, 0.0, 0.0, 0.0, 0.0, 0.0)",-0.0007455876911990345,-0.007323363330215216,-8.08432960184282e-05,0.0010203520068898797,-7.357695722021158e-05,0.0003211378934793174,"(0.0018764011329039931, 0.0, 0.0, 0.0, 0.0, 0.0, 0.0, 0.0018777049845084548, -5.627092444690684e-20, 0.0, 0.0, 0.0, 0.0, -5.627092444690685e-20, 0.0014182180166244507, 0.0, 0.0, 0.0, 0.0, 0.0, 0.0, 0.0, 0.0, 0.0, 0.0, 0.0, 0.0, 0.0, 0.0, 0.0, 0.0, 0.0, 0.0, 0.0, 0.0, 0.0)"
1676104288.9490693,3990,1676104288,912315824,map,base_link,-0.413089096546173,0.5180164575576783,0.12556821107864374,-0.05177233637215739,0.018286790936659962,-0.039454594587565936,0.9977116821656787,"(0.0005599750438705087, -1.819797347616661e-23, 6.4088293697441785e-21, 0.0, 0.0, 0.0, -1.819797347616661e-23, 0.0005598930874839425, -4.210202492414426e-36, 0.0, 0.0, 0.0, 6.408829369744179e-21, -4.2102024924144254e-36, 0.0005076429806649685, 0.0, 0.0, 0.0, 0.0, 0.0, 0.0, 0.0, 0.0, 0.0, 0.0, 0.0, 0.0, 0.0, 0.0, 0.0, 0.0, 0.0, 0.0, 0.0, 0.0, 0.0)",-0.0007447655079886317,-0.00743771530687809,2.295930426044015e-05,0.00027247105026617646,-7.785172056173914e-05,-0.0006275677005760372,"(0.0019078084733337164, 0.0, 0.0, 0.0, 0.0, 0.0, 0.0, 0.0019091349095106125, -5.76046448243231e-20, 0.0, 0.0, 0.0, 0.0, -5.760464482432312e-20, 0.0014387572882696986, 0.0, 0.0, 0.0, 0.0, 0.0, 0.0, 0.0, 0.0, 0.0, 0.0, 0.0, 0.0, 0.0, 0.0, 0.0, 0.0, 0.0, 0.0, 0.0, 0.0, 0.0)"
1676104288.9527862,3991,1676104288,942353824,map,base_link,-0.4131093621253966,0.518025577068329,0.12557949125766749,-0.05178018304753001,0.01828998251749328,-0.039456395248131826,0.9977111614526812,"(0.0005731843411922455, -1.9089777574075342e-23, 6.702390420427005e-21, 0.0, 0.0, 0.0, -1.9089777574075342e-23, 0.0005730983684770763, -4.3377065668539346e-36, 0.0, 0.0, 0.0, 6.702390420427001e-21, -4.337706566853932e-36, 0.0005184551700949669, 0.0, 0.0, 0.0, 0.0, 0.0, 0.0, 0.0, 0.0, 0.0, 0.0, 0.0, 0.0, 0.0, 0.0, 0.0, 0.0, 0.0, 0.0, 0.0, 0.0, 0.0)",-0.0008504175348207355,-0.007509323768317699,-3.225853288313282e-05,-0.0007048953557386994,-0.0011218679137527943,0.00016161042731255306,"(0.001933668158017099, 0.0, 0.0, 0.0, 0.0, 0.0, 0.0, 0.0019350101938471198, -5.868177194302495e-20, 0.0, 0.0, 0.0, 0.0, -5.868177194302495e-20, 0.0014558371622115374, 0.0, 0.0, 0.0, 0.0, 0.0, 0.0, 0.0, 0.0, 0.0, 0.0, 0.0, 0.0, 0.0, 0.0, 0.0, 0.0, 0.0, 0.0, 0.0, 0.0, 0.0)"
1676104288.9937987,3992,1676104288,982400824,map,base_link,-0.41313692927360524,0.5180468559265138,0.12559019029140467,-0.05177266809259397,0.01829857618369224,-0.039449571801830834,0.9977116436032916,"(0.0005705957883037627, -1.8973455300435072e-23, 6.660789179793115e-21, 0.0, 0.0, 0.0, -1.8973455300435072e-23, 0.0005705103394575417, -4.315873355582232e-36, 0.0, 0.0, 0.0, 6.6607891797931136e-21, -4.315873355582232e-36, 0.0005162063171155751, 0.0, 0.0, 0.0, 0.0, 0.0, 0.0, 0.0, 0.0, 0.0, 0.0, 0.0, 0.0, 0.0, 0.0, 0.0, 0.0, 0.0, 0.0, 0.0, 0.0, 0.0)",-0.0010848124511539936,-0.007647241931408644,-0.00010678164107957761,0.0007660894771106541,0.0012724909465759993,0.0005735010490752756,"(0.0019317432306706905, 0.0, 0.0, 0.0, 0.0, 0.0, 0.0, 0.001933086896315217, -5.865526861665811e-20, 0.0, 0.0, 0.0, 0.0, -5.865526861665812e-20, 0.0014541302807629108, 0.0, 0.0, 0.0, 0.0, 0.0, 0.0, 0.0, 0.0, 0.0, 0.0, 0.0, 0.0, 0.0, 0.0, 0.0, 0.0, 0.0, 0.0, 0.0, 0.0, 0.0)"
1676104289.0450487,3993,1676104289,12439384,map,base_link,-0.41316130757331837,0.518060863018036,0.12559536099433893,-0.051761069156469636,0.01829704549644569,-0.03945418240041559,0.9977120776014538,"(0.000552946818061173, -1.7900705443530365e-23, 6.2845388913869796e-21, 0.0, 0.0, 0.0, -1.7900705443530365e-23, 0.0005528662004508078, -4.148677410526078e-36, 0.0, 0.0, 0.0, 6.28453889138698e-21, -4.148677410526077e-36, 0.00050162966363132, 0.0, 0.0, 0.0, 0.0, 0.0, 0.0, 0.0, 0.0, 0.0, 0.0, 0.0, 0.0, 0.0, 0.0, 0.0, 0.0, 0.0, 0.0, 0.0, 0.0, 0.0)",-0.0010984028922393918,-0.007615756709128618,-0.00022311386419460085,0.00027871609199792147,0.0006414641393348575,-6.616178870899611e-05,"(0.0019002450862899423, 0.0, 0.0, 0.0, 0.0, 0.0, 0.0, 0.0019015723373740911, -5.740403788225339e-20, 0.0, 0.0, 0.0, 0.0, -5.740403788225339e-20, 0.001432832796126604, 0.0, 0.0, 0.0, 0.0, 0.0, 0.0, 0.0, 0.0, 0.0, 0.0, 0.0, 0.0, 0.0, 0.0, 0.0, 0.0, 0.0, 0.0, 0.0, 0.0, 0.0)"
1676104289.0816903,3994,1676104289,42475384,map,base_link,-0.41318196058273304,0.5180773735046388,0.12559893727302546,-0.05176215228839597,0.018292975862675313,-0.03945407501636379,0.9977121104047973,"(0.0005673721898347139, -1.893468120922165e-23, 6.617719492351377e-21, 0.0, 0.0, 0.0, -1.893468120922165e-23, 0.0005672869156114757, -4.290412904145507e-36, 0.0, 0.0, 0.0, 6.617719492351373e-21, -4.290412904145508e-36, 0.0005133344093337655, 0.0, 0.0, 0.0, 0.0, 0.0, 0.0, 0.0, 0.0, 0.0, 0.0, 0.0, 0.0, 0.0, 0.0, 0.0, 0.0, 0.0, 0.0, 0.0, 0.0, 0.0)",-0.0011539803817868233,-0.007652953267097473,-8.707401138963084e-05,-0.00014510219625663012,-0.0008961837738752366,-0.0012204113882035015,"(0.0019301800057291985, 0.0, 0.0, 0.0, 0.0, 0.0, 0.0, 0.0019315268145874143, -5.866487767635216e-20, 0.0, 0.0, 0.0, 0.0, -5.866487767635216e-20, 0.0014524917351081967, 0.0, 0.0, 0.0, 0.0, 0.0, 0.0, 0.0, 0.0, 0.0, 0.0, 0.0, 0.0, 0.0, 0.0, 0.0, 0.0, 0.0, 0.0, 0.0, 0.0, 0.0)"
1676104289.1258972,3995,1676104289,72511384,map,base_link,-0.4132086634635924,0.5180947184562684,0.12560819089412684,-0.051751865961269884,0.01829210926695324,-0.03944999220776373,0.9977128242360295,"(0.0005502360872924328, -1.7900705443530365e-23, 6.254756509041474e-21, 0.0, 0.0, 0.0, -1.7900705443530365e-23, 0.0005501554696820676, -4.1285415600120966e-36, 0.0, 0.0, 0.0, 6.254756509041473e-21, -4.128541560012096e-36, 0.0004991621244698763, 0.0, 0.0, 0.0, 0.0, 0.0, 0.0, 0.0, 0.0, 0.0, 0.0, 0.0, 0.0, 0.0, 0.0, 0.0, 0.0, 0.0, 0.0, 0.0, 0.0, 0.0)",-0.001538564101792872,-0.007595567032694817,4.043412991450261e-05,-3.995660154032521e-05,-0.000351476774085313,0.000811419275123626,"(0.0018994637066498399, 0.0, 0.0, 0.0, 0.0, 0.0, 0.0, 0.0019007938681170344, -5.743601580642811e-20, 0.0, 0.0, 0.0, 0.0, -5.74360158064281e-20, 0.0014317932073026896, 0.0, 0.0, 0.0, 0.0, 0.0, 0.0, 0.0, 0.0, 0.0, 0.0, 0.0, 0.0, 0.0, 0.0, 0.0, 0.0, 0.0, 0.0, 0.0, 0.0, 0.0)"
1676104289.1260543,3996,1676104289,112561944,map,base_link,-0.4132559597492217,0.5181263089179994,0.1256203949451446,-0.051747311360944674,0.0182886400168098,-0.039452137512020514,0.9977130370222299,"(0.0005495872464962304, -1.797825362595721e-23, 6.269483747415301e-21, 0.0, 0.0, 0.0, -1.797825362595721e-23, 0.0005495062796398997, -4.128048867092666e-36, 0.0, 0.0, 0.0, 6.269483747415295e-21, -4.1280488670926666e-36, 0.0004983930266462266, 0.0, 0.0, 0.0, 0.0, 0.0, 0.0, 0.0, 0.0, 0.0, 0.0, 0.0, 0.0, 0.0, 0.0, 0.0, 0.0, 0.0, 0.0, 0.0, 0.0, 0.0)",-0.0018191728740930557,-0.007611905224621296,0.00021818067762069496,-0.000342384388204664,-1.5985544450813952e-05,-0.00039346376433968544,"(0.0019022689666599035, 0.0, 0.0, 0.0, 0.0, 0.0, 0.0, 0.0019036041339859366, -5.760475887844412e-20, 0.0, 0.0, 0.0, 0.0, -5.760475887844413e-20, 0.0014332255814224482, 0.0, 0.0, 0.0, 0.0, 0.0, 0.0, 0.0, 0.0, 0.0, 0.0, 0.0, 0.0, 0.0, 0.0, 0.0, 0.0, 0.0, 0.0, 0.0, 0.0, 0.0)"
1676104289.1696966,3997,1676104289,142598944,map,base_link,-0.41329190135002125,0.5181522965431214,0.125634953379631,-0.05175449686583049,0.018292640293386647,-0.03945444427460641,0.9977125161425918,"(0.0005349109414964914, -1.7163997710475324e-23, 5.977640636929985e-21, 0.0, 0.0, 0.0, -1.7163997710475324e-23, 0.0005348336417227983, -3.993178522799948e-36, 0.0, 0.0, 0.0, 5.977640636929986e-21, -3.993178522799948e-36, 0.000486099801491946, 0.0, 0.0, 0.0, 0.0, 0.0, 0.0, 0.0, 0.0, 0.0, 0.0, 0.0, 0.0, 0.0, 0.0, 0.0, 0.0, 0.0, 0.0, 0.0, 0.0, 0.0)",-0.0017931087641045451,-0.0075647467747330666,0.00038100974052213225,0.0005086371093057096,-0.0009257277124561369,-0.000277273473329842,"(0.0018774273339658976, 0.0, 0.0, 0.0, 0.0, 0.0, 0.0, 0.0018787502776831388, -5.663702391854419e-20, 0.0, 0.0, 0.0, 0.0, -5.663702391854417e-20, 0.0014162738807499409, 0.0, 0.0, 0.0, 0.0, 0.0, 0.0, 0.0, 0.0, 0.0, 0.0, 0.0, 0.0, 0.0, 0.0, 0.0, 0.0, 0.0, 0.0, 0.0, 0.0, 0.0)"
1676104289.1841722,3998,1676104289,172636944,map,base_link,-0.4133234918117522,0.5181769728660585,0.12564915418624872,-0.051769575962455086,0.018287091306766652,-0.039445499080596226,0.9977121839012053,"(0.0005501062842085958, -1.8275521658593455e-23, 6.333646318859034e-21, 0.0, 0.0, 0.0, -1.8275521658593455e-23, 0.0005500239785760641, -4.143477315519454e-36, 0.0, 0.0, 0.0, 6.3336463188590325e-21, -4.143477315519453e-36, 0.0004983881372027099, 0.0, 0.0, 0.0, 0.0, 0.0, 0.0, 0.0, 0.0, 0.0, 0.0, 0.0, 0.0, 0.0, 0.0, 0.0, 0.0, 0.0, 0.0, 0.0, 0.0, 0.0)",-0.0016263178549706936,-0.007474387995898724,0.00034812209196388814,-0.0012447795597836375,-0.0006135877920314671,-0.0007838234887458383,"(0.0019100373610854149, 0.0, 0.0, 0.0, 0.0, 0.0, 0.0, 0.0019113817252218723, -5.800340654486117e-20, 0.0, 0.0, 0.0, 0.0, -5.800340654486116e-20, 0.001437747967429459, 0.0, 0.0, 0.0, 0.0, 0.0, 0.0, 0.0, 0.0, 0.0, 0.0, 0.0, 0.0, 0.0, 0.0, 0.0, 0.0, 0.0, 0.0, 0.0, 0.0, 0.0)"
1676104289.2257628,3999,1676104289,212686504,map,base_link,-0.41336211562156666,0.5182129740715028,0.12567162513732905,-0.05177501985219794,0.01828495643280128,-0.03943864332029618,0.9977122190973386,"(0.0005505559965968132, -1.845646741758943e-23, 6.375903370688665e-21, 0.0, 0.0, 0.0, -1.845646741758943e-23, 0.0005504728760570288, -4.154205185872503e-36, 0.0, 0.0, 0.0, 6.375903370688664e-21, -4.154205185872501e-36, 0.0004984927945770323, 0.0, 0.0, 0.0, 0.0, 0.0, 0.0, 0.0, 0.0, 0.0, 0.0, 0.0, 0.0, 0.0, 0.0, 0.0, 0.0, 0.0, 0.0, 0.0, 0.0, 0.0)",-0.001782379113137722,-0.007592334877699614,0.00026140763657167646,0.0006157585885375738,0.00011769710545195268,0.0001326844067079946,"(0.0019145894329994917, 0.0, 0.0, 0.0, 0.0, 0.0, 0.0, 0.0019159381045028567, -5.822739458173544e-20, 0.0, 0.0, 0.0, 0.0, -5.822739458173544e-20, 0.0014404753455892205, 0.0, 0.0, 0.0, 0.0, 0.0, 0.0, 0.0, 0.0, 0.0, 0.0, 0.0, 0.0, 0.0, 0.0, 0.0, 0.0, 0.0, 0.0, 0.0, 0.0, 0.0)"
1676104289.2696998,4000,1676104289,242721504,map,base_link,-0.413399577140808,0.5182287693023683,0.12568804621696467,-0.05178079042455391,0.018276557498884807,-0.03943537178887472,0.9977122112901952,"(0.0005654493579640985, -1.955506666863642e-23, 6.721558641137177e-21, 0.0, 0.0, 0.0, -1.955506666863642e-23, 0.0005653612897731364, -4.3008683685404084e-36, 0.0, 0.0, 0.0, 6.721558641137177e-21, -4.300868368540407e-36, 0.0005105636664666235, 0.0, 0.0, 0.0, 0.0, 0.0, 0.0, 0.0, 0.0, 0.0, 0.0, 0.0, 0.0, 0.0, 0.0, 0.0, 0.0, 0.0, 0.0, 0.0, 0.0, 0.0)",-0.0021006837487220764,-0.007442438043653965,0.00034569489071145746,0.0003683700633700937,-5.244650310487489e-05,-0.00022260742844082415,"(0.0019442568300291896, 0.0, 0.0, 0.0, 0.0, 0.0, 0.0, 0.0019456231966614723, -5.945527273486588e-20, 0.0, 0.0, 0.0, 0.0, -5.945527273486589e-20, 0.0014601340517401695, 0.0, 0.0, 0.0, 0.0, 0.0, 0.0, 0.0, 0.0, 0.0, 0.0, 0.0, 0.0, 0.0, 0.0, 0.0, 0.0, 0.0, 0.0, 0.0, 0.0, 0.0)"
1676104289.313683,4001,1676104289,282769504,map,base_link,-0.41345778107643116,0.5182543992996217,0.1257073134183883,-0.051784830785164875,0.0182775530528089,-0.03942806196829516,0.9977122624663759,"(0.0005643772310577333, -1.956799136570756e-23, 6.711664446140628e-21, 0.0, 0.0, 0.0, -1.956799136570756e-23, 0.0005642891046591103, -4.293277540997712e-36, 0.0, 0.0, 0.0, 6.711664446140627e-21, -4.293277540997711e-36, 0.0005095723317936063, 0.0, 0.0, 0.0, 0.0, 0.0, 0.0, 0.0, 0.0, 0.0, 0.0, 0.0, 0.0, 0.0, 0.0, 0.0, 0.0, 0.0, 0.0, 0.0, 0.0, 0.0)",-0.0023406140971928835,-0.007557121105492115,0.00026223133318126294,8.797662303550169e-05,0.0006177545292302966,0.00010673116776160888,"(0.0019429349340498447, 0.0, 0.0, 0.0, 0.0, 0.0, 0.0, 0.0019443003693595529, -5.939214377889366e-20, 0.0, 0.0, 0.0, 0.0, -5.939214377889368e-20, 0.0014593267114832997, 0.0, 0.0, 0.0, 0.0, 0.0, 0.0, 0.0, 0.0, 0.0, 0.0, 0.0, 0.0, 0.0, 0.0, 0.0, 0.0, 0.0, 0.0, 0.0, 0.0, 0.0)"
1676104289.361656,4002,1676104289,312808064,map,base_link,-0.4135029315948485,0.5182701349258424,0.1257221102714538,-0.051794501926962465,0.018274993862976402,-0.03941949660503875,0.9977121407096702,"(0.0005480129038915038, -1.8521090902945135e-23, 6.353776871215117e-21, 0.0, 0.0, 0.0, -1.8521090902945135e-23, 0.0005479294923134148, -4.136465192148631e-36, 0.0, 0.0, 0.0, 6.353776871215123e-21, -4.13646519214863e-36, 0.0004961303784511983, 0.0, 0.0, 0.0, 0.0, 0.0, 0.0, 0.0, 0.0, 0.0, 0.0, 0.0, 0.0, 0.0, 0.0, 0.0, 0.0, 0.0, 0.0, 0.0, 0.0, 0.0)",-0.0023450173903256655,-0.007660572417080402,0.0002227623044746006,-0.00011285037180641666,-0.0016566489357501268,-6.858273081888707e-06,"(0.0019115264294669032, 0.0, 0.0, 0.0, 0.0, 0.0, 0.0, 0.001912871841341257, -5.808561105257023e-20, 0.0, 0.0, 0.0, 0.0, -5.808561105257021e-20, 0.0014385668328031898, 0.0, 0.0, 0.0, 0.0, 0.0, 0.0, 0.0, 0.0, 0.0, 0.0, 0.0, 0.0, 0.0, 0.0, 0.0, 0.0, 0.0, 0.0, 0.0, 0.0, 0.0)"
1676104289.3616877,4003,1676104289,342844064,map,base_link,-0.41354674100875843,0.5182814598083497,0.12573552131652826,-0.0517932515664243,0.018282818532644306,-0.03941492733970577,0.9977122335375792,"(0.0005621725576929748, -1.954214197156528e-23, 6.673684423848415e-21, 0.0, 0.0, 0.0, -1.954214197156528e-23, 0.0005620845477096736, -4.2741768241608325e-36, 0.0, 0.0, 0.0, 6.6736844238484145e-21, -4.2741768241608365e-36, 0.0005076777888461947, 0.0, 0.0, 0.0, 0.0, 0.0, 0.0, 0.0, 0.0, 0.0, 0.0, 0.0, 0.0, 0.0, 0.0, 0.0, 0.0, 0.0, 0.0, 0.0, 0.0, 0.0)",-0.002228730358183384,-0.007375015877187252,0.000331707764416934,0.0011671835090965033,0.00034170274739153705,0.0019025779329240322,"(0.0019384782062843442, 0.0, 0.0, 0.0, 0.0, 0.0, 0.0, 0.0019398373551666737, -5.91748136513327e-20, 0.0, 0.0, 0.0, 0.0, -5.917481365133269e-20, 0.0014566383324563503, 0.0, 0.0, 0.0, 0.0, 0.0, 0.0, 0.0, 0.0, 0.0, 0.0, 0.0, 0.0, 0.0, 0.0, 0.0, 0.0, 0.0, 0.0, 0.0, 0.0, 0.0)"
1676104289.4060874,4004,1676104289,372882064,map,base_link,-0.4135873019695281,0.5182977318763734,0.12575252354145044,-0.05179938931032969,0.018278856767267,-0.03941307715930652,0.9977120628511599,"(0.0005767567781731486, -2.0601967131398846e-23, 7.007000464081485e-21, 0.0, 0.0, 0.0, -2.0601967131398846e-23, 0.0005766639951616526, -4.416773240928173e-36, 0.0, 0.0, 0.0, 7.007000464081491e-21, -4.416773240928174e-36, 0.0005195402773097157, 0.0, 0.0, 0.0, 0.0, 0.0, 0.0, 0.0, 0.0, 0.0, 0.0, 0.0, 0.0, 0.0, 0.0, 0.0, 0.0, 0.0, 0.0, 0.0, 0.0, 0.0)",-0.002283809706568718,-0.007409027777612209,0.0004982066457159826,-0.001246269210241735,-0.00011321718920953581,-0.0007722704904153943,"(0.001965909032151103, 0.0, 0.0, 0.0, 0.0, 0.0, 0.0, 0.00196728203445673, -6.029335667272174e-20, 0.0, 0.0, 0.0, 0.0, -6.029335667272174e-20, 0.0014749494148418307, 0.0, 0.0, 0.0, 0.0, 0.0, 0.0, 0.0, 0.0, 0.0, 0.0, 0.0, 0.0, 0.0, 0.0, 0.0, 0.0, 0.0, 0.0, 0.0, 0.0, 0.0)"
1676104289.4191723,4005,1676104289,412931624,map,base_link,-0.4136418104171752,0.5183136463165284,0.12577988207340235,-0.05179609351680646,0.01828098239483974,-0.03941171130267491,0.9977122398511227,"(0.0005726657109335065, -2.0253000310478037e-23, 6.89469279681161e-21, 0.0, 0.0, 0.0, -2.0253000310478037e-23, 0.0005725744995288551, -4.373049284199515e-36, 0.0, 0.0, 0.0, 6.894692796811607e-21, -4.3730492841995124e-36, 0.0005163662717677653, 0.0, 0.0, 0.0, 0.0, 0.0, 0.0, 0.0, 0.0, 0.0, 0.0, 0.0, 0.0, 0.0, 0.0, 0.0, 0.0, 0.0, 0.0, 0.0, 0.0, 0.0)",-0.0023478821385651827,-0.007400818169116974,0.000669726461637766,0.00020408171985764056,0.0009531078394502404,0.0014260926982387898,"(0.001954458188265562, 0.0, 0.0, 0.0, 0.0, 0.0, 0.0, 0.001955819083377719, -5.974578283781202e-20, 0.0, 0.0, 0.0, 0.0, -5.974578283781202e-20, 0.0014679577434435487, 0.0, 0.0, 0.0, 0.0, 0.0, 0.0, 0.0, 0.0, 0.0, 0.0, 0.0, 0.0, 0.0, 0.0, 0.0, 0.0, 0.0, 0.0, 0.0, 0.0, 0.0)"
1676104289.4616427,4006,1676104289,442967624,map,base_link,-0.4136792421340941,0.518324911594391,0.12580269575119013,-0.05178886402887116,0.018280748422763598,-0.03941307014548409,0.9977125935339249,"(0.0005868183798156679, -2.1209427893742475e-23, 7.21313190263706e-21, 0.0, 0.0, 0.0, -2.1209427893742475e-23, 0.0005867228610441089, -4.51043412305267e-36, 0.0, 0.0, 0.0, 7.213131902637055e-21, -4.5104341230526706e-36, 0.0005279186880216002, 0.0, 0.0, 0.0, 0.0, 0.0, 0.0, 0.0, 0.0, 0.0, 0.0, 0.0, 0.0, 0.0, 0.0, 0.0, 0.0, 0.0, 0.0, 0.0, 0.0, 0.0)",-0.002225764561444521,-0.0074076419696211815,0.0005004932172596463,4.465472375159152e-05,0.0020932871848344803,-0.0002979213895741853,"(0.0019800523295998573, 0.0, 0.0, 0.0, 0.0, 0.0, 0.0, 0.001981426030397415, -6.07791274308159e-20, 0.0, 0.0, 0.0, 0.0, -6.077912743081589e-20, 0.0014851267915219069, 0.0, 0.0, 0.0, 0.0, 0.0, 0.0, 0.0, 0.0, 0.0, 0.0, 0.0, 0.0, 0.0, 0.0, 0.0, 0.0, 0.0, 0.0, 0.0, 0.0, 0.0)"
1676104289.510333,4007,1676104289,483016624,map,base_link,-0.4137256145477294,0.5183442234992982,0.12582005560398096,-0.051803655548741424,0.018287340203807043,-0.03941759421755495,0.9977115113405918,"(0.0005832145689055324, -2.089923516403509e-23, 7.117761272335324e-21, 0.0, 0.0, 0.0, -2.089923516403509e-23, 0.0005831204471178353, -4.4726229463956353e-36, 0.0, 0.0, 0.0, 7.117761272335329e-21, -4.472622946395636e-36, 0.000525093637406826, 0.0, 0.0, 0.0, 0.0, 0.0, 0.0, 0.0, 0.0, 0.0, 0.0, 0.0, 0.0, 0.0, 0.0, 0.0, 0.0, 0.0, 0.0, 0.0, 0.0, 0.0)",-0.0022078154142946005,-0.007191413547843695,0.00032191490754485217,-0.001256233430467546,0.0002953179937321691,-0.0011493010679259896,"(0.0019711812492460012, 0.0, 0.0, 0.0, 0.0, 0.0, 0.0, 0.0019725458696484566, -6.036452644422428e-20, 0.0, 0.0, 0.0, 0.0, -6.036452644422428e-20, 0.0014796321047469974, 0.0, 0.0, 0.0, 0.0, 0.0, 0.0, 0.0, 0.0, 0.0, 0.0, 0.0, 0.0, 0.0, 0.0, 0.0, 0.0, 0.0, 0.0, 0.0, 0.0, 0.0)"
1676104289.5498216,4008,1676104289,513056440,map,base_link,-0.4137630462646483,0.5183694362640382,0.1258279383182525,-0.05181370963799905,0.018299925254038854,-0.03940889921701284,0.9977111176049712,"(0.0005641517345793545, -1.954214197156528e-23, 6.673862633412474e-21, 0.0, 0.0, 0.0, -1.954214197156528e-23, 0.0005640637245960534, -4.28460798912149e-36, 0.0, 0.0, 0.0, 6.67386263341247e-21, -4.2846079891214886e-36, 0.0005096555105410516, 0.0, 0.0, 0.0, 0.0, 0.0, 0.0, 0.0, 0.0, 0.0, 0.0, 0.0, 0.0, 0.0, 0.0, 0.0, 0.0, 0.0, 0.0, 0.0, 0.0, 0.0)",-0.0027080473955720663,-0.006875318940728903,0.00017764381482265974,-0.0003188708215020597,0.0005085778539068998,0.0008170088985934852,"(0.0019332743249833584, 0.0, 0.0, 0.0, 0.0, 0.0, 0.0, 0.00193461449816823, -5.876101104358809e-20, 0.0, 0.0, 0.0, 0.0, -5.876101104358809e-20, 0.0014547944301739335, 0.0, 0.0, 0.0, 0.0, 0.0, 0.0, 0.0, 0.0, 0.0, 0.0, 0.0, 0.0, 0.0, 0.0, 0.0, 0.0, 0.0, 0.0, 0.0, 0.0, 0.0)"
1676104289.593695,4009,1676104289,543093440,map,base_link,-0.41380655765533436,0.5184035897254945,0.12583081424236292,-0.051802693159538185,0.01831862601376677,-0.03940980328711984,0.9977112760668152,"(0.0005785051034763455, -2.0498569554829717e-23, 6.998617486188158e-21, 0.0, 0.0, 0.0, -2.0498569554829717e-23, 0.0005784127861261368, -4.424297650488875e-36, 0.0, 0.0, 0.0, 6.998617486188158e-21, -4.424297650488874e-36, 0.0005213570548221469, 0.0, 0.0, 0.0, 0.0, 0.0, 0.0, 0.0, 0.0, 0.0, 0.0, 0.0, 0.0, 0.0, 0.0, 0.0, 0.0, 0.0, 0.0, 0.0, 0.0, 0.0)",-0.0028059175238013268,-0.006545136217027903,5.6081320508384014e-05,0.0008504253346472979,0.0012818773975595832,-0.00013209778990130888,"(0.0019606156274676323, 0.0, 0.0, 0.0, 0.0, 0.0, 0.0, 0.001961971167474985, -5.988427305423342e-20, 0.0, 0.0, 0.0, 0.0, -5.988427305423343e-20, 0.001472978969104588, 0.0, 0.0, 0.0, 0.0, 0.0, 0.0, 0.0, 0.0, 0.0, 0.0, 0.0, 0.0, 0.0, 0.0, 0.0, 0.0, 0.0, 0.0, 0.0, 0.0, 0.0)"
1676104289.5937133,4010,1676104289,583140440,map,base_link,-0.4138536751270293,0.5184670090675355,0.1258330345153808,-0.051790205556314056,0.018316537476587184,-0.039413299990207776,0.9977118461857418,"(0.0005757868057116866, -2.0265925007549178e-23, 6.933271603239067e-21, 0.0, 0.0, 0.0, -2.0265925007549178e-23, 0.0005756955360993743, -4.397082323689915e-36, 0.0, 0.0, 0.0, 6.933271603239066e-21, -4.397082323689915e-36, 0.0005191723466850817, 0.0, 0.0, 0.0, 0.0, 0.0, 0.0, 0.0, 0.0, 0.0, 0.0, 0.0, 0.0, 0.0, 0.0, 0.0, 0.0, 0.0, 0.0, 0.0, 0.0, 0.0)",-0.002564799040555954,-0.006242030765861273,0.0003076721040997662,0.0019443745259195566,-0.0011981013230979443,0.0002648755908012392,"(0.0019550893921405077, 0.0, 0.0, 0.0, 0.0, 0.0, 0.0, 0.0019564409740269184, -5.964056791119168e-20, 0.0, 0.0, 0.0, 0.0, -5.96405679111917e-20, 0.001469438779167831, 0.0, 0.0, 0.0, 0.0, 0.0, 0.0, 0.0, 0.0, 0.0, 0.0, 0.0, 0.0, 0.0, 0.0, 0.0, 0.0, 0.0, 0.0, 0.0, 0.0, 0.0)"
1676104289.6389995,4011,1676104289,613177000,map,base_link,-0.4138856828212737,0.5185218453407289,0.12583924829959864,-0.0517914627996635,0.018318652983480743,-0.039409282982000075,0.997711916216452,"(0.000557722756639123, -1.9012229391648495e-23, 6.522669639264958e-21, 0.0, 0.0, 0.0, -1.9012229391648495e-23, 0.0005576371331699193, -4.220905818143897e-36, 0.0, 0.0, 0.0, 6.5226696392649555e-21, -4.220905818143897e-36, 0.0005044611170887947, 0.0, 0.0, 0.0, 0.0, 0.0, 0.0, 0.0, 0.0, 0.0, 0.0, 0.0, 0.0, 0.0, 0.0, 0.0, 0.0, 0.0, 0.0, 0.0, 0.0, 0.0)",-0.002696818206459284,-0.006105478387326002,0.0003571751003619291,-0.0006143728387542069,-0.00014285727229434997,-6.25475076958537e-05,"(0.001920113223604858, 0.0, 0.0, 0.0, 0.0, 0.0, 0.0, 0.0019214435014873743, -5.818372611015847e-20, 0.0, 0.0, 0.0, 0.0, -5.818372611015847e-20, 0.001446337322704494, 0.0, 0.0, 0.0, 0.0, 0.0, 0.0, 0.0, 0.0, 0.0, 0.0, 0.0, 0.0, 0.0, 0.0, 0.0, 0.0, 0.0, 0.0, 0.0, 0.0, 0.0)"
1676104289.6525292,4012,1676104289,643215000,map,base_link,-0.4139205515384673,0.5185731053352357,0.12584362924098963,-0.05179766474123359,0.01831701134310486,-0.03941099233964399,0.9977115245641102,"(0.0005713747232221067, -1.991695818662837e-23, 6.82430714739094e-21, 0.0, 0.0, 0.0, -1.991695818662837e-23, 0.000571285025216639, -4.352334203903014e-36, 0.0, 0.0, 0.0, 6.82430714739094e-21, -4.352334203903013e-36, 0.0005156500265002251, 0.0, 0.0, 0.0, 0.0, 0.0, 0.0, 0.0, 0.0, 0.0, 0.0, 0.0, 0.0, 0.0, 0.0, 0.0, 0.0, 0.0, 0.0, 0.0, 0.0, 0.0)",-0.0028434940613806248,-0.005856279283761978,0.0005059810355305679,-0.0014347720425575972,0.0012526606442406774,0.00035970177850686,"(0.0019455456640571356, 0.0, 0.0, 0.0, 0.0, 0.0, 0.0, 0.0019468903774395585, -5.92114677944683e-20, 0.0, 0.0, 0.0, 0.0, -5.92114677944683e-20, 0.0014633920509368181, 0.0, 0.0, 0.0, 0.0, 0.0, 0.0, 0.0, 0.0, 0.0, 0.0, 0.0, 0.0, 0.0, 0.0, 0.0, 0.0, 0.0, 0.0, 0.0, 0.0, 0.0)"
1676104289.693936,4013,1676104289,673249000,map,base_link,-0.4139547049999236,0.5186309218406678,0.12585650384426111,-0.05180555027332574,0.01831747104963007,-0.03940800462940032,0.9977112272238211,"(0.0005854495102539659, -2.0873385769892808e-23, 7.139531352680754e-21, 0.0, 0.0, 0.0, -2.0873385769892808e-23, 0.0005853555048815906, -4.488673356049186e-36, 0.0, 0.0, 0.0, 7.139531352680752e-21, -4.4886733560491854e-36, 0.0005271508125588298, 0.0, 0.0, 0.0, 0.0, 0.0, 0.0, 0.0, 0.0, 0.0, 0.0, 0.0, 0.0, 0.0, 0.0, 0.0, 0.0, 0.0, 0.0, 0.0, 0.0, 0.0)",-0.00278105610050261,-0.005699402652680874,0.0009083244949579245,0.001767946989275515,-0.00023964641150087113,0.0003541203041095287,"(0.001971578923985362, 0.0, 0.0, 0.0, 0.0, 0.0, 0.0, 0.0019729381892830133, -6.027296949859342e-20, 0.0, 0.0, 0.0, 0.0, -6.027296949859341e-20, 0.0014807720435783267, 0.0, 0.0, 0.0, 0.0, 0.0, 0.0, 0.0, 0.0, 0.0, 0.0, 0.0, 0.0, 0.0, 0.0, 0.0, 0.0, 0.0, 0.0, 0.0, 0.0, 0.0)"
1676104289.7379253,4014,1676104289,713299304,map,base_link,-0.41399279236793507,0.5187180638313295,0.12587583065032953,-0.0518103924487279,0.018312387282520215,-0.03941843674239471,0.9977106686057052,"(0.0005818625213578343, -2.0563193040185422e-23, 7.046947919960908e-21, 0.0, 0.0, 0.0, -2.0563193040185422e-23, 0.000581769912969321, -4.4515024494746585e-36, 0.0, 0.0, 0.0, 7.046947919960907e-21, -4.451502449474657e-36, 0.0005243198247626424, 0.0, 0.0, 0.0, 0.0, 0.0, 0.0, 0.0, 0.0, 0.0, 0.0, 0.0, 0.0, 0.0, 0.0, 0.0, 0.0, 0.0, 0.0, 0.0, 0.0, 0.0)",-0.0028441643808037043,-0.005559172481298447,0.0007329490617848939,0.0004458404437173158,-0.0006124905194155873,-0.0005104168085381388,"(0.001963662914931774, 0.0, 0.0, 0.0, 0.0, 0.0, 0.0, 0.0019650172907859087, -5.991955854791707e-20, 0.0, 0.0, 0.0, 0.0, -5.991955854791707e-20, 0.00147573696449399, 0.0, 0.0, 0.0, 0.0, 0.0, 0.0, 0.0, 0.0, 0.0, 0.0, 0.0, 0.0, 0.0, 0.0, 0.0, 0.0, 0.0, 0.0, 0.0, 0.0, 0.0)"
1676104289.7816346,4015,1676104289,743335304,map,base_link,-0.4140162467956542,0.5187937617301942,0.12588503956794733,-0.05181591164645937,0.018315828580824704,-0.039418450517565096,0.9977103031951035,"(0.000562897592317313, -1.920609984771561e-23, 6.609921041828163e-21, 0.0, 0.0, 0.0, -1.920609984771561e-23, 0.0005628110957331955, -4.265362472175003e-36, 0.0, 0.0, 0.0, 6.609921041828162e-21, -4.265362472175002e-36, 0.0005089234909974039, 0.0, 0.0, 0.0, 0.0, 0.0, 0.0, 0.0, 0.0, 0.0, 0.0, 0.0, 0.0, 0.0, 0.0, 0.0, 0.0, 0.0, 0.0, 0.0, 0.0, 0.0)",-0.0025981978978961706,-0.005350468214601278,0.000620196457020939,0.00011949619511142373,0.00022719585103914136,-0.00047639830154366797,"(0.001926708035171032, 0.0, 0.0, 0.0, 0.0, 0.0, 0.0, 0.0019280395936220884, -5.837767514291495e-20, 0.0, 0.0, 0.0, 0.0, -5.837767514291496e-20, 0.0014513497008010745, 0.0, 0.0, 0.0, 0.0, 0.0, 0.0, 0.0, 0.0, 0.0, 0.0, 0.0, 0.0, 0.0, 0.0, 0.0, 0.0, 0.0, 0.0, 0.0, 0.0, 0.0)"
1676104289.8263943,4016,1676104289,783383304,map,base_link,-0.41404101252555836,0.5189000368118287,0.12589053809642786,-0.05180776732861054,0.01831888264283186,-0.039417367138170414,0.9977106970830832,"(0.0005601381417363882, -1.8973455300435072e-23, 6.545587389202919e-21, 0.0, 0.0, 0.0, -1.8973455300435072e-23, 0.0005600526928901672, -4.238131423033167e-36, 0.0, 0.0, 0.0, 6.545587389202918e-21, -4.238131423033167e-36, 0.0005066893645562232, 0.0, 0.0, 0.0, 0.0, 0.0, 0.0, 0.0, 0.0, 0.0, 0.0, 0.0, 0.0, 0.0, 0.0, 0.0, 0.0, 0.0, 0.0, 0.0, 0.0, 0.0)",-0.002790801227092743,-0.005100120324641466,0.0006028111092746264,0.0015074140392243862,0.00038221746217459446,0.0005280358600430191,"(0.0019215026404708624, 0.0, 0.0, 0.0, 0.0, 0.0, 0.0, 0.001922831404954195, -5.816351001721162e-20, 0.0, 0.0, 0.0, 0.0, -5.816351001721162e-20, 0.0014478903030976653, 0.0, 0.0, 0.0, 0.0, 0.0, 0.0, 0.0, 0.0, 0.0, 0.0, 0.0, 0.0, 0.0, 0.0, 0.0, 0.0, 0.0, 0.0, 0.0, 0.0, 0.0)"
1676104289.8264365,4017,1676104289,813424656,map,base_link,-0.4140537977218627,0.5189867615699769,0.12589177489280695,-0.05181525068893251,0.01832101884118824,-0.03941579437493533,0.9977103242972675,"(0.0005745363305322826, -1.9942807580770652e-23, 6.87169663466546e-21, 0.0, 0.0, 0.0, -1.9942807580770652e-23, 0.0005744465161114931, -4.37832456384106e-36, 0.0, 0.0, 0.0, 6.87169663466546e-21, -4.3783245638410585e-36, 0.0005184246692806482, 0.0, 0.0, 0.0, 0.0, 0.0, 0.0, 0.0, 0.0, 0.0, 0.0, 0.0, 0.0, 0.0, 0.0, 0.0, 0.0, 0.0, 0.0, 0.0, 0.0, 0.0)",-0.0024323014076799154,-0.004620474297553301,0.00045415069325827116,-0.0010501790093258023,4.655508746509445e-05,0.0003627820988185704,"(0.0019496710738167167, 0.0, 0.0, 0.0, 0.0, 0.0, 0.0, 0.0019510170677676797, -5.932847306584676e-20, 0.0, 0.0, 0.0, 0.0, -5.932847306584676e-20, 0.0014665633207187057, 0.0, 0.0, 0.0, 0.0, 0.0, 0.0, 0.0, 0.0, 0.0, 0.0, 0.0, 0.0, 0.0, 0.0, 0.0, 0.0, 0.0, 0.0, 0.0, 0.0, 0.0)"
1676104289.8698068,4018,1676104289,843462656,map,base_link,-0.4140634238719939,0.519083321094513,0.125888243317604,-0.05181355661958563,0.018321528916793135,-0.03941562386327528,0.9977104310160867,"(0.0005565820029005408, -1.8676187267798828e-23, 6.4679664314814544e-21, 0.0, 0.0, 0.0, -1.8676187267798828e-23, 0.0005564978928305209, -4.2040852385765535e-36, 0.0, 0.0, 0.0, 6.46796643148146e-21, -4.204085238576554e-36, 0.0005037670489400625, 0.0, 0.0, 0.0, 0.0, 0.0, 0.0, 0.0, 0.0, 0.0, 0.0, 0.0, 0.0, 0.0, 0.0, 0.0, 0.0, 0.0, 0.0, 0.0, 0.0, 0.0)",-0.002695807022973895,-0.004539096262305975,0.000522545247804374,-0.0003549143439158797,-5.859030716237618e-05,-0.0005087871104478836,"(0.0019155243644490838, 0.0, 0.0, 0.0, 0.0, 0.0, 0.0, 0.0019168509170413017, -5.792766035175358e-20, 0.0, 0.0, 0.0, 0.0, -5.792766035175358e-20, 0.001443835673853755, 0.0, 0.0, 0.0, 0.0, 0.0, 0.0, 0.0, 0.0, 0.0, 0.0, 0.0, 0.0, 0.0, 0.0, 0.0, 0.0, 0.0, 0.0, 0.0, 0.0, 0.0)"
1676104289.888569,4019,1676104289,883508656,map,base_link,-0.4140712320804595,0.5192105174064637,0.12589514255523676,-0.0518282856486224,0.018323727146314774,-0.03941979728247447,0.9977094612065259,"(0.0005545606836676598, -1.8546940297087417e-23, 6.427184954842231e-21, 0.0, 0.0, 0.0, -1.8546940297087417e-23, 0.0005544771556742489, -4.1853939547525634e-36, 0.0, 0.0, 0.0, 6.4271849548422304e-21, -4.185393954752562e-36, 0.0005020787357352674, 0.0, 0.0, 0.0, 0.0, 0.0, 0.0, 0.0, 0.0, 0.0, 0.0, 0.0, 0.0, 0.0, 0.0, 0.0, 0.0, 0.0, 0.0, 0.0, 0.0, 0.0)",-0.0024452575016766787,-0.004413852002471685,0.0008576006512157624,-0.0008120195125229657,-0.00045096012763679033,-0.0004975286428816615,"(0.0019125138642266393, 0.0, 0.0, 0.0, 0.0, 0.0, 0.0, 0.001913839252665639, -5.781245143278084e-20, 0.0, 0.0, 0.0, 0.0, -5.781245143278085e-20, 0.0014417647616937757, 0.0, 0.0, 0.0, 0.0, 0.0, 0.0, 0.0, 0.0, 0.0, 0.0, 0.0, 0.0, 0.0, 0.0, 0.0, 0.0, 0.0, 0.0, 0.0, 0.0, 0.0)"
1676104289.9302764,4020,1676104289,913546960,map,base_link,-0.4140694737434386,0.519308626651764,0.12590578198432917,-0.05183596332245469,0.01832713985193554,-0.039418083467707477,0.9977090749194676,"(0.0005385195836424828, -1.7500039834324992e-23, 6.083311780034311e-21, 0.0, 0.0, 0.0, -1.7500039834324992e-23, 0.0005384407704696059, -4.033054475822443e-36, 0.0, 0.0, 0.0, 6.08331178003431e-21, -4.0330544758224395e-36, 0.0004888455732725561, 0.0, 0.0, 0.0, 0.0, 0.0, 0.0, 0.0, 0.0, 0.0, 0.0, 0.0, 0.0, 0.0, 0.0, 0.0, 0.0, 0.0, 0.0, 0.0, 0.0, 0.0)",-0.0024011004716157913,-0.004395306576043367,0.0009625725797377532,-0.0008955117664299905,0.0003220765793230386,0.0014267412479966879,"(0.0018828370375558734, 0.0, 0.0, 0.0, 0.0, 0.0, 0.0, 0.0018841458950191736, -5.661737809620232e-20, 0.0, 0.0, 0.0, 0.0, -5.661737809620233e-20, 0.0014218299183994532, 0.0, 0.0, 0.0, 0.0, 0.0, 0.0, 0.0, 0.0, 0.0, 0.0, 0.0, 0.0, 0.0, 0.0, 0.0, 0.0, 0.0, 0.0, 0.0, 0.0, 0.0)"
1676104289.9737122,4021,1676104289,943582960,map,base_link,-0.41406336426734913,0.5194029808044435,0.12591871619224543,-0.051834908578976824,0.018324637003704684,-0.03942061233317641,0.9977090534110605,"(0.0005536361131817102, -1.8559864994158558e-23, 6.431739991299579e-21, 0.0, 0.0, 0.0, -1.8559864994158558e-23, 0.0005535525269806385, -4.181439368138026e-36, 0.0, 0.0, 0.0, 6.43173999129958e-21, -4.181439368138025e-36, 0.0005011169705539942, 0.0, 0.0, 0.0, 0.0, 0.0, 0.0, 0.0, 0.0, 0.0, 0.0, 0.0, 0.0, 0.0, 0.0, 0.0, 0.0, 0.0, 0.0, 0.0, 0.0, 0.0)",-0.0022442988120019436,-0.00438117329031229,0.0010711411014199261,0.0006894720136187971,-8.226199133787308e-05,-0.00032578789978288114,"(0.0019146952545270324, 0.0, 0.0, 0.0, 0.0, 0.0, 0.0, 0.0019160248339176178, -5.79492450941524e-20, 0.0, 0.0, 0.0, 0.0, -5.794924509415241e-20, 0.001442833337932825, 0.0, 0.0, 0.0, 0.0, 0.0, 0.0, 0.0, 0.0, 0.0, 0.0, 0.0, 0.0, 0.0, 0.0, 0.0, 0.0, 0.0, 0.0, 0.0, 0.0, 0.0)"
1676104290.0177467,4022,1676104289,973618960,map,base_link,-0.41405051946640004,0.5195043087005616,0.1259289532899856,-0.05183766060443909,0.01832395807281706,-0.03941714829236621,0.9977091002964892,"(0.0005385744152590632, -1.761636210796526e-23, 6.115560582746402e-21, 0.0, 0.0, 0.0, -1.761636210796526e-23, 0.0005384950782172382, -4.0397270616868155e-36, 0.0, 0.0, 0.0, 6.115560582746398e-21, -4.039727061686813e-36, 0.000488637073431164, 0.0, 0.0, 0.0, 0.0, 0.0, 0.0, 0.0, 0.0, 0.0, 0.0, 0.0, 0.0, 0.0, 0.0, 0.0, 0.0, 0.0, 0.0, 0.0, 0.0, 0.0)",-0.0021105885971337557,-0.00396990031003952,0.001060749869793654,0.0007645354489795864,-0.000892980897333473,0.00014754511357750754,"(0.0018876299727708101, 0.0, 0.0, 0.0, 0.0, 0.0, 0.0, 0.0018889453494921327, -5.686815459474594e-20, 0.0, 0.0, 0.0, 0.0, -5.686815459474592e-20, 0.0014245816273614764, 0.0, 0.0, 0.0, 0.0, 0.0, 0.0, 0.0, 0.0, 0.0, 0.0, 0.0, 0.0, 0.0, 0.0, 0.0, 0.0, 0.0, 0.0, 0.0, 0.0, 0.0)"
1676104290.0616407,4023,1676104290,13672032,map,base_link,-0.41402119398117054,0.5196399688720704,0.12595012784004206,-0.05184540625361022,0.018309614454287578,-0.0394174699712391,0.9977089178253258,"(0.0005387069541029632, -1.770683498746325e-23, 6.137694210602498e-21, 0.0, 0.0, 0.0, -1.770683498746325e-23, 0.0005386272096075118, -4.044805114808203e-36, 0.0, 0.0, 0.0, 6.137694210602503e-21, -4.044805114808201e-36, 0.0004885888774879277, 0.0, 0.0, 0.0, 0.0, 0.0, 0.0, 0.0, 0.0, 0.0, 0.0, 0.0, 0.0, 0.0, 0.0, 0.0, 0.0, 0.0, 0.0, 0.0, 0.0, 0.0)",-0.001894019660539925,-0.003821523394435644,0.0013645038707181816,-0.0002020892861764878,-0.0001520216464996338,7.425976218655707e-05,"(0.001890447223559022, 0.0, 0.0, 0.0, 0.0, 0.0, 0.0, 0.0018917662091553211, -5.700952467772252e-20, 0.0, 0.0, 0.0, 0.0, -5.700952467772252e-20, 0.001426248112693429, 0.0, 0.0, 0.0, 0.0, 0.0, 0.0, 0.0, 0.0, 0.0, 0.0, 0.0, 0.0, 0.0, 0.0, 0.0, 0.0, 0.0, 0.0, 0.0, 0.0, 0.0)"
1676104290.0616791,4024,1676104290,43707032,map,base_link,-0.4139941334724425,0.5197406411170961,0.12596875429153437,-0.051861443268207484,0.01830782326216887,-0.03943041449451202,0.9977076086053754,"(0.000553977966774255, -1.8753735450225674e-23, 6.489900464625822e-21, 0.0, 0.0, 0.0, -1.8753735450225674e-23, 0.0005538935074582696, -4.194749697492093e-36, 0.0, 0.0, 0.0, 6.4899004646258185e-21, -4.1947496974920925e-36, 0.000500983907841146, 0.0, 0.0, 0.0, 0.0, 0.0, 0.0, 0.0, 0.0, 0.0, 0.0, 0.0, 0.0, 0.0, 0.0, 0.0, 0.0, 0.0, 0.0, 0.0, 0.0, 0.0)",-0.0016705398447811604,-0.0037462706677615643,0.0013497954932972793,-0.0011240732856094837,8.697034559189567e-07,-0.001004291814751923,"(0.0019220422254875302, 0.0, 0.0, 0.0, 0.0, 0.0, 0.0, 0.0019233808852732182, -5.832687828877562e-20, 0.0, 0.0, 0.0, 0.0, -5.832687828877562e-20, 0.0014471057802438736, 0.0, 0.0, 0.0, 0.0, 0.0, 0.0, 0.0, 0.0, 0.0, 0.0, 0.0, 0.0, 0.0, 0.0, 0.0, 0.0, 0.0, 0.0, 0.0, 0.0, 0.0)"
1676104290.106713,4025,1676104290,73744032,map,base_link,-0.41395872831344593,0.5198353528976442,0.1259817332029342,-0.05185627138698251,0.01831224399365652,-0.039427233716142505,0.9977079562876755,"(0.0005390100996010005, -1.7823157261103518e-23, 6.170670108335959e-21, 0.0, 0.0, 0.0, -1.7823157261103518e-23, 0.0005389298312366009, -4.0529259773059406e-36, 0.0, 0.0, 0.0, 6.1706701083359564e-21, -4.05292597730594e-36, 0.0004886227543465793, 0.0, 0.0, 0.0, 0.0, 0.0, 0.0, 0.0, 0.0, 0.0, 0.0, 0.0, 0.0, 0.0, 0.0, 0.0, 0.0, 0.0, 0.0, 0.0, 0.0, 0.0)",-0.0015916291158646345,-0.003921438008546829,0.0011113805230706934,0.0007182531408034265,-0.0004898360348306595,0.0005898547242395581,"(0.0018942204769700766, 0.0, 0.0, 0.0, 0.0, 0.0, 0.0, 0.0018955428386107087, -5.719899708622987e-20, 0.0, 0.0, 0.0, 0.0, -5.719899708622986e-20, 0.0014284775825217366, 0.0, 0.0, 0.0, 0.0, 0.0, 0.0, 0.0, 0.0, 0.0, 0.0, 0.0, 0.0, 0.0, 0.0, 0.0, 0.0, 0.0, 0.0, 0.0, 0.0, 0.0)"
1676104290.118362,4026,1676104290,113797592,map,base_link,-0.41390228271484364,0.5199479460716249,0.1259980052709579,-0.05185225950831723,0.018316275129082724,-0.03943034204770997,0.9977079399714975,"(0.0005392616149038076, -1.7900705443530365e-23, 6.191905559989199e-21, 0.0, 0.0, 0.0, -1.7900705443530365e-23, 0.0005391809972934425, -4.0584512503081944e-36, 0.0, 0.0, 0.0, 6.1919055599892034e-21, -4.0584512503081944e-36, 0.0004887008690275252, 0.0, 0.0, 0.0, 0.0, 0.0, 0.0, 0.0, 0.0, 0.0, 0.0, 0.0, 0.0, 0.0, 0.0, 0.0, 0.0, 0.0, 0.0, 0.0, 0.0, 0.0)",-0.0013255535159260035,-0.003952087834477425,0.0011827728012576704,0.0004996399511583149,0.0001944714458659293,0.0012325226562097669,"(0.0018963317852467299, 0.0, 0.0, 0.0, 0.0, 0.0, 0.0, 0.0018976558931171894, -5.729829545532341e-20, 0.0, 0.0, 0.0, 0.0, -5.729829545532342e-20, 0.0014297798043116927, 0.0, 0.0, 0.0, 0.0, 0.0, 0.0, 0.0, 0.0, 0.0, 0.0, 0.0, 0.0, 0.0, 0.0, 0.0, 0.0, 0.0, 0.0, 0.0, 0.0, 0.0)"
1676104290.1616683,4027,1676104290,143830592,map,base_link,-0.413851499557495,0.5200315117836,0.12600535154342646,-0.0518466473447807,0.018306925097382232,-0.03943135172093839,0.9977083623476213,"(0.0005554727395065129, -1.906392817993306e-23, 6.5727750402957384e-21, 0.0, 0.0, 0.0, -1.906392817993306e-23, 0.0005553868832066655, -4.219008463235244e-36, 0.0, 0.0, 0.0, 6.5727750402957414e-21, -4.219008463235247e-36, 0.0005018019583076239, 0.0, 0.0, 0.0, 0.0, 0.0, 0.0, 0.0, 0.0, 0.0, 0.0, 0.0, 0.0, 0.0, 0.0, 0.0, 0.0, 0.0, 0.0, 0.0, 0.0, 0.0)",-0.0009952987311407924,-0.003756777849048376,0.001037014764733613,0.00037422447348944843,-0.001586626167409122,-3.4422824683133316e-05,"(0.0019303347216919065, 0.0, 0.0, 0.0, 0.0, 0.0, 0.0, 0.0019316804828122258, -5.871844034292569e-20, 0.0, 0.0, 0.0, 0.0, -5.871844034292568e-20, 0.0014522080309689045, 0.0, 0.0, 0.0, 0.0, 0.0, 0.0, 0.0, 0.0, 0.0, 0.0, 0.0, 0.0, 0.0, 0.0, 0.0, 0.0, 0.0, 0.0, 0.0, 0.0, 0.0)"
1676104290.2059467,4028,1676104290,173872592,map,base_link,-0.4137912392616271,0.5201210379600526,0.12601463496685023,-0.051842125790166206,0.018303154275731832,-0.03942199559274079,0.9977090364656296,"(0.0005412417813204229, -1.8185048779095468e-23, 6.270709829216021e-21, 0.0, 0.0, 0.0, -1.8185048779095468e-23, 0.0005411598831415176, -4.084453889909777e-36, 0.0, 0.0, 0.0, 6.270709829216018e-21, -4.084453889909777e-36, 0.000490037549752742, 0.0, 0.0, 0.0, 0.0, 0.0, 0.0, 0.0, 0.0, 0.0, 0.0, 0.0, 0.0, 0.0, 0.0, 0.0, 0.0, 0.0, 0.0, 0.0, 0.0, 0.0)",-0.0007921706419438124,-0.003392679151147604,0.0012468665372580294,0.001088629593141377,-0.0004464112862478941,0.0004323236935306341,"(0.0019041539635509253, 0.0, 0.0, 0.0, 0.0, 0.0, 0.0, 0.0019054843578487635, -5.765511377286456e-20, 0.0, 0.0, 0.0, 0.0, -5.765511377286458e-20, 0.0014346946263685822, 0.0, 0.0, 0.0, 0.0, 0.0, 0.0, 0.0, 0.0, 0.0, 0.0, 0.0, 0.0, 0.0, 0.0, 0.0, 0.0, 0.0, 0.0, 0.0, 0.0, 0.0)"
1676104290.2506962,4029,1676104290,213916896,map,base_link,-0.41370609402656544,0.5202261209487916,0.12602886557579035,-0.051839877885933416,0.018302610447444755,-0.03942344298125465,0.9977091137009553,"(0.0005414274055510759, -1.8275521658593455e-23, 6.28426088446705e-21, 0.0, 0.0, 0.0, -1.8275521658593455e-23, 0.0005413450999185443, -4.088111292145905e-36, 0.0, 0.0, 0.0, 6.284260884467049e-21, -4.088111292145904e-36, 0.0004901125212199986, 0.0, 0.0, 0.0, 0.0, 0.0, 0.0, 0.0, 0.0, 0.0, 0.0, 0.0, 0.0, 0.0, 0.0, 0.0, 0.0, 0.0, 0.0, 0.0, 0.0, 0.0)",-0.0005857775686308742,-0.003639906644821167,0.00110477046109736,0.00038790691178292036,0.0001183354906970633,-0.0016849776729941368,"(0.0019048226531594992, 0.0, 0.0, 0.0, 0.0, 0.0, 0.0, 0.0019061523489654064, -5.767302026986122e-20, 0.0, 0.0, 0.0, 0.0, -5.767302026986124e-20, 0.0014352163998410106, 0.0, 0.0, 0.0, 0.0, 0.0, 0.0, 0.0, 0.0, 0.0, 0.0, 0.0, 0.0, 0.0, 0.0, 0.0, 0.0, 0.0, 0.0, 0.0, 0.0, 0.0)"
1676104290.2949283,4030,1676104290,243952896,map,base_link,-0.4136373698711394,0.52029687166214,0.12603221833705897,-0.05182460446768365,0.018303806204044825,-0.039419041893962295,0.9977100496665469,"(0.000556858372874558, -1.9361196212569304e-23, 6.638177950305325e-21, 0.0, 0.0, 0.0, -1.9361196212569304e-23, 0.0005567711777985096, -4.239234421953387e-36, 0.0, 0.0, 0.0, 6.638177950305328e-21, -4.239234421953386e-36, 0.0005026535363867879, 0.0, 0.0, 0.0, 0.0, 0.0, 0.0, 0.0, 0.0, 0.0, 0.0, 0.0, 0.0, 0.0, 0.0, 0.0, 0.0, 0.0, 0.0, 0.0, 0.0, 0.0)",-0.0005695054423995316,-0.0034695491194725037,0.0008576458785682921,0.0018797684460878372,0.0006118686287663878,0.000546042458154261,"(0.001935379346832633, 0.0, 0.0, 0.0, 0.0, 0.0, 0.0, 0.0019367265049368143, -5.892517769399905e-20, 0.0, 0.0, 0.0, 0.0, -5.892517769399905e-20, 0.0014555659145116806, 0.0, 0.0, 0.0, 0.0, 0.0, 0.0, 0.0, 0.0, 0.0, 0.0, 0.0, 0.0, 0.0, 0.0, 0.0, 0.0, 0.0, 0.0, 0.0, 0.0, 0.0)"
1676104290.2949405,4031,1676104290,273988896,map,base_link,-0.4135672152042388,0.5203702449798585,0.12603087723255152,-0.05183147025328711,0.018314863095954145,-0.03942067778854106,0.9977094213042154,"(0.000542523805052042, -1.844354272051829e-23, 6.327822430305591e-21, 0.0, 0.0, 0.0, -1.844354272051829e-23, 0.0005424407427199185, -4.102494413670818e-36, 0.0, 0.0, 0.0, 6.3278224303055886e-21, -4.1024944136708154e-36, 0.0004908532137051225, 0.0, 0.0, 0.0, 0.0, 0.0, 0.0, 0.0, 0.0, 0.0, 0.0, 0.0, 0.0, 0.0, 0.0, 0.0, 0.0, 0.0, 0.0, 0.0, 0.0, 0.0)",-0.0003986406954936683,-0.003393243532627821,0.0009478722931817178,-0.0006632731528952718,0.0003707486612256617,0.00028050423134118313,"(0.0019082899671047926, 0.0, 0.0, 0.0, 0.0, 0.0, 0.0, 0.0019096210598945618, -5.781068359390537e-20, 0.0, 0.0, 0.0, 0.0, -5.781068359390537e-20, 0.001437561004422605, 0.0, 0.0, 0.0, 0.0, 0.0, 0.0, 0.0, 0.0, 0.0, 0.0, 0.0, 0.0, 0.0, 0.0, 0.0, 0.0, 0.0, 0.0, 0.0, 0.0, 0.0)"
1676104290.337987,4032,1676104290,314039456,map,base_link,-0.4134683907032012,0.5204570889472963,0.1260311752557754,-0.0518243441769695,0.01830903173568313,-0.03942412843737935,0.9977098040865664,"(0.0005426515126600862, -1.8482316811731712e-23, 6.335250204935566e-21, 0.0, 0.0, 0.0, -1.8482316811731712e-23, 0.0005425682757049799, -4.1046356304879075e-36, 0.0, 0.0, 0.0, 6.3352502049355615e-21, -4.104635630487908e-36, 0.0004909202689304948, 0.0, 0.0, 0.0, 0.0, 0.0, 0.0, 0.0, 0.0, 0.0, 0.0, 0.0, 0.0, 0.0, 0.0, 0.0, 0.0, 0.0, 0.0, 0.0, 0.0, 0.0)",-0.0003331208718009293,-0.0033350905869156122,0.0010469065746292476,0.0009783075656741858,0.0010676553938537836,-0.0007134073530323805,"(0.0019081429345533252, 0.0, 0.0, 0.0, 0.0, 0.0, 0.0, 0.0019094720482826233, -5.778359574016841e-20, 0.0, 0.0, 0.0, 0.0, -5.778359574016842e-20, 0.0014376331819221377, 0.0, 0.0, 0.0, 0.0, 0.0, 0.0, 0.0, 0.0, 0.0, 0.0, 0.0, 0.0, 0.0, 0.0, 0.0, 0.0, 0.0, 0.0, 0.0, 0.0, 0.0)"
1676104290.3515072,4033,1676104290,344075456,map,base_link,-0.4133917689323424,0.520517647266388,0.12603011727333063,-0.051831264216754984,0.018309712224463773,-0.03941556517754506,0.997709744110545,"(0.000529360375367105, -1.7680985593320967e-23, 6.054573705734187e-21, 0.0, 0.0, 0.0, -1.7680985593320967e-23, 0.0005292807472869754, -3.9792520902248975e-36, 0.0, 0.0, 0.0, 6.054573705734189e-21, -3.979252090224897e-36, 0.00047992102918215096, 0.0, 0.0, 0.0, 0.0, 0.0, 0.0, 0.0, 0.0, 0.0, 0.0, 0.0, 0.0, 0.0, 0.0, 0.0, 0.0, 0.0, 0.0, 0.0, 0.0, 0.0)",-8.832780440570787e-05,-0.003513146424666047,0.0007703041774220769,-0.001370600308291614,-0.0006583667709492147,0.00015787022130098202,"(0.001883222023025155, 0.0, 0.0, 0.0, 0.0, 0.0, 0.0, 0.001884536468423903, -5.67706810915883e-20, 0.0, 0.0, 0.0, 0.0, -5.67706810915883e-20, 0.0014209686778485775, 0.0, 0.0, 0.0, 0.0, 0.0, 0.0, 0.0, 0.0, 0.0, 0.0, 0.0, 0.0, 0.0, 0.0, 0.0, 0.0, 0.0, 0.0, 0.0, 0.0, 0.0)"
1676104290.3945453,4034,1676104290,374111456,map,base_link,-0.41331201791763295,0.5205684900283815,0.12602931261062617,-0.05183289296387236,0.018309310338502055,-0.0394056413521204,0.9977100486093604,"(0.0005452040932141244, -1.8779584844367956e-23, 6.4189801865129756e-21, 0.0, 0.0, 0.0, -1.8779584844367956e-23, 0.0005451195174828172, -4.134620184125638e-36, 0.0, 0.0, 0.0, 6.418980186512972e-21, -4.1346201841256375e-36, 0.0004927891422994435, 0.0, 0.0, 0.0, 0.0, 0.0, 0.0, 0.0, 0.0, 0.0, 0.0, 0.0, 0.0, 0.0, 0.0, 0.0, 0.0, 0.0, 0.0, 0.0, 0.0, 0.0)",5.44588292541448e-05,-0.0035666534677147865,0.0010494835441932087,-0.0016620910027995706,-0.0010572680039331317,0.00044373463606461893,"(0.0019157222704961896, 0.0, 0.0, 0.0, 0.0, 0.0, 0.0, 0.0019170562736690044, -5.811188627069508e-20, 0.0, 0.0, 0.0, 0.0, -5.811188627069507e-20, 0.00144253671169281, 0.0, 0.0, 0.0, 0.0, 0.0, 0.0, 0.0, 0.0, 0.0, 0.0, 0.0, 0.0, 0.0, 0.0, 0.0, 0.0, 0.0, 0.0, 0.0, 0.0, 0.0)"
1676104290.4377818,4035,1676104290,414162016,map,base_link,-0.41320207715034474,0.5206317901611329,0.1260267794132232,-0.05182703805922299,0.018298102219131977,-0.039404495523199135,0.9977106218557583,"(0.0005467620794661343, -1.896053060336393e-23, 6.4675814988230944e-21, 0.0, 0.0, 0.0, -1.896053060336393e-23, 0.0005466766888275743, -4.1524256694075426e-36, 0.0, 0.0, 0.0, 6.467581498823092e-21, -4.152425669407543e-36, 0.0004939502687193453, 0.0, 0.0, 0.0, 0.0, 0.0, 0.0, 0.0, 0.0, 0.0, 0.0, 0.0, 0.0, 0.0, 0.0, 0.0, 0.0, 0.0, 0.0, 0.0, 0.0, 0.0)",0.00030114350374788046,-0.0034351982176303864,0.000954074203036726,0.0012441506842151284,-0.0016144877299666405,-0.0004987426800653336,"(0.0019196985522285104, 0.0, 0.0, 0.0, 0.0, 0.0, 0.0, 0.0019210345344617963, -5.82702646744654e-20, 0.0, 0.0, 0.0, 0.0, -5.82702646744654e-20, 0.0014452217146754265, 0.0, 0.0, 0.0, 0.0, 0.0, 0.0, 0.0, 0.0, 0.0, 0.0, 0.0, 0.0, 0.0, 0.0, 0.0, 0.0, 0.0, 0.0, 0.0, 0.0, 0.0)"
1676104290.481705,4036,1676104290,444199016,map,base_link,-0.41311973333358754,0.5206704139709474,0.12602832913398737,-0.051837528490830724,0.018299028068240724,-0.03940288677103491,0.9977101196100749,"(0.0005621958989650011, -2.003328046026864e-23, 6.817421129835691e-21, 0.0, 0.0, 0.0, -2.003328046026864e-23, 0.0005621056770905852, -4.3027565168550385e-36, 0.0, 0.0, 0.0, 6.817421129835695e-21, -4.302756516855039e-36, 0.0005065274308435619, 0.0, 0.0, 0.0, 0.0, 0.0, 0.0, 0.0, 0.0, 0.0, 0.0, 0.0, 0.0, 0.0, 0.0, 0.0, 0.0, 0.0, 0.0, 0.0, 0.0, 0.0)",0.00022926728706806898,-0.0034941034391522408,0.0011264309287071232,-0.00025135697796940804,-0.00034562768996693194,0.00017559011757839477,"(0.0019489964470267296, 0.0, 0.0, 0.0, 0.0, 0.0, 0.0, 0.0019503487274050713, -5.946117503562751e-20, 0.0, 0.0, 0.0, 0.0, -5.94611750356275e-20, 0.0014648113865405321, 0.0, 0.0, 0.0, 0.0, 0.0, 0.0, 0.0, 0.0, 0.0, 0.0, 0.0, 0.0, 0.0, 0.0, 0.0, 0.0, 0.0, 0.0, 0.0, 0.0, 0.0)"
1676104290.5259182,4037,1676104290,474235016,map,base_link,-0.4130379557609557,0.520707130432129,0.126036986708641,-0.05183099975414388,0.018291964545691198,-0.03941056039218275,0.9977102867782361,"(0.0005464639398269355, -1.893468120922165e-23, 6.4529754429528315e-21, 0.0, 0.0, 0.0, -1.893468120922165e-23, 0.0005463786656036973, -4.1479676862442794e-36, 0.0, 0.0, 0.0, 6.452975442952827e-21, -4.1479676862442794e-36, 0.0004937713965773582, 0.0, 0.0, 0.0, 0.0, 0.0, 0.0, 0.0, 0.0, 0.0, 0.0, 0.0, 0.0, 0.0, 0.0, 0.0, 0.0, 0.0, 0.0, 0.0, 0.0, 0.0)",0.0002997645642608404,-0.0034991635475307703,0.0015168811660259966,0.00043055028072558343,-0.0001814458082662896,-0.0005812399904243648,"(0.0019164360128343105, 0.0, 0.0, 0.0, 0.0, 0.0, 0.0, 0.001917766290716827, -5.807863949442426e-20, 0.0, 0.0, 0.0, 0.0, -5.807863949442425e-20, 0.001443518209271133, 0.0, 0.0, 0.0, 0.0, 0.0, 0.0, 0.0, 0.0, 0.0, 0.0, 0.0, 0.0, 0.0, 0.0, 0.0, 0.0, 0.0, 0.0, 0.0, 0.0, 0.0)"
1676104290.5259306,4038,1676104290,514286576,map,base_link,-0.4129327833652495,0.5207568407058717,0.12605524063110346,-0.05182023954942225,0.018295800906833793,-0.03941347516372303,0.9977106413631074,"(0.0005478886305354536, -1.9038078785790778e-23, 6.494783406681023e-21, 0.0, 0.0, 0.0, -1.9038078785790778e-23, 0.000547802890650928, -4.163728633398912e-36, 0.0, 0.0, 0.0, 6.494783406681027e-21, -4.163728633398909e-36, 0.0004948546993546188, 0.0, 0.0, 0.0, 0.0, 0.0, 0.0, 0.0, 0.0, 0.0, 0.0, 0.0, 0.0, 0.0, 0.0, 0.0, 0.0, 0.0, 0.0, 0.0, 0.0, 0.0)",9.823647269513458e-05,-0.0033494161907583475,0.0014144245069473986,0.0003426221664994955,-5.5087821237976214e-06,-0.0003913903492502868,"(0.0019199829548597336, 0.0, 0.0, 0.0, 0.0, 0.0, 0.0, 0.0019213150953873992, -5.822471430989199e-20, 0.0, 0.0, 0.0, 0.0, -5.822471430989198e-20, 0.0014458742225542665, 0.0, 0.0, 0.0, 0.0, 0.0, 0.0, 0.0, 0.0, 0.0, 0.0, 0.0, 0.0, 0.0, 0.0, 0.0, 0.0, 0.0, 0.0, 0.0, 0.0, 0.0)"
1676104290.5700438,4039,1676104290,544321576,map,base_link,-0.4128660559654235,0.5207836031913758,0.12606054544448847,-0.05181029396700638,0.018292195948311923,-0.039406637823944136,0.9977114889827313,"(0.00053402065532282, -1.809457589959748e-23, 6.188655017540772e-21, 0.0, 0.0, 0.0, -1.809457589959748e-23, 0.0005339391645975411, -4.030276771125809e-36, 0.0, 0.0, 0.0, 6.188655017540775e-21, -4.0302767711258115e-36, 0.00048348645213991404, 0.0, 0.0, 0.0, 0.0, 0.0, 0.0, 0.0, 0.0, 0.0, 0.0, 0.0, 0.0, 0.0, 0.0, 0.0, 0.0, 0.0, 0.0, 0.0, 0.0, 0.0)",-8.352096301678102e-06,-0.003726211143657565,0.0012260091025382285,0.0020866224076598883,-0.0008098408579826354,0.0012091450626030564,"(0.001892674365080893, 0.0, 0.0, 0.0, 0.0, 0.0, 0.0, 0.0018939899746328592, -5.709623432321098e-20, 0.0, 0.0, 0.0, 0.0, -5.709623432321098e-20, 0.0014277638401836157, 0.0, 0.0, 0.0, 0.0, 0.0, 0.0, 0.0, 0.0, 0.0, 0.0, 0.0, 0.0, 0.0, 0.0, 0.0, 0.0, 0.0, 0.0, 0.0, 0.0, 0.0)"
1676104290.5872953,4040,1676104290,574357576,map,base_link,-0.41280075907707203,0.5208007097244264,0.12606854736804957,-0.0518177178615583,0.01828251825367451,-0.03940536193385261,0.9977113475079705,"(0.0005498108803294599, -1.9167325756502188e-23, 6.548011039274118e-21, 0.0, 0.0, 0.0, -1.9167325756502188e-23, 0.0005497245583683252, -4.1843640832363e-36, 0.0, 0.0, 0.0, 6.548011039274122e-21, -4.1843640832363e-36, 0.0004963423125445843, 0.0, 0.0, 0.0, 0.0, 0.0, 0.0, 0.0, 0.0, 0.0, 0.0, 0.0, 0.0, 0.0, 0.0, 0.0, 0.0, 0.0, 0.0, 0.0, 0.0, 0.0)",8.312305726576596e-05,-0.003819441655650735,0.0014892079634591941,-0.000222309201490134,-0.0012892904924228787,-0.0002195666893385349,"(0.0019241420086473227, 0.0, 0.0, 0.0, 0.0, 0.0, 0.0, 0.0019254762446507812, -5.83861721749293e-20, 0.0, 0.0, 0.0, 0.0, -5.838617217492929e-20, 0.0014487169682979584, 0.0, 0.0, 0.0, 0.0, 0.0, 0.0, 0.0, 0.0, 0.0, 0.0, 0.0, 0.0, 0.0, 0.0, 0.0, 0.0, 0.0, 0.0, 0.0, 0.0, 0.0)"
1676104290.6296167,4041,1676104290,614419136,map,base_link,-0.41271930932998646,0.5208121538162233,0.12608484923839564,-0.051814970632859204,0.018287747174478577,-0.03939609822897034,0.9977117647587417,"(0.0005812259623780847, -2.1351599561525027e-23, 7.263950141924065e-21, 0.0, 0.0, 0.0, -2.1351599561525027e-23, 0.0005811298033222556, -4.4911206006988476e-36, 0.0, 0.0, 0.0, 7.26395014192407e-21, -4.4911206006988476e-36, 0.0005219113081693649, 0.0, 0.0, 0.0, 0.0, 0.0, 0.0, 0.0, 0.0, 0.0, 0.0, 0.0, 0.0, 0.0, 0.0, 0.0, 0.0, 0.0, 0.0, 0.0, 0.0, 0.0)",9.967877122107893e-05,-0.003830904606729746,0.0013859505997970705,-0.00047981366515159607,0.00023224523465614782,0.0014280566247180104,"(0.0019834653940051794, 0.0, 0.0, 0.0, 0.0, 0.0, 0.0, 0.0019848330412060022, -6.08207999552754e-20, 0.0, 0.0, 0.0, 0.0, -6.082079995527538e-20, 0.0014881935203447938, 0.0, 0.0, 0.0, 0.0, 0.0, 0.0, 0.0, 0.0, 0.0, 0.0, 0.0, 0.0, 0.0, 0.0, 0.0, 0.0, 0.0, 0.0, 0.0, 0.0, 0.0)"
1676104290.6736696,4042,1676104290,644444136,map,base_link,-0.41266295313835133,0.5208191871643068,0.1260936409235,-0.05181233940510694,0.018282537734110184,-0.039393487961989195,0.9977120790607544,"(0.0005629016668535769, -1.9955732277841793e-23, 6.812039201001127e-21, 0.0, 0.0, 0.0, -1.9955732277841793e-23, 0.0005628117942251265, -4.3053987493859825e-36, 0.0, 0.0, 0.0, 6.812039201001124e-21, -4.305398749385979e-36, 0.0005072771455161273, 0.0, 0.0, 0.0, 0.0, 0.0, 0.0, 0.0, 0.0, 0.0, 0.0, 0.0, 0.0, 0.0, 0.0, 0.0, 0.0, 0.0, 0.0, 0.0, 0.0, 0.0)",2.396111813141033e-05,-0.00358094135299325,0.001300396979786456,-2.1441968783619814e-05,0.0006643387023359537,-1.9116603198200113e-06,"(0.0019437435548752546, 0.0, 0.0, 0.0, 0.0, 0.0, 0.0, 0.0019450840773060918, -5.910285975774828e-20, 0.0, 0.0, 0.0, 0.0, -5.910285975774828e-20, 0.001462472602725029, 0.0, 0.0, 0.0, 0.0, 0.0, 0.0, 0.0, 0.0, 0.0, 0.0, 0.0, 0.0, 0.0, 0.0, 0.0, 0.0, 0.0, 0.0, 0.0, 0.0, 0.0)"
1676104290.7179372,4043,1676104290,674480136,map,base_link,-0.41261038184165943,0.52083158493042,0.12609998881816858,-0.05180866439606773,0.018284205052112635,-0.03939507655500455,0.9977121697223494,"(0.0005470003234222531, -1.881835893558138e-23, 6.442161686605745e-21, 0.0, 0.0, 0.0, -1.881835893558138e-23, 0.0005469155730679631, -4.148645019808342e-36, 0.0, 0.0, 0.0, 6.44216168660574e-21, -4.1486450198083426e-36, 0.0004943960811942816, 0.0, 0.0, 0.0, 0.0, 0.0, 0.0, 0.0, 0.0, 0.0, 0.0, 0.0, 0.0, 0.0, 0.0, 0.0, 0.0, 0.0, 0.0, 0.0, 0.0, 0.0)",0.00016876654990483075,-0.003716137260198593,0.0013118954375386242,0.0016457273159176111,0.0004535042971838267,0.0010270163184031844,"(0.0019112619338557124, 0.0, 0.0, 0.0, 0.0, 0.0, 0.0, 0.0019125824328511953, -5.774253625660928e-20, 0.0, 0.0, 0.0, 0.0, -5.774253625660927e-20, 0.0014410788426175714, 0.0, 0.0, 0.0, 0.0, 0.0, 0.0, 0.0, 0.0, 0.0, 0.0, 0.0, 0.0, 0.0, 0.0, 0.0, 0.0, 0.0, 0.0, 0.0, 0.0, 0.0)"
1676104290.7616208,4044,1676104290,714531696,map,base_link,-0.41253864765167225,0.520833194255829,0.1261043101549148,-0.05180522806072926,0.018291668125815876,-0.039402754899760105,0.9977119345873423,"(0.0005782433436252177, -2.0963858649390795e-23, 7.150822710659522e-21, 0.0, 0.0, 0.0, -2.0963858649390795e-23, 0.000578148930799216, -4.45305698646129e-36, 0.0, 0.0, 0.0, 7.150822710659528e-21, -4.453056986461291e-36, 0.0005198524449951947, 0.0, 0.0, 0.0, 0.0, 0.0, 0.0, 0.0, 0.0, 0.0, 0.0, 0.0, 0.0, 0.0, 0.0, 0.0, 0.0, 0.0, 0.0, 0.0, 0.0, 0.0)",0.0002880987012758851,-0.003734692232683301,0.0012497884454205637,-0.00014797854237258434,8.798348426353189e-05,0.0001915444590849802,"(0.0019711318891495466, 0.0, 0.0, 0.0, 0.0, 0.0, 0.0, 0.0019724878948181868, -6.020264087623326e-20, 0.0, 0.0, 0.0, 0.0, -6.020264087623326e-20, 0.0014808960258960724, 0.0, 0.0, 0.0, 0.0, 0.0, 0.0, 0.0, 0.0, 0.0, 0.0, 0.0, 0.0, 0.0, 0.0, 0.0, 0.0, 0.0, 0.0, 0.0, 0.0, 0.0)"
