Time,header.seq,header.stamp.secs,header.stamp.nsecs,header.frame_id,magnetic_field.x,magnetic_field.y,magnetic_field.z,magnetic_field_covariance_0,magnetic_field_covariance_1,magnetic_field_covariance_2,magnetic_field_covariance_3,magnetic_field_covariance_4,magnetic_field_covariance_5,magnetic_field_covariance_6,magnetic_field_covariance_7,magnetic_field_covariance_8
1676104288.873098,6399,1676104288,541895400,base_link,1.383715718984604e-05,1.8273234367370603e-05,-3.313155770301819e-05,-1.0,0.0,0.0,0.0,0.0,0.0,0.0,0.0,0.0
1676104288.8731582,6400,1676104288,561887400,base_link,1.3887083530426026e-05,1.827665865421295e-05,-3.333213329315186e-05,-1.0,0.0,0.0,0.0,0.0,0.0,0.0,0.0,0.0
1676104288.8744755,6401,1676104288,576906400,base_link,1.3844478130340577e-05,1.823378205299377e-05,-3.314769566059113e-05,-1.0,0.0,0.0,0.0,0.0,0.0,0.0,0.0,0.0
1676104288.8746054,6402,1676104288,596934960,base_link,1.38324111700058e-05,1.824076324701309e-05,-3.3140134811401366e-05,-1.0,0.0,0.0,0.0,0.0,0.0,0.0,0.0,0.0
1676104288.8746622,6403,1676104288,616956960,base_link,1.3900953531265259e-05,1.8255966901779173e-05,-3.3429965376853945e-05,-1.0,0.0,0.0,0.0,0.0,0.0,0.0,0.0,0.0
1676104288.8747132,6404,1676104288,636979960,base_link,1.353924572467804e-05,1.8260836601257323e-05,-3.357936143875122e-05,-1.0,0.0,0.0,0.0,0.0,0.0,0.0,0.0,0.0
1676104288.8748057,6405,1676104288,662011960,base_link,1.3836643099784852e-05,1.8335163593292233e-05,-3.3602946996688845e-05,-1.0,0.0,0.0,0.0,0.0,0.0,0.0,0.0,0.0
1676104288.874882,6406,1676104288,677030960,base_link,1.4000567793846131e-05,1.8336217105388638e-05,-3.3579266071319584e-05,-1.0,0.0,0.0,0.0,0.0,0.0,0.0,0.0,0.0
1676104288.875004,6407,1676104288,697054008,base_link,1.3570013642311097e-05,1.833887696266174e-05,-3.34449827671051e-05,-1.0,0.0,0.0,0.0,0.0,0.0,0.0,0.0,0.0
1676104288.875124,6408,1676104288,722085008,base_link,1.3582079112529756e-05,1.833189725875854e-05,-3.345254063606262e-05,-1.0,0.0,0.0,0.0,0.0,0.0,0.0,0.0,0.0
1676104288.8752365,6409,1676104288,737103008,base_link,1.371242105960846e-05,1.830766201019287e-05,-3.3484527468681336e-05,-1.0,0.0,0.0,0.0,0.0,0.0,0.0,0.0,0.0
1676104288.8772378,6410,1676104288,757128008,base_link,1.3832727074623109e-05,1.8304884433746336e-05,-3.328797221183777e-05,-1.0,0.0,0.0,0.0,0.0,0.0,0.0,0.0,0.0
1676104288.8777843,6411,1676104288,797175520,base_link,1.390158087015152e-05,1.8313512206077573e-05,-3.358505368232727e-05,-1.0,0.0,0.0,0.0,0.0,0.0,0.0,0.0,0.0
1676104288.8788016,6412,1676104288,822205520,base_link,1.3643789291381837e-05,1.830535531044006e-05,-3.3214622735977176e-05,-1.0,0.0,0.0,0.0,0.0,0.0,0.0,0.0,0.0
1676104288.8799434,6413,1676104288,857248520,base_link,1.372980773448944e-05,1.8309757113456724e-05,-3.3092552423477176e-05,-1.0,0.0,0.0,0.0,0.0,0.0,0.0,0.0,0.0
1676104288.886788,6414,1676104288,882278520,base_link,1.3676786422729493e-05,1.8298786878585812e-05,-3.305749297142029e-05,-1.0,0.0,0.0,0.0,0.0,0.0,0.0,0.0,0.0
1676104288.9130533,6415,1676104288,897297824,base_link,1.3891935348510743e-05,1.828721016645431e-05,-3.366887867450714e-05,-1.0,0.0,0.0,0.0,0.0,0.0,0.0,0.0,0.0
1676104288.9482117,6416,1676104288,917321824,base_link,1.388106793165207e-05,1.825764626264572e-05,-3.3284878730773925e-05,-1.0,0.0,0.0,0.0,0.0,0.0,0.0,0.0,0.0
1676104288.948902,6417,1676104288,942353824,base_link,1.400856375694275e-05,1.8315726518630978e-05,-3.367694914340973e-05,-1.0,0.0,0.0,0.0,0.0,0.0,0.0,0.0,0.0
1676104288.9648416,6418,1676104288,957371824,base_link,1.3374173641204835e-05,1.8215334415435787e-05,-3.344032764434815e-05,-1.0,0.0,0.0,0.0,0.0,0.0,0.0,0.0,0.0
1676104288.987792,6419,1676104288,982400824,base_link,1.3519397377967836e-05,1.821750700473785e-05,-3.334732055664062e-05,-1.0,0.0,0.0,0.0,0.0,0.0,0.0,0.0,0.0
1676104289.004373,6420,1676104288,997423384,base_link,1.3131272792816163e-05,1.8240004777908322e-05,-3.2958304882049564e-05,-1.0,0.0,0.0,0.0,0.0,0.0,0.0,0.0,0.0
1676104289.026,6421,1676104289,17446384,base_link,1.3296568393707277e-05,1.8291825056076046e-05,-3.312451839447022e-05,-1.0,0.0,0.0,0.0,0.0,0.0,0.0,0.0,0.0
1676104289.0469031,6422,1676104289,42475384,base_link,1.3230952620506287e-05,1.829451322555542e-05,-3.3060869574546814e-05,-1.0,0.0,0.0,0.0,0.0,0.0,0.0,0.0,0.0
1676104289.0645096,6423,1676104289,57494384,base_link,1.3458803296089173e-05,1.8291094899177548e-05,-3.3369296789169316e-05,-1.0,0.0,0.0,0.0,0.0,0.0,0.0,0.0,0.0
1676104289.0856287,6424,1676104289,77518384,base_link,1.3847002387046815e-05,1.8286588788032528e-05,-3.303470015525818e-05,-1.0,0.0,0.0,0.0,0.0,0.0,0.0,0.0,0.0
1676104289.106184,6425,1676104289,102550944,base_link,1.3833868503570558e-05,1.8300502002239224e-05,-3.2971671223640444e-05,-1.0,0.0,0.0,0.0,0.0,0.0,0.0,0.0,0.0
1676104289.1236877,6426,1676104289,117567944,base_link,1.3878807425498964e-05,1.832298934459686e-05,-3.3267414569854735e-05,-1.0,0.0,0.0,0.0,0.0,0.0,0.0,0.0,0.0
1676104289.1453662,6427,1676104289,137591944,base_link,1.3704967498779298e-05,1.826362311840057e-05,-3.329411149024963e-05,-1.0,0.0,0.0,0.0,0.0,0.0,0.0,0.0,0.0
1676104289.164561,6428,1676104289,157616944,base_link,1.3662704825401306e-05,1.8233439326286314e-05,-3.315714597702027e-05,-1.0,0.0,0.0,0.0,0.0,0.0,0.0,0.0,0.0
1676104289.1882312,6429,1676104289,177640944,base_link,1.3680902123451234e-05,1.8251842260360715e-05,-3.323225975036621e-05,-1.0,0.0,0.0,0.0,0.0,0.0,0.0,0.0,0.0
1676104289.2068272,6430,1676104289,202674504,base_link,1.3814544677734375e-05,1.8228629231452938e-05,-3.309909701347351e-05,-1.0,0.0,0.0,0.0,0.0,0.0,0.0,0.0,0.0
1676104289.2252278,6431,1676104289,217692504,base_link,1.3521111011505128e-05,1.8254001438617703e-05,-3.2767233252525333e-05,-1.0,0.0,0.0,0.0,0.0,0.0,0.0,0.0,0.0
1676104289.2451813,6432,1676104289,237714504,base_link,1.3564759492874146e-05,1.8277099728584286e-05,-3.298032581806183e-05,-1.0,0.0,0.0,0.0,0.0,0.0,0.0,0.0,0.0
1676104289.2656806,6433,1676104289,257739504,base_link,1.3620449602603913e-05,1.8209677934646603e-05,-3.303359150886536e-05,-1.0,0.0,0.0,0.0,0.0,0.0,0.0,0.0,0.0
1676104289.2841167,6434,1676104289,277762504,base_link,1.3642850518226623e-05,1.8254384398460384e-05,-3.3052277565002444e-05,-1.0,0.0,0.0,0.0,0.0,0.0,0.0,0.0,0.0
1676104289.3050897,6435,1676104289,297790064,base_link,1.3688233494758606e-05,1.821881681680679e-05,-3.326180279254914e-05,-1.0,0.0,0.0,0.0,0.0,0.0,0.0,0.0,0.0
1676104289.325547,6436,1676104289,317814064,base_link,1.3634751737117767e-05,1.818878352642059e-05,-3.315896987915039e-05,-1.0,0.0,0.0,0.0,0.0,0.0,0.0,0.0,0.0
1676104289.344686,6437,1676104289,337843064,base_link,1.3411949574947357e-05,1.821167320013046e-05,-3.2835814356803894e-05,-1.0,0.0,0.0,0.0,0.0,0.0,0.0,0.0,0.0
1676104289.3641102,6438,1676104289,357865064,base_link,1.3589510321617128e-05,1.8314263224601744e-05,-3.313713073730469e-05,-1.0,0.0,0.0,0.0,0.0,0.0,0.0,0.0,0.0
1676104289.3913043,6439,1676104289,377887064,base_link,1.3268741965293884e-05,1.8211133778095242e-05,-3.268102705478668e-05,-1.0,0.0,0.0,0.0,0.0,0.0,0.0,0.0,0.0
1676104289.403837,6440,1676104289,397912624,base_link,1.3791120052337648e-05,1.828081905841827e-05,-3.3205738663673404e-05,-1.0,0.0,0.0,0.0,0.0,0.0,0.0,0.0,0.0
1676104289.425986,6441,1676104289,417936624,base_link,1.3818910717964172e-05,1.829341351985931e-05,-3.3129996061325076e-05,-1.0,0.0,0.0,0.0,0.0,0.0,0.0,0.0,0.0
1676104289.4652429,6442,1676104289,457998624,base_link,1.3851870596408844e-05,1.826115697622299e-05,-3.2919239997863774e-05,-1.0,0.0,0.0,0.0,0.0,0.0,0.0,0.0,0.0
1676104289.4867744,6443,1676104289,483016624,base_link,1.381325125694275e-05,1.829351484775543e-05,-3.314362168312073e-05,-1.0,0.0,0.0,0.0,0.0,0.0,0.0,0.0,0.0
1676104289.5256836,6444,1676104289,518060440,base_link,1.3531929254531862e-05,1.8322151899337765e-05,-3.322478234767914e-05,-1.0,0.0,0.0,0.0,0.0,0.0,0.0,0.0,0.0
1676104289.5446308,6445,1676104289,538086440,base_link,1.3582956790924074e-05,1.8295505642890927e-05,-3.305543661117554e-05,-1.0,0.0,0.0,0.0,0.0,0.0,0.0,0.0,0.0
1676104289.5645728,6446,1676104289,558108440,base_link,1.3659341633319855e-05,1.8280026316642758e-05,-3.303059339523316e-05,-1.0,0.0,0.0,0.0,0.0,0.0,0.0,0.0,0.0
1676104289.5851145,6447,1676104289,578143440,base_link,1.3583418726921082e-05,1.826573759317398e-05,-3.2644188404083256e-05,-1.0,0.0,0.0,0.0,0.0,0.0,0.0,0.0,0.0
1676104289.6048026,6448,1676104289,598163000,base_link,1.3631050288677216e-05,1.8293374776840207e-05,-3.312551975250244e-05,-1.0,0.0,0.0,0.0,0.0,0.0,0.0,0.0,0.0
1676104289.625726,6449,1676104289,618184000,base_link,1.3723713159561157e-05,1.8239367008209226e-05,-3.2938045263290405e-05,-1.0,0.0,0.0,0.0,0.0,0.0,0.0,0.0,0.0
1676104289.6453083,6450,1676104289,638207000,base_link,1.3385093212127686e-05,1.8201218545436858e-05,-3.259488642215729e-05,-1.0,0.0,0.0,0.0,0.0,0.0,0.0,0.0,0.0
1676104289.6661649,6451,1676104289,658232000,base_link,1.3483962416648865e-05,1.8266378343105313e-05,-3.304782509803772e-05,-1.0,0.0,0.0,0.0,0.0,0.0,0.0,0.0,0.0
1676104289.6863801,6452,1676104289,678259000,base_link,1.3634750247001648e-05,1.8323752284049986e-05,-3.34267258644104e-05,-1.0,0.0,0.0,0.0,0.0,0.0,0.0,0.0,0.0
1676104289.7048535,6453,1676104289,698281304,base_link,1.3660797476768495e-05,1.8317896127700803e-05,-3.32005649805069e-05,-1.0,0.0,0.0,0.0,0.0,0.0,0.0,0.0,0.0
1676104289.725832,6454,1676104289,718305304,base_link,1.3360428810119629e-05,1.8334960937499997e-05,-3.316493034362793e-05,-1.0,0.0,0.0,0.0,0.0,0.0,0.0,0.0,0.0
1676104289.7452447,6455,1676104289,738330304,base_link,1.3600268959999085e-05,1.8295049667358395e-05,-3.303522765636444e-05,-1.0,0.0,0.0,0.0,0.0,0.0,0.0,0.0,0.0
1676104289.7656436,6456,1676104289,758354304,base_link,1.3636475801467896e-05,1.8280529975891112e-05,-3.3071309328079226e-05,-1.0,0.0,0.0,0.0,0.0,0.0,0.0,0.0,0.0
1676104289.7835283,6457,1676104289,778378304,base_link,1.3972699642181397e-05,1.8315975368022917e-05,-3.287088572978973e-05,-1.0,0.0,0.0,0.0,0.0,0.0,0.0,0.0,0.0
1676104289.8060977,6458,1676104289,798406656,base_link,1.3664494454860689e-05,1.8228751420974728e-05,-3.288217186927795e-05,-1.0,0.0,0.0,0.0,0.0,0.0,0.0,0.0,0.0
1676104289.826774,6459,1676104289,818430656,base_link,1.3775718212127686e-05,1.8267509341239927e-05,-3.3323109149932866e-05,-1.0,0.0,0.0,0.0,0.0,0.0,0.0,0.0,0.0
1676104289.8445964,6460,1676104289,838455656,base_link,1.3752105832099916e-05,1.8290239572525022e-05,-3.297717571258545e-05,-1.0,0.0,0.0,0.0,0.0,0.0,0.0,0.0,0.0
1676104289.8641827,6461,1676104289,858478656,base_link,1.3579255342483521e-05,1.8243259191513058e-05,-3.309267461299896e-05,-1.0,0.0,0.0,0.0,0.0,0.0,0.0,0.0,0.0
1676104289.8849585,6462,1676104289,878503656,base_link,1.3606983423233033e-05,1.828159540891647e-05,-3.306366801261902e-05,-1.0,0.0,0.0,0.0,0.0,0.0,0.0,0.0,0.0
1676104289.9049673,6463,1676104289,898528960,base_link,1.3431452214717865e-05,1.8306584656238554e-05,-3.31475555896759e-05,-1.0,0.0,0.0,0.0,0.0,0.0,0.0,0.0,0.0
1676104289.9249372,6464,1676104289,918552960,base_link,1.3518944382667543e-05,1.8291005492210387e-05,-3.30816924571991e-05,-1.0,0.0,0.0,0.0,0.0,0.0,0.0,0.0,0.0
1676104289.9469352,6465,1676104289,938576960,base_link,1.3567662239074707e-05,1.8297591805458068e-05,-3.2827848196029664e-05,-1.0,0.0,0.0,0.0,0.0,0.0,0.0,0.0,0.0
1676104289.964253,6466,1676104289,958603960,base_link,1.3602471351623535e-05,1.8261867761611936e-05,-3.311283588409424e-05,-1.0,0.0,0.0,0.0,0.0,0.0,0.0,0.0,0.0
1676104289.9856298,6467,1676104289,978626960,base_link,1.3626784086227418e-05,1.8206670880317684e-05,-3.3439946174621586e-05,-1.0,0.0,0.0,0.0,0.0,0.0,0.0,0.0,0.0
1676104290.0050755,6468,1676104289,998653032,base_link,1.3739694654941559e-05,1.826266050338745e-05,-3.3260583877563475e-05,-1.0,0.0,0.0,0.0,0.0,0.0,0.0,0.0,0.0
1676104290.0251095,6469,1676104290,18677032,base_link,1.3791382312774658e-05,1.8312828242778774e-05,-3.32865446805954e-05,-1.0,0.0,0.0,0.0,0.0,0.0,0.0,0.0,0.0
1676104290.0453367,6470,1676104290,38701032,base_link,1.3734689354896546e-05,1.833957731723785e-05,-3.3469513058662416e-05,-1.0,0.0,0.0,0.0,0.0,0.0,0.0,0.0,0.0
1676104290.0662918,6471,1676104290,58725032,base_link,1.3596619665622712e-05,1.834561228752136e-05,-3.328007459640503e-05,-1.0,0.0,0.0,0.0,0.0,0.0,0.0,0.0,0.0
1676104290.0864406,6472,1676104290,78749032,base_link,1.3672932982444764e-05,1.8355873227119445e-05,-3.330196738243103e-05,-1.0,0.0,0.0,0.0,0.0,0.0,0.0,0.0,0.0
1676104290.1051702,6473,1676104290,98779592,base_link,1.3754048943519592e-05,1.829574555158615e-05,-3.311455845832825e-05,-1.0,0.0,0.0,0.0,0.0,0.0,0.0,0.0,0.0
1676104290.125708,6474,1676104290,118799592,base_link,1.3765665888786317e-05,1.827612221240997e-05,-3.306775391101837e-05,-1.0,0.0,0.0,0.0,0.0,0.0,0.0,0.0,0.0
1676104290.146811,6475,1676104290,138823592,base_link,1.360583007335663e-05,1.8230727314949034e-05,-3.288754522800446e-05,-1.0,0.0,0.0,0.0,0.0,0.0,0.0,0.0,0.0
1676104290.1859539,6476,1676104290,178873592,base_link,1.3741093873977662e-05,1.8283866345882414e-05,-3.3011680841445924e-05,-1.0,0.0,0.0,0.0,0.0,0.0,0.0,0.0,0.0
1676104290.206626,6477,1676104290,198898896,base_link,1.374347507953644e-05,1.8295589089393612e-05,-3.319001495838165e-05,-1.0,0.0,0.0,0.0,0.0,0.0,0.0,0.0,0.0
1676104290.225673,6478,1676104290,218922896,base_link,1.3522133231163026e-05,1.8270209431648252e-05,-3.3248096704483035e-05,-1.0,0.0,0.0,0.0,0.0,0.0,0.0,0.0,0.0
1676104290.245569,6479,1676104290,238946896,base_link,1.3706278800964356e-05,1.829772293567657e-05,-3.3065134286880494e-05,-1.0,0.0,0.0,0.0,0.0,0.0,0.0,0.0,0.0
1676104290.2678585,6480,1676104290,258974896,base_link,1.3341084122657777e-05,1.8272110819816588e-05,-3.2927101850509646e-05,-1.0,0.0,0.0,0.0,0.0,0.0,0.0,0.0,0.0
1676104290.2871587,6481,1676104290,278996896,base_link,1.3573651015758515e-05,1.828189343214035e-05,-3.318673372268677e-05,-1.0,0.0,0.0,0.0,0.0,0.0,0.0,0.0,0.0
1676104290.305784,6482,1676104290,299021456,base_link,1.3571931421756745e-05,1.82608425617218e-05,-3.34149718284607e-05,-1.0,0.0,0.0,0.0,0.0,0.0,0.0,0.0,0.0
1676104290.3246362,6483,1676104290,319045456,base_link,1.3660047948360444e-05,1.8232114613056182e-05,-3.3363619446754455e-05,-1.0,0.0,0.0,0.0,0.0,0.0,0.0,0.0,0.0
1676104290.3463306,6484,1676104290,339070456,base_link,1.371188759803772e-05,1.824364364147186e-05,-3.3322918415069585e-05,-1.0,0.0,0.0,0.0,0.0,0.0,0.0,0.0,0.0
1676104290.364715,6485,1676104290,359095456,base_link,1.3626030087471009e-05,1.8293169140815732e-05,-3.318046927452088e-05,-1.0,0.0,0.0,0.0,0.0,0.0,0.0,0.0,0.0
1676104290.3860562,6486,1676104290,379118456,base_link,1.3650202751159669e-05,1.830489933490753e-05,-3.324921131134033e-05,-1.0,0.0,0.0,0.0,0.0,0.0,0.0,0.0,0.0
1676104290.4061441,6487,1676104290,399144016,base_link,1.353880912065506e-05,1.8276482820510863e-05,-3.3199968934059145e-05,-1.0,0.0,0.0,0.0,0.0,0.0,0.0,0.0,0.0
1676104290.4253578,6488,1676104290,419170016,base_link,1.3480363786220552e-05,1.83002233505249e-05,-3.288067877292633e-05,-1.0,0.0,0.0,0.0,0.0,0.0,0.0,0.0,0.0
1676104290.4449012,6489,1676104290,439193016,base_link,1.3618308305740357e-05,1.8281394243240355e-05,-3.303641974925995e-05,-1.0,0.0,0.0,0.0,0.0,0.0,0.0,0.0,0.0
1676104290.4670248,6490,1676104290,459217016,base_link,1.3726595044136047e-05,1.824700981378555e-05,-3.2758754491806035e-05,-1.0,0.0,0.0,0.0,0.0,0.0,0.0,0.0,0.0
1676104290.4848454,6491,1676104290,479242016,base_link,1.383269727230072e-05,1.828561723232269e-05,-3.3247750997543336e-05,-1.0,0.0,0.0,0.0,0.0,0.0,0.0,0.0,0.0
1676104290.5057623,6492,1676104290,499267576,base_link,1.383231431245804e-05,1.8247237801551816e-05,-3.3146655559539796e-05,-1.0,0.0,0.0,0.0,0.0,0.0,0.0,0.0,0.0
1676104290.5257213,6493,1676104290,519291576,base_link,1.3732853531837464e-05,1.8263323605060576e-05,-3.3198446035385136e-05,-1.0,0.0,0.0,0.0,0.0,0.0,0.0,0.0,0.0
1676104290.5463738,6494,1676104290,539316576,base_link,1.364167481660843e-05,1.823950111865997e-05,-3.3328360319137574e-05,-1.0,0.0,0.0,0.0,0.0,0.0,0.0,0.0,0.0
1676104290.5648694,6495,1676104290,559340576,base_link,1.352241486310959e-05,1.824436783790588e-05,-3.3215132355690006e-05,-1.0,0.0,0.0,0.0,0.0,0.0,0.0,0.0,0.0
1676104290.5863843,6496,1676104290,579363576,base_link,1.3528399169445038e-05,1.8352121114730834e-05,-3.2672467827796936e-05,-1.0,0.0,0.0,0.0,0.0,0.0,0.0,0.0,0.0
1676104290.6042233,6497,1676104290,599390136,base_link,1.3610838353633881e-05,1.827333867549896e-05,-3.329820930957794e-05,-1.0,0.0,0.0,0.0,0.0,0.0,0.0,0.0,0.0
1676104290.6251585,6498,1676104290,619414136,base_link,1.3509365916252137e-05,1.8260827660560606e-05,-3.27803373336792e-05,-1.0,0.0,0.0,0.0,0.0,0.0,0.0,0.0,0.0
1676104290.6460612,6499,1676104290,639438136,base_link,1.3643629848957062e-05,1.8273293972015377e-05,-3.3140707015991215e-05,-1.0,0.0,0.0,0.0,0.0,0.0,0.0,0.0,0.0
1676104290.6650233,6500,1676104290,659462136,base_link,1.3619902729988099e-05,1.825234144926071e-05,-3.3464765548706055e-05,-1.0,0.0,0.0,0.0,0.0,0.0,0.0,0.0,0.0
1676104290.68647,6501,1676104290,679487136,base_link,1.3657334446907045e-05,1.8214121460914608e-05,-3.315121829509735e-05,-1.0,0.0,0.0,0.0,0.0,0.0,0.0,0.0,0.0
1676104290.7038093,6502,1676104290,699512696,base_link,1.3499486446380615e-05,1.8292479217052458e-05,-3.2964152097702026e-05,-1.0,0.0,0.0,0.0,0.0,0.0,0.0,0.0,0.0
1676104290.7297606,6503,1676104290,719537696,base_link,1.3393494486808778e-05,1.825382113456726e-05,-3.248203992843628e-05,-1.0,0.0,0.0,0.0,0.0,0.0,0.0,0.0,0.0
1676104290.7480185,6504,1676104290,739561696,base_link,1.3808113336563112e-05,1.8286937475204464e-05,-3.31782728433609e-05,-1.0,0.0,0.0,0.0,0.0,0.0,0.0,0.0,0.0
1676104290.7643855,6505,1676104290,759585696,base_link,1.3549825549125671e-05,1.8304723501205442e-05,-3.282702565193177e-05,-1.0,0.0,0.0,0.0,0.0,0.0,0.0,0.0,0.0
1676104290.7858815,6506,1676104290,779610696,base_link,1.3682216405868532e-05,1.8285942077636718e-05,-3.3003276586532597e-05,-1.0,0.0,0.0,0.0,0.0,0.0,0.0,0.0,0.0
1676104290.8058345,6507,1676104290,799636256,base_link,1.3660365343093873e-05,1.8247404694557186e-05,-3.3032435178756717e-05,-1.0,0.0,0.0,0.0,0.0,0.0,0.0,0.0,0.0
1676104290.8456888,6508,1676104290,839684256,base_link,1.3658478856086731e-05,1.8258568644523616e-05,-3.3313930034637456e-05,-1.0,0.0,0.0,0.0,0.0,0.0,0.0,0.0,0.0
1676104290.8856866,6509,1676104290,879733256,base_link,1.3815233111381532e-05,1.832470893859863e-05,-3.333462178707123e-05,-1.0,0.0,0.0,0.0,0.0,0.0,0.0,0.0,0.0
1676104290.9054122,6510,1676104290,899758304,base_link,1.3878229260444642e-05,1.834638565778732e-05,-3.365837037563324e-05,-1.0,0.0,0.0,0.0,0.0,0.0,0.0,0.0,0.0
1676104290.9259384,6511,1676104290,919784304,base_link,1.3552753627300263e-05,1.8322615325450896e-05,-3.30532044172287e-05,-1.0,0.0,0.0,0.0,0.0,0.0,0.0,0.0,0.0
1676104290.9432194,6512,1676104290,939806304,base_link,1.3711795210838318e-05,1.827198266983032e-05,-3.2990998029708865e-05,-1.0,0.0,0.0,0.0,0.0,0.0,0.0,0.0,0.0
1676104290.9655728,6513,1676104290,959831304,base_link,1.3482168316841126e-05,1.828651428222656e-05,-3.29709529876709e-05,-1.0,0.0,0.0,0.0,0.0,0.0,0.0,0.0,0.0
1676104290.9869766,6514,1676104290,979857304,base_link,1.354489028453827e-05,1.8269756436347958e-05,-3.320049047470093e-05,-1.0,0.0,0.0,0.0,0.0,0.0,0.0,0.0,0.0
1676104291.0068703,6515,1676104290,999881072,base_link,1.370675265789032e-05,1.8237067759037017e-05,-3.335757255554199e-05,-1.0,0.0,0.0,0.0,0.0,0.0,0.0,0.0,0.0
1676104291.0254986,6516,1676104291,19904072,base_link,1.371760666370392e-05,1.821137964725494e-05,-3.324915170669556e-05,-1.0,0.0,0.0,0.0,0.0,0.0,0.0,0.0,0.0
1676104291.0452926,6517,1676104291,39932072,base_link,1.3619819283485414e-05,1.8287101387977596e-05,-3.3146250247955324e-05,-1.0,0.0,0.0,0.0,0.0,0.0,0.0,0.0,0.0
1676104291.0661328,6518,1676104291,59952072,base_link,1.34610116481781e-05,1.827978044748306e-05,-3.310846388339996e-05,-1.0,0.0,0.0,0.0,0.0,0.0,0.0,0.0,0.0
1676104291.084514,6519,1676104291,79978072,base_link,1.3593316078186036e-05,1.829576194286346e-05,-3.29662024974823e-05,-1.0,0.0,0.0,0.0,0.0,0.0,0.0,0.0,0.0
1676104291.1060326,6520,1676104291,100002632,base_link,1.376531720161438e-05,1.8327707052230833e-05,-3.314745128154755e-05,-1.0,0.0,0.0,0.0,0.0,0.0,0.0,0.0,0.0
1676104291.1256187,6521,1676104291,120026632,base_link,1.3733109831809999e-05,1.831077635288238e-05,-3.2927405834198e-05,-1.0,0.0,0.0,0.0,0.0,0.0,0.0,0.0,0.0
1676104291.1477122,6522,1676104291,140055632,base_link,1.3792230188846589e-05,1.8257167935371397e-05,-3.284921944141388e-05,-1.0,0.0,0.0,0.0,0.0,0.0,0.0,0.0,0.0
1676104291.166674,6523,1676104291,160075632,base_link,1.3618530333042146e-05,1.8217018246650693e-05,-3.292302489280701e-05,-1.0,0.0,0.0,0.0,0.0,0.0,0.0,0.0,0.0
1676104291.1857386,6524,1676104291,180105632,base_link,1.3754162192344666e-05,1.8231420218944547e-05,-3.299427032470703e-05,-1.0,0.0,0.0,0.0,0.0,0.0,0.0,0.0,0.0
1676104291.2057567,6525,1676104291,200128168,base_link,1.382296234369278e-05,1.8272209167480466e-05,-3.335149884223938e-05,-1.0,0.0,0.0,0.0,0.0,0.0,0.0,0.0,0.0
1676104291.2256658,6526,1676104291,220150168,base_link,1.3614009320735932e-05,1.826156675815582e-05,-3.3099365234375e-05,-1.0,0.0,0.0,0.0,0.0,0.0,0.0,0.0,0.0
1676104291.244514,6527,1676104291,240173168,base_link,1.3619919121265413e-05,1.828062981367111e-05,-3.313972949981689e-05,-1.0,0.0,0.0,0.0,0.0,0.0,0.0,0.0,0.0
1676104291.2657752,6528,1676104291,260200168,base_link,1.3459131121635438e-05,1.8312808871269223e-05,-3.30515205860138e-05,-1.0,0.0,0.0,0.0,0.0,0.0,0.0,0.0,0.0
1676104291.2868981,6529,1676104291,280221168,base_link,1.353881061077118e-05,1.8298350274562834e-05,-3.286153078079224e-05,-1.0,0.0,0.0,0.0,0.0,0.0,0.0,0.0,0.0
1676104291.303667,6530,1676104291,300247728,base_link,1.37800931930542e-05,1.8268021941184996e-05,-3.322683572769165e-05,-1.0,0.0,0.0,0.0,0.0,0.0,0.0,0.0,0.0
1676104291.3241978,6531,1676104291,320271728,base_link,1.3724374771118164e-05,1.823003590106964e-05,-3.33446204662323e-05,-1.0,0.0,0.0,0.0,0.0,0.0,0.0,0.0,0.0
1676104291.3463373,6532,1676104291,340296728,base_link,1.379978209733963e-05,1.820859462022781e-05,-3.3244383335113525e-05,-1.0,0.0,0.0,0.0,0.0,0.0,0.0,0.0,0.0
1676104291.3649714,6533,1676104291,360319728,base_link,1.3696633279323579e-05,1.8271419405937194e-05,-3.3148956298828125e-05,-1.0,0.0,0.0,0.0,0.0,0.0,0.0,0.0,0.0
1676104291.3862655,6534,1676104291,380344728,base_link,1.365167498588562e-05,1.828491687774658e-05,-3.3305418491363525e-05,-1.0,0.0,0.0,0.0,0.0,0.0,0.0,0.0,0.0
1676104291.4059844,6535,1676104291,400371544,base_link,1.3553610444068909e-05,1.8322205543518063e-05,-3.310830593109131e-05,-1.0,0.0,0.0,0.0,0.0,0.0,0.0,0.0,0.0
1676104291.4252632,6536,1676104291,420397544,base_link,1.3585788011550904e-05,1.8319869041442868e-05,-3.3288133144378664e-05,-1.0,0.0,0.0,0.0,0.0,0.0,0.0,0.0,0.0
1676104291.444982,6537,1676104291,440419544,base_link,1.3614577054977418e-05,1.823174655437469e-05,-3.2695001363754275e-05,-1.0,0.0,0.0,0.0,0.0,0.0,0.0,0.0,0.0
1676104291.4660697,6538,1676104291,460443544,base_link,1.3794447481632234e-05,1.8301105499267576e-05,-3.3080810308456424e-05,-1.0,0.0,0.0,0.0,0.0,0.0,0.0,0.0,0.0
1676104291.506344,6539,1676104291,500494104,base_link,1.3807088136672975e-05,1.8248862028121945e-05,-3.303585052490234e-05,-1.0,0.0,0.0,0.0,0.0,0.0,0.0,0.0,0.0
1676104291.5259056,6540,1676104291,520518104,base_link,1.3746625185012817e-05,1.8249104917049404e-05,-3.330279290676117e-05,-1.0,0.0,0.0,0.0,0.0,0.0,0.0,0.0,0.0
1676104291.5651503,6541,1676104291,560566104,base_link,1.3646362721920014e-05,1.8233436346054073e-05,-3.323934376239777e-05,-1.0,0.0,0.0,0.0,0.0,0.0,0.0,0.0,0.0
1676104291.5851343,6542,1676104291,580590104,base_link,1.3635392487049103e-05,1.827461719512939e-05,-3.2989031076431276e-05,-1.0,0.0,0.0,0.0,0.0,0.0,0.0,0.0,0.0
1676104291.6050642,6543,1676104291,600616664,base_link,1.3605839014053345e-05,1.828597784042358e-05,-3.337996602058411e-05,-1.0,0.0,0.0,0.0,0.0,0.0,0.0,0.0,0.0
1676104291.6259804,6544,1676104291,620641664,base_link,1.363370418548584e-05,1.829470098018646e-05,-3.291904926300049e-05,-1.0,0.0,0.0,0.0,0.0,0.0,0.0,0.0,0.0
1676104291.6455586,6545,1676104291,640665664,base_link,1.3709771633148195e-05,1.8263928592205046e-05,-3.322538733482361e-05,-1.0,0.0,0.0,0.0,0.0,0.0,0.0,0.0,0.0
1676104291.6638255,6546,1676104291,660688664,base_link,1.3616624474525452e-05,1.8215334415435787e-05,-3.317770957946777e-05,-1.0,0.0,0.0,0.0,0.0,0.0,0.0,0.0,0.0
1676104291.6879315,6547,1676104291,680713664,base_link,1.3612183928489685e-05,1.831126064062118e-05,-3.346129059791565e-05,-1.0,0.0,0.0,0.0,0.0,0.0,0.0,0.0,0.0
1676104291.7046895,6548,1676104291,700740224,base_link,1.3630980253219606e-05,1.8248417973518368e-05,-3.303168118000031e-05,-1.0,0.0,0.0,0.0,0.0,0.0,0.0,0.0,0.0
1676104291.7251945,6549,1676104291,720764224,base_link,1.3560120761394502e-05,1.8293410539627073e-05,-3.3474811911582946e-05,-1.0,0.0,0.0,0.0,0.0,0.0,0.0,0.0,0.0
1676104291.7457545,6550,1676104291,740788224,base_link,1.3550105690956117e-05,1.827888190746307e-05,-3.2794064283370976e-05,-1.0,0.0,0.0,0.0,0.0,0.0,0.0,0.0,0.0
1676104291.7655323,6551,1676104291,760816224,base_link,1.3679887354373932e-05,1.8290886282920835e-05,-3.32438200712204e-05,-1.0,0.0,0.0,0.0,0.0,0.0,0.0,0.0,0.0
1676104291.7865245,6552,1676104291,780836224,base_link,1.3497361540794372e-05,1.8306343257427213e-05,-3.285321593284607e-05,-1.0,0.0,0.0,0.0,0.0,0.0,0.0,0.0,0.0
1676104291.8057764,6553,1676104291,795857040,base_link,1.3704347610473634e-05,1.8298640847206112e-05,-3.2941159605979924e-05,-1.0,0.0,0.0,0.0,0.0,0.0,0.0,0.0,0.0
1676104291.8301067,6554,1676104291,820888040,base_link,1.3722914457321168e-05,1.827830672264099e-05,-3.2963383197784426e-05,-1.0,0.0,0.0,0.0,0.0,0.0,0.0,0.0,0.0
1676104291.8461926,6555,1676104291,840912040,base_link,1.3662898540496827e-05,1.82204931974411e-05,-3.314411044120789e-05,-1.0,0.0,0.0,0.0,0.0,0.0,0.0,0.0,0.0
1676104291.8657007,6556,1676104291,855933040,base_link,1.368042528629303e-05,1.8219935894012448e-05,-3.313767611980438e-05,-1.0,0.0,0.0,0.0,0.0,0.0,0.0,0.0,0.0
1676104291.8858435,6557,1676104291,880960040,base_link,1.3604333996772766e-05,1.8215996026992794e-05,-3.31429660320282e-05,-1.0,0.0,0.0,0.0,0.0,0.0,0.0,0.0,0.0
1676104291.906481,6558,1676104291,900986600,base_link,1.376725435256958e-05,1.826251447200775e-05,-3.314425349235535e-05,-1.0,0.0,0.0,0.0,0.0,0.0,0.0,0.0,0.0
1676104291.9255667,6559,1676104291,921010600,base_link,1.3590005040168763e-05,1.8288320302963255e-05,-3.311794400215149e-05,-1.0,0.0,0.0,0.0,0.0,0.0,0.0,0.0,0.0
1676104291.9456835,6560,1676104291,941035600,base_link,1.3374868035316468e-05,1.828445196151733e-05,-3.285840153694153e-05,-1.0,0.0,0.0,0.0,0.0,0.0,0.0,0.0,0.0
1676104291.9655004,6561,1676104291,961058600,base_link,1.3607284426689148e-05,1.8268597126007076e-05,-3.30575168132782e-05,-1.0,0.0,0.0,0.0,0.0,0.0,0.0,0.0,0.0
1676104291.9840393,6562,1676104291,976076600,base_link,1.355597972869873e-05,1.825681328773498e-05,-3.3132654428482055e-05,-1.0,0.0,0.0,0.0,0.0,0.0,0.0,0.0,0.0
1676104292.0055394,6563,1676104292,1109904,base_link,1.3785272836685181e-05,1.8214146792888638e-05,-3.345707058906555e-05,-1.0,0.0,0.0,0.0,0.0,0.0,0.0,0.0,0.0
1676104292.0257568,6564,1676104292,16128904,base_link,1.3677191734313965e-05,1.8263870477676388e-05,-3.339666426181793e-05,-1.0,0.0,0.0,0.0,0.0,0.0,0.0,0.0,0.0
1676104292.045366,6565,1676104292,41156904,base_link,1.3604822754859926e-05,1.825432479381561e-05,-3.325095176696778e-05,-1.0,0.0,0.0,0.0,0.0,0.0,0.0,0.0,0.0
1676104292.0672338,6566,1676104292,61181904,base_link,1.3531467318534852e-05,1.8303087353706358e-05,-3.3157017827034e-05,-1.0,0.0,0.0,0.0,0.0,0.0,0.0,0.0,0.0
1676104292.0862813,6567,1676104292,81205904,base_link,1.3543075323104859e-05,1.8277046084403988e-05,-3.3096808195114134e-05,-1.0,0.0,0.0,0.0,0.0,0.0,0.0,0.0,0.0
1676104292.1049602,6568,1676104292,96226952,base_link,1.3513436913490295e-05,1.8323168158531188e-05,-3.316923379898071e-05,-1.0,0.0,0.0,0.0,0.0,0.0,0.0,0.0,0.0
1676104292.126046,6569,1676104292,121256952,base_link,1.3724559545516969e-05,1.8318675458431242e-05,-3.27684760093689e-05,-1.0,0.0,0.0,0.0,0.0,0.0,0.0,0.0,0.0
1676104292.1662726,6570,1676104292,161303952,base_link,1.3866621255874634e-05,1.8252903223037718e-05,-3.30989807844162e-05,-1.0,0.0,0.0,0.0,0.0,0.0,0.0,0.0,0.0
1676104292.2048106,6571,1676104292,196349256,base_link,1.377815306186676e-05,1.8262517452239988e-05,-3.308945596218109e-05,-1.0,0.0,0.0,0.0,0.0,0.0,0.0,0.0,0.0
1676104292.2245338,6572,1676104292,221379256,base_link,1.345650851726532e-05,1.8266476690769192e-05,-3.317103981971741e-05,-1.0,0.0,0.0,0.0,0.0,0.0,0.0,0.0,0.0
1676104292.246129,6573,1676104292,241403256,base_link,1.3564142584800721e-05,1.8274804949760433e-05,-3.331765532493592e-05,-1.0,0.0,0.0,0.0,0.0,0.0,0.0,0.0,0.0
1676104292.268003,6574,1676104292,256422256,base_link,1.3401839137077332e-05,1.8301278352737425e-05,-3.3119618892669676e-05,-1.0,0.0,0.0,0.0,0.0,0.0,0.0,0.0,0.0
1676104292.2874877,6575,1676104292,281451256,base_link,1.3475696742534638e-05,1.8319132924079894e-05,-3.299650549888611e-05,-1.0,0.0,0.0,0.0,0.0,0.0,0.0,0.0,0.0
1676104292.3049366,6576,1676104292,301477560,base_link,1.3600471615791322e-05,1.828852593898773e-05,-3.303560018539429e-05,-1.0,0.0,0.0,0.0,0.0,0.0,0.0,0.0,0.0
1676104292.3233628,6577,1676104292,316495560,base_link,1.3655549287796021e-05,1.8240675330162046e-05,-3.3087754249572755e-05,-1.0,0.0,0.0,0.0,0.0,0.0,0.0,0.0,0.0
1676104292.3457847,6578,1676104292,341526560,base_link,1.3649916648864748e-05,1.826004385948181e-05,-3.314159512519837e-05,-1.0,0.0,0.0,0.0,0.0,0.0,0.0,0.0,0.0
1676104292.3645036,6579,1676104292,356544560,base_link,1.3655243813991548e-05,1.823180615901947e-05,-3.343234360218048e-05,-1.0,0.0,0.0,0.0,0.0,0.0,0.0,0.0,0.0
1676104292.3867552,6580,1676104292,381574560,base_link,1.3664181530475617e-05,1.8284156918525692e-05,-3.3353930711746215e-05,-1.0,0.0,0.0,0.0,0.0,0.0,0.0,0.0,0.0
1676104292.4059572,6581,1676104292,401599608,base_link,1.3582269847393037e-05,1.8248254060745236e-05,-3.329892754554749e-05,-1.0,0.0,0.0,0.0,0.0,0.0,0.0,0.0,0.0
1676104292.4241314,6582,1676104292,416619608,base_link,1.3342735171318054e-05,1.8297034502029415e-05,-3.308403789997101e-05,-1.0,0.0,0.0,0.0,0.0,0.0,0.0,0.0,0.0
1676104292.44622,6583,1676104292,441648608,base_link,1.3569623231887818e-05,1.831594109535217e-05,-3.299204111099243e-05,-1.0,0.0,0.0,0.0,0.0,0.0,0.0,0.0,0.0
1676104292.4651415,6584,1676104292,456666608,base_link,1.3512520492076875e-05,1.828504204750061e-05,-3.303369581699372e-05,-1.0,0.0,0.0,0.0,0.0,0.0,0.0,0.0,0.0
1676104292.4865446,6585,1676104292,481696608,base_link,1.3676640391349793e-05,1.82731494307518e-05,-3.299697935581207e-05,-1.0,0.0,0.0,0.0,0.0,0.0,0.0,0.0,0.0
1676104292.504375,6586,1676104292,496717168,base_link,1.3806280493736268e-05,1.82813823223114e-05,-3.3047783374786376e-05,-1.0,0.0,0.0,0.0,0.0,0.0,0.0,0.0,0.0
1676104292.5245295,6587,1676104292,521748168,base_link,1.3675057888031007e-05,1.8271312117576598e-05,-3.327232301235199e-05,-1.0,0.0,0.0,0.0,0.0,0.0,0.0,0.0,0.0
1676104292.5456831,6588,1676104292,541772168,base_link,1.3740932941436768e-05,1.8229940533637996e-05,-3.327620029449463e-05,-1.0,0.0,0.0,0.0,0.0,0.0,0.0,0.0,0.0
1676104292.5660815,6589,1676104292,561795168,base_link,1.3709311187267303e-05,1.8244865536689755e-05,-3.3157622814178466e-05,-1.0,0.0,0.0,0.0,0.0,0.0,0.0,0.0,0.0
1676104292.5869884,6590,1676104292,576813168,base_link,1.3583163917064667e-05,1.8288980424404143e-05,-3.305580615997315e-05,-1.0,0.0,0.0,0.0,0.0,0.0,0.0,0.0,0.0
1676104292.604581,6591,1676104292,601845728,base_link,1.3687995076179505e-05,1.8292212486267087e-05,-3.30099493265152e-05,-1.0,0.0,0.0,0.0,0.0,0.0,0.0,0.0,0.0
1676104292.6259005,6592,1676104292,621872728,base_link,1.3448096811771394e-05,1.8293590843677518e-05,-3.305921256542206e-05,-1.0,0.0,0.0,0.0,0.0,0.0,0.0,0.0,0.0
1676104292.6458547,6593,1676104292,636888728,base_link,1.3698741793632508e-05,1.8266576528549193e-05,-3.2894641160964965e-05,-1.0,0.0,0.0,0.0,0.0,0.0,0.0,0.0,0.0
1676104292.6658576,6594,1676104292,656912728,base_link,1.3651661574840546e-05,1.820780038833618e-05,-3.3151432871818544e-05,-1.0,0.0,0.0,0.0,0.0,0.0,0.0,0.0,0.0
1676104292.687257,6595,1676104292,681947728,base_link,1.3652178645133973e-05,1.819469928741455e-05,-3.315905928611756e-05,-1.0,0.0,0.0,0.0,0.0,0.0,0.0,0.0,0.0
1676104292.7044847,6596,1676104292,696964032,base_link,1.3611540198326111e-05,1.8240869045257565e-05,-3.3279389142990114e-05,-1.0,0.0,0.0,0.0,0.0,0.0,0.0,0.0,0.0
1676104292.7246325,6597,1676104292,716989032,base_link,1.3653792440891267e-05,1.8215800821781156e-05,-3.292393088340759e-05,-1.0,0.0,0.0,0.0,0.0,0.0,0.0,0.0,0.0
1676104292.7465806,6598,1676104292,742017032,base_link,1.3472187519073487e-05,1.825394183397293e-05,-3.3020704984664917e-05,-1.0,0.0,0.0,0.0,0.0,0.0,0.0,0.0,0.0
1676104292.7640839,6599,1676104292,757035032,base_link,1.3853442668914795e-05,1.8305398523807523e-05,-3.31095039844513e-05,-1.0,0.0,0.0,0.0,0.0,0.0,0.0,0.0,0.0
1676104292.7859862,6600,1676104292,782065032,base_link,1.3510718941688539e-05,1.8369448184967037e-05,-3.3083999156951906e-05,-1.0,0.0,0.0,0.0,0.0,0.0,0.0,0.0,0.0
1676104292.824676,6601,1676104292,817109336,base_link,1.387651413679123e-05,1.8298369646072384e-05,-3.3069151639938356e-05,-1.0,0.0,0.0,0.0,0.0,0.0,0.0,0.0,0.0
1676104292.8452306,6602,1676104292,842140336,base_link,1.377832591533661e-05,1.8236726522445675e-05,-3.3049607276916506e-05,-1.0,0.0,0.0,0.0,0.0,0.0,0.0,0.0,0.0
1676104292.8857074,6603,1676104292,877183336,base_link,1.3691359758377075e-05,1.824562847614288e-05,-3.313650488853455e-05,-1.0,0.0,0.0,0.0,0.0,0.0,0.0,0.0,0.0
1676104292.9064128,6604,1676104292,902213616,base_link,1.37612521648407e-05,1.8249922990798948e-05,-3.31104040145874e-05,-1.0,0.0,0.0,0.0,0.0,0.0,0.0,0.0,0.0
1676104292.9241984,6605,1676104292,917231616,base_link,1.368144452571869e-05,1.827345490455627e-05,-3.292825818061829e-05,-1.0,0.0,0.0,0.0,0.0,0.0,0.0,0.0,0.0
1676104292.9449127,6606,1676104292,937256616,base_link,1.3617050647735597e-05,1.8301272392272946e-05,-3.299399018287659e-05,-1.0,0.0,0.0,0.0,0.0,0.0,0.0,0.0,0.0
1676104292.9665394,6607,1676104292,962285616,base_link,1.3494557142257691e-05,1.8279379606246945e-05,-3.299917280673981e-05,-1.0,0.0,0.0,0.0,0.0,0.0,0.0,0.0,0.0
1676104292.9857223,6608,1676104292,977303616,base_link,1.3382102549076081e-05,1.8279764056205748e-05,-3.2556027173995975e-05,-1.0,0.0,0.0,0.0,0.0,0.0,0.0,0.0,0.0
1676104293.0056272,6609,1676104292,997329920,base_link,1.3552172482013703e-05,1.8275313079357145e-05,-3.330358266830444e-05,-1.0,0.0,0.0,0.0,0.0,0.0,0.0,0.0,0.0
1676104293.026329,6610,1676104293,22360920,base_link,1.372978985309601e-05,1.821077167987823e-05,-3.32770049571991e-05,-1.0,0.0,0.0,0.0,0.0,0.0,0.0,0.0,0.0
1676104293.0443673,6611,1676104293,37377920,base_link,1.3742023706436159e-05,1.8242274224758145e-05,-3.3371889591217045e-05,-1.0,0.0,0.0,0.0,0.0,0.0,0.0,0.0,0.0
1676104293.065591,6612,1676104293,62408920,base_link,1.3757392764091492e-05,1.823631227016449e-05,-3.321429789066315e-05,-1.0,0.0,0.0,0.0,0.0,0.0,0.0,0.0,0.0
1676104293.0866451,6613,1676104293,77427920,base_link,1.3610272109508515e-05,1.825432479381561e-05,-3.322355151176453e-05,-1.0,0.0,0.0,0.0,0.0,0.0,0.0,0.0,0.0
1676104293.104025,6614,1676104293,97452712,base_link,1.3527807593345643e-05,1.827653348445892e-05,-3.324787616729737e-05,-1.0,0.0,0.0,0.0,0.0,0.0,0.0,0.0,0.0
1676104293.1254828,6615,1676104293,117476712,base_link,1.3453933596611023e-05,1.8267700076103208e-05,-3.300573825836182e-05,-1.0,0.0,0.0,0.0,0.0,0.0,0.0,0.0,0.0
1676104293.1444416,6616,1676104293,137500712,base_link,1.3675683736801149e-05,1.8280029296874996e-05,-3.2948398590087894e-05,-1.0,0.0,0.0,0.0,0.0,0.0,0.0,0.0,0.0
1676104293.1655009,6617,1676104293,157525712,base_link,1.3738329708576203e-05,1.8233761191368102e-05,-3.273224830627442e-05,-1.0,0.0,0.0,0.0,0.0,0.0,0.0,0.0,0.0
1676104293.188532,6618,1676104293,182554712,base_link,1.3795480132102968e-05,1.8274906277656553e-05,-3.309606015682221e-05,-1.0,0.0,0.0,0.0,0.0,0.0,0.0,0.0,0.0
1676104293.2069798,6619,1676104293,197577040,base_link,1.3779878616333009e-05,1.826812475919723e-05,-3.321306109428406e-05,-1.0,0.0,0.0,0.0,0.0,0.0,0.0,0.0,0.0
1676104293.2242963,6620,1676104293,217600040,base_link,1.348661482334137e-05,1.8245840072631832e-05,-3.317978978157043e-05,-1.0,0.0,0.0,0.0,0.0,0.0,0.0,0.0,0.0
1676104293.2454157,6621,1676104293,242630040,base_link,1.3652268052101136e-05,1.8252500891685484e-05,-3.32797110080719e-05,-1.0,0.0,0.0,0.0,0.0,0.0,0.0,0.0,0.0
1676104293.264834,6622,1676104293,257648040,base_link,1.3501721620559694e-05,1.827856600284576e-05,-3.308197259902954e-05,-1.0,0.0,0.0,0.0,0.0,0.0,0.0,0.0,0.0
1676104293.2866971,6623,1676104293,277672040,base_link,1.3639183342456818e-05,1.8313968181610105e-05,-3.293187022209167e-05,-1.0,0.0,0.0,0.0,0.0,0.0,0.0,0.0,0.0
1676104293.3043199,6624,1676104293,297700600,base_link,1.362910568714142e-05,1.828786879777908e-05,-3.298814296722412e-05,-1.0,0.0,0.0,0.0,0.0,0.0,0.0,0.0,0.0
1676104293.3261259,6625,1676104293,322729600,base_link,1.3490140438079834e-05,1.8253178894519803e-05,-3.304182291030884e-05,-1.0,0.0,0.0,0.0,0.0,0.0,0.0,0.0,0.0
1676104293.3448744,6626,1676104293,337747600,base_link,1.3663233816623689e-05,1.8297459185123442e-05,-3.331875801086426e-05,-1.0,0.0,0.0,0.0,0.0,0.0,0.0,0.0,0.0
1676104293.3703387,6627,1676104293,357773600,base_link,1.366555541753769e-05,1.822181940078735e-05,-3.293763995170593e-05,-1.0,0.0,0.0,0.0,0.0,0.0,0.0,0.0,0.0
1676104293.3885698,6628,1676104293,377796600,base_link,1.378820389509201e-05,1.8253904581069944e-05,-3.3344811201095586e-05,-1.0,0.0,0.0,0.0,0.0,0.0,0.0,0.0,0.0
1676104293.4067876,6629,1676104293,402828160,base_link,1.3577213883399965e-05,1.824422776699066e-05,-3.296180963516236e-05,-1.0,0.0,0.0,0.0,0.0,0.0,0.0,0.0,0.0
1676104293.424859,6630,1676104293,417846160,base_link,1.3477705419063569e-05,1.8298897147178646e-05,-3.308714628219605e-05,-1.0,0.0,0.0,0.0,0.0,0.0,0.0,0.0,0.0
1676104293.4453065,6631,1676104293,437870160,base_link,1.3565367460250855e-05,1.832180321216583e-05,-3.310860693454743e-05,-1.0,0.0,0.0,0.0,0.0,0.0,0.0,0.0,0.0
1676104293.4666383,6632,1676104293,462902160,base_link,1.3654157519340516e-05,1.8312034010887145e-05,-3.3138793706893924e-05,-1.0,0.0,0.0,0.0,0.0,0.0,0.0,0.0,0.0
1676104293.5048444,6633,1676104293,497951720,base_link,1.3783150911331178e-05,1.8249878287315367e-05,-3.300769925117493e-05,-1.0,0.0,0.0,0.0,0.0,0.0,0.0,0.0,0.0
1676104293.5260346,6634,1676104293,517970720,base_link,1.3697567582130432e-05,1.8251694738864895e-05,-3.31707239151001e-05,-1.0,0.0,0.0,0.0,0.0,0.0,0.0,0.0,0.0
1676104293.5649614,6635,1676104293,558017720,base_link,1.3744905591011049e-05,1.824992001056671e-05,-3.319259583950043e-05,-1.0,0.0,0.0,0.0,0.0,0.0,0.0,0.0,0.0
1676104293.587078,6636,1676104293,578042720,base_link,1.3710033893585205e-05,1.8225243687629696e-05,-3.3165615797042846e-05,-1.0,0.0,0.0,0.0,0.0,0.0,0.0,0.0,0.0
1676104293.6044798,6637,1676104293,598069280,base_link,1.3637870550155641e-05,1.8279868364334105e-05,-3.316084742546082e-05,-1.0,0.0,0.0,0.0,0.0,0.0,0.0,0.0,0.0
1676104293.6264663,6638,1676104293,618101280,base_link,1.3537111878395082e-05,1.8290141224861144e-05,-3.3116579055786135e-05,-1.0,0.0,0.0,0.0,0.0,0.0,0.0,0.0,0.0
1676104293.647141,6639,1676104293,638116280,base_link,1.3540861010551453e-05,1.8303802609443663e-05,-3.300579786300659e-05,-1.0,0.0,0.0,0.0,0.0,0.0,0.0,0.0,0.0
1676104293.6646326,6640,1676104293,658140280,base_link,1.3677683472633363e-05,1.8253372609615325e-05,-3.3025634288787844e-05,-1.0,0.0,0.0,0.0,0.0,0.0,0.0,0.0,0.0
1676104293.6864252,6641,1676104293,678165280,base_link,1.3698908686637879e-05,1.828319430351257e-05,-3.332040309906006e-05,-1.0,0.0,0.0,0.0,0.0,0.0,0.0,0.0,0.0
1676104293.7039843,6642,1676104293,698191328,base_link,1.3698610663414002e-05,1.8231916427612303e-05,-3.3199381828308106e-05,-1.0,0.0,0.0,0.0,0.0,0.0,0.0,0.0,0.0
1676104293.7254438,6643,1676104293,718215328,base_link,1.3862431049346924e-05,1.8281853199005126e-05,-3.3647829294204717e-05,-1.0,0.0,0.0,0.0,0.0,0.0,0.0,0.0,0.0
1676104293.7453914,6644,1676104293,738239328,base_link,1.3751654326915742e-05,1.825573146343231e-05,-3.326125144958496e-05,-1.0,0.0,0.0,0.0,0.0,0.0,0.0,0.0,0.0
1676104293.7650733,6645,1676104293,758264328,base_link,1.3584010303020478e-05,1.8282151222229002e-05,-3.309749960899353e-05,-1.0,0.0,0.0,0.0,0.0,0.0,0.0,0.0,0.0
1676104293.7859616,6646,1676104293,778288328,base_link,1.3495659828186035e-05,1.829813718795776e-05,-3.3108267188072206e-05,-1.0,0.0,0.0,0.0,0.0,0.0,0.0,0.0,0.0
1676104293.8042774,6647,1676104293,798313888,base_link,1.3052800297737122e-05,1.822434067726135e-05,-3.2785260677337645e-05,-1.0,0.0,0.0,0.0,0.0,0.0,0.0,0.0,0.0
1676104293.8257046,6648,1676104293,818338888,base_link,1.354409158229828e-05,1.8259868025779722e-05,-3.274680972099304e-05,-1.0,0.0,0.0,0.0,0.0,0.0,0.0,0.0,0.0
1676104293.8478398,6649,1676104293,838363888,base_link,1.366134285926819e-05,1.8275235593318936e-05,-3.276939392089844e-05,-1.0,0.0,0.0,0.0,0.0,0.0,0.0,0.0,0.0
1676104293.8659728,6650,1676104293,858386888,base_link,1.3281707465648652e-05,1.8229436874389645e-05,-3.2797309756278994e-05,-1.0,0.0,0.0,0.0,0.0,0.0,0.0,0.0,0.0
1676104293.8855455,6651,1676104293,878410888,base_link,1.3679313659667969e-05,1.8265452980995177e-05,-3.3155757188797e-05,-1.0,0.0,0.0,0.0,0.0,0.0,0.0,0.0,0.0
1676104293.9096599,6652,1676104293,898437936,base_link,1.3736258447170258e-05,1.8264292180538177e-05,-3.304018378257752e-05,-1.0,0.0,0.0,0.0,0.0,0.0,0.0,0.0,0.0
1676104293.9458947,6653,1676104293,938487936,base_link,1.582801640033722e-05,2.340333461761474e-05,-4.646410644054413e-05,-1.0,0.0,0.0,0.0,0.0,0.0,0.0,0.0,0.0
1676104293.9656005,6654,1676104293,958509936,base_link,1.8060930073261263e-05,2.9165768623352048e-05,-3.6691766977310186e-05,-1.0,0.0,0.0,0.0,0.0,0.0,0.0,0.0,0.0
1676104293.9866745,6655,1676104293,978532936,base_link,1.0969194769859315e-05,1.7807675898075102e-05,-3.461700081825257e-05,-1.0,0.0,0.0,0.0,0.0,0.0,0.0,0.0,0.0
1676104294.0047412,6656,1676104293,998560496,base_link,1.5769945085048677e-05,1.6991582512855525e-05,-4.600147306919098e-05,-1.0,0.0,0.0,0.0,0.0,0.0,0.0,0.0,0.0
1676104294.028311,6657,1676104294,18584496,base_link,1.9439864158630374e-05,1.794514507055282e-05,-4.344120025634766e-05,-1.0,0.0,0.0,0.0,0.0,0.0,0.0,0.0,0.0
1676104294.0504434,6658,1676104294,38608496,base_link,1.325913965702057e-05,1.777456998825073e-05,-3.653843402862549e-05,-1.0,0.0,0.0,0.0,0.0,0.0,0.0,0.0,0.0
1676104294.065179,6659,1676104294,58635496,base_link,1.2588897347450256e-05,1.668065190315246e-05,-3.6962005496025086e-05,-1.0,0.0,0.0,0.0,0.0,0.0,0.0,0.0,0.0
1676104294.0853007,6660,1676104294,78657496,base_link,1.1787189543247223e-05,1.7055168747901915e-05,-3.670866787433625e-05,-1.0,0.0,0.0,0.0,0.0,0.0,0.0,0.0,0.0
1676104294.1054323,6661,1676104294,98683056,base_link,1.2222796678543091e-05,1.6380357742309567e-05,-3.698379993438721e-05,-1.0,0.0,0.0,0.0,0.0,0.0,0.0,0.0,0.0
1676104294.1249933,6662,1676104294,118708056,base_link,1.1462226510047912e-05,1.617494076490402e-05,-3.749328851699829e-05,-1.0,0.0,0.0,0.0,0.0,0.0,0.0,0.0,0.0
1676104294.148326,6663,1676104294,138731056,base_link,1.1306340992450715e-05,1.590914726257324e-05,-3.713277578353882e-05,-1.0,0.0,0.0,0.0,0.0,0.0,0.0,0.0,0.0
1676104294.1852138,6664,1676104294,178780056,base_link,1.2280748784542084e-05,1.526926457881927e-05,-3.8168936967849734e-05,-1.0,0.0,0.0,0.0,0.0,0.0,0.0,0.0,0.0
1676104294.2244725,6665,1676104294,218831360,base_link,1.183135211467743e-05,1.509698927402496e-05,-3.7988907098770144e-05,-1.0,0.0,0.0,0.0,0.0,0.0,0.0,0.0,0.0
1676104294.2461941,6666,1676104294,238856360,base_link,1.1679352074861526e-05,1.5204711258411402e-05,-3.824079334735871e-05,-1.0,0.0,0.0,0.0,0.0,0.0,0.0,0.0,0.0
1676104294.2652736,6667,1676104294,258880360,base_link,1.2656047940254213e-05,1.552404314279556e-05,-3.903768062591553e-05,-1.0,0.0,0.0,0.0,0.0,0.0,0.0,0.0,0.0
1676104294.2841353,6668,1676104294,278903360,base_link,1.2477371096611024e-05,1.532557606697082e-05,-3.847328722476959e-05,-1.0,0.0,0.0,0.0,0.0,0.0,0.0,0.0,0.0
1676104294.3086762,6669,1676104294,298929920,base_link,1.1385063827037812e-05,1.577169597148895e-05,-3.778234720230103e-05,-1.0,0.0,0.0,0.0,0.0,0.0,0.0,0.0,0.0
1676104294.324509,6670,1676104294,318954920,base_link,1.2206541001796722e-05,1.5038147568702694e-05,-3.8992136716842656e-05,-1.0,0.0,0.0,0.0,0.0,0.0,0.0,0.0,0.0
1676104294.3473172,6671,1676104294,338981920,base_link,1.146705448627472e-05,1.5594130754470822e-05,-3.856498897075653e-05,-1.0,0.0,0.0,0.0,0.0,0.0,0.0,0.0,0.0
1676104294.3662348,6672,1676104294,359001920,base_link,1.1770015954971315e-05,1.4755678176879878e-05,-3.866716027259827e-05,-1.0,0.0,0.0,0.0,0.0,0.0,0.0,0.0,0.0
1676104294.3852644,6673,1676104294,379025920,base_link,1.1663910746574402e-05,1.5614357590675353e-05,-3.843091428279877e-05,-1.0,0.0,0.0,0.0,0.0,0.0,0.0,0.0,0.0
1676104294.4071283,6674,1676104294,399053480,base_link,1.1858028173446656e-05,1.4689691364765164e-05,-3.9299201965332036e-05,-1.0,0.0,0.0,0.0,0.0,0.0,0.0,0.0,0.0
1676104294.4233434,6675,1676104294,419076480,base_link,1.1876287311315536e-05,1.551929116249084e-05,-3.7932008504867555e-05,-1.0,0.0,0.0,0.0,0.0,0.0,0.0,0.0,0.0
1676104294.451024,6676,1676104294,439100480,base_link,1.1643724143505097e-05,1.5109694004058833e-05,-3.8025021553039555e-05,-1.0,0.0,0.0,0.0,0.0,0.0,0.0,0.0,0.0
1676104294.463293,6677,1676104294,459124480,base_link,1.1056345701217653e-05,1.5520596504211423e-05,-3.804315626621246e-05,-1.0,0.0,0.0,0.0,0.0,0.0,0.0,0.0,0.0
1676104294.4853349,6678,1676104294,479150480,base_link,1.2225314974784851e-05,1.5119296312332149e-05,-3.846502602100372e-05,-1.0,0.0,0.0,0.0,0.0,0.0,0.0,0.0,0.0
1676104294.502792,6679,1676104294,499176296,base_link,1.1246235668659211e-05,1.5442550182342528e-05,-3.8024508953094486e-05,-1.0,0.0,0.0,0.0,0.0,0.0,0.0,0.0,0.0
1676104294.5253868,6680,1676104294,519199296,base_link,1.2040838599205017e-05,1.4999374747276301e-05,-3.8825184106826784e-05,-1.0,0.0,0.0,0.0,0.0,0.0,0.0,0.0,0.0
1676104294.5472078,6681,1676104294,539225296,base_link,1.198691949248314e-05,1.5433633327484128e-05,-3.8469338417053224e-05,-1.0,0.0,0.0,0.0,0.0,0.0,0.0,0.0,0.0
1676104294.5636885,6682,1676104294,559249296,base_link,1.168646663427353e-05,1.52694433927536e-05,-3.9214593172073364e-05,-1.0,0.0,0.0,0.0,0.0,0.0,0.0,0.0,0.0
1676104294.5856004,6683,1676104294,579273296,base_link,1.2160301208496095e-05,1.5436625480651854e-05,-3.906515538692475e-05,-1.0,0.0,0.0,0.0,0.0,0.0,0.0,0.0,0.0
1676104294.6094277,6684,1676104294,599298856,base_link,1.1529789119958879e-05,1.4978317916393275e-05,-3.875224590301514e-05,-1.0,0.0,0.0,0.0,0.0,0.0,0.0,0.0,0.0
1676104294.625719,6685,1676104294,619322856,base_link,1.1769273877143861e-05,1.547594368457794e-05,-3.8138335943222045e-05,-1.0,0.0,0.0,0.0,0.0,0.0,0.0,0.0,0.0
1676104294.6466181,6686,1676104294,639346856,base_link,1.1892295628786088e-05,1.4620836079120632e-05,-3.871889114379883e-05,-1.0,0.0,0.0,0.0,0.0,0.0,0.0,0.0,0.0
1676104294.6651564,6687,1676104294,659370856,base_link,1.1804355680942536e-05,1.540795564651489e-05,-3.837695419788361e-05,-1.0,0.0,0.0,0.0,0.0,0.0,0.0,0.0,0.0
1676104294.6849792,6688,1676104294,679396856,base_link,1.1482112109661103e-05,1.5508605539798735e-05,-3.8611412048339846e-05,-1.0,0.0,0.0,0.0,0.0,0.0,0.0,0.0,0.0
1676104294.704511,6689,1676104294,699421416,base_link,1.2031485885381699e-05,1.502434909343719e-05,-3.903002738952637e-05,-1.0,0.0,0.0,0.0,0.0,0.0,0.0,0.0,0.0
1676104294.7251039,6690,1676104294,719445416,base_link,1.1477939784526826e-05,1.503106206655502e-05,-3.892011642456055e-05,-1.0,0.0,0.0,0.0,0.0,0.0,0.0,0.0,0.0
1676104294.7458963,6691,1676104294,739470416,base_link,1.2206277251243592e-05,1.5054967999458309e-05,-3.939034938812256e-05,-1.0,0.0,0.0,0.0,0.0,0.0,0.0,0.0,0.0
1676104294.7654908,6692,1676104294,759494416,base_link,1.226038932800293e-05,1.4753079414367671e-05,-3.84931743144989e-05,-1.0,0.0,0.0,0.0,0.0,0.0,0.0,0.0,0.0
1676104294.7856932,6693,1676104294,779518416,base_link,1.1156802624464036e-05,1.4690306782722469e-05,-3.7967994809150696e-05,-1.0,0.0,0.0,0.0,0.0,0.0,0.0,0.0,0.0
1676104294.8040462,6694,1676104294,799544976,base_link,1.1790170520544053e-05,1.5472531318664548e-05,-3.758158087730408e-05,-1.0,0.0,0.0,0.0,0.0,0.0,0.0,0.0,0.0
1676104294.8259428,6695,1676104294,819569976,base_link,1.136174649000168e-05,1.5024209022521968e-05,-3.860116004943848e-05,-1.0,0.0,0.0,0.0,0.0,0.0,0.0,0.0,0.0
1676104294.8679597,6696,1676104294,859616976,base_link,1.2441277503967286e-05,1.4913266897201533e-05,-3.7979280948638916e-05,-1.0,0.0,0.0,0.0,0.0,0.0,0.0,0.0,0.0
1676104294.884929,6697,1676104294,879642976,base_link,1.1979345232248306e-05,1.4734010398387905e-05,-3.887981772422791e-05,-1.0,0.0,0.0,0.0,0.0,0.0,0.0,0.0,0.0
1676104294.9038222,6698,1676104294,899668792,base_link,1.2348731607198716e-05,1.525000929832458e-05,-3.873595595359803e-05,-1.0,0.0,0.0,0.0,0.0,0.0,0.0,0.0,0.0
1676104294.9241273,6699,1676104294,919691792,base_link,1.2275132536888123e-05,1.4652264118194576e-05,-3.887078166007996e-05,-1.0,0.0,0.0,0.0,0.0,0.0,0.0,0.0,0.0
1676104294.9447708,6700,1676104294,939716792,base_link,1.1353617906570435e-05,1.4625668525695797e-05,-3.880901336669922e-05,-1.0,0.0,0.0,0.0,0.0,0.0,0.0,0.0,0.0
1676104294.9636688,6701,1676104294,959740792,base_link,1.1956539750099183e-05,1.5280866622924802e-05,-3.809862732887268e-05,-1.0,0.0,0.0,0.0,0.0,0.0,0.0,0.0,0.0
1676104294.9859493,6702,1676104294,979766792,base_link,1.1728467047214509e-05,1.4818975329399104e-05,-3.9144378900527954e-05,-1.0,0.0,0.0,0.0,0.0,0.0,0.0,0.0,0.0
1676104295.00598,6703,1676104294,999791352,base_link,1.1882134526968003e-05,1.5499819815158842e-05,-3.789194226264954e-05,-1.0,0.0,0.0,0.0,0.0,0.0,0.0,0.0,0.0
1676104295.0249038,6704,1676104295,19815352,base_link,1.2103423476219178e-05,1.4806567132472988e-05,-3.90783041715622e-05,-1.0,0.0,0.0,0.0,0.0,0.0,0.0,0.0,0.0
1676104295.04599,6705,1676104295,39840352,base_link,1.2479603290557862e-05,1.53978019952774e-05,-3.8379845023155215e-05,-1.0,0.0,0.0,0.0,0.0,0.0,0.0,0.0,0.0
1676104295.0716004,6706,1676104295,59864352,base_link,1.243436262011528e-05,1.5123468637466426e-05,-3.8710644841194155e-05,-1.0,0.0,0.0,0.0,0.0,0.0,0.0,0.0,0.0
1676104295.08588,6707,1676104295,79887352,base_link,1.2027386575937272e-05,1.4807772636413569e-05,-3.8333171606063846e-05,-1.0,0.0,0.0,0.0,0.0,0.0,0.0,0.0,0.0
1676104295.1045637,6708,1676104295,99914656,base_link,1.2549078464508057e-05,1.5116918087005612e-05,-3.814253807067871e-05,-1.0,0.0,0.0,0.0,0.0,0.0,0.0,0.0,0.0
1676104295.125633,6709,1676104295,119938656,base_link,1.230703890323639e-05,1.4909723401069637e-05,-3.916686773300171e-05,-1.0,0.0,0.0,0.0,0.0,0.0,0.0,0.0,0.0
1676104295.1469393,6710,1676104295,139962656,base_link,1.1889899522066118e-05,1.5039813518524165e-05,-3.7484222650527954e-05,-1.0,0.0,0.0,0.0,0.0,0.0,0.0,0.0,0.0
1676104295.165584,6711,1676104295,159986656,base_link,1.2184771895408632e-05,1.5050986409187313e-05,-3.912854194641114e-05,-1.0,0.0,0.0,0.0,0.0,0.0,0.0,0.0,0.0
1676104295.1854146,6712,1676104295,180010656,base_link,1.2373194098472595e-05,1.5485297143459318e-05,-3.850318789482117e-05,-1.0,0.0,0.0,0.0,0.0,0.0,0.0,0.0,0.0
1676104295.2076602,6713,1676104295,200038472,base_link,1.2252895534038544e-05,1.4818321168422694e-05,-3.851688504219055e-05,-1.0,0.0,0.0,0.0,0.0,0.0,0.0,0.0,0.0
1676104295.2249691,6714,1676104295,220061472,base_link,1.2160331010818482e-05,1.4585569500923152e-05,-3.9670076966285705e-05,-1.0,0.0,0.0,0.0,0.0,0.0,0.0,0.0,0.0
1676104295.2452767,6715,1676104295,240086472,base_link,1.3250997662544251e-05,1.560709774494171e-05,-3.8200736045837405e-05,-1.0,0.0,0.0,0.0,0.0,0.0,0.0,0.0,0.0
1676104295.2671642,6716,1676104295,260110472,base_link,1.2036226689815522e-05,1.4201939105987544e-05,-3.923431038856507e-05,-1.0,0.0,0.0,0.0,0.0,0.0,0.0,0.0,0.0
1676104295.2840674,6717,1676104295,280137472,base_link,1.283397525548935e-05,1.4100573956966395e-05,-3.862583041191101e-05,-1.0,0.0,0.0,0.0,0.0,0.0,0.0,0.0,0.0
1676104295.3049867,6718,1676104295,300164032,base_link,1.2244273722171783e-05,1.4624428749084468e-05,-3.833480179309845e-05,-1.0,0.0,0.0,0.0,0.0,0.0,0.0,0.0,0.0
1676104295.3252907,6719,1676104295,320186032,base_link,1.2324607372283936e-05,1.4799886941909786e-05,-3.8946306705474856e-05,-1.0,0.0,0.0,0.0,0.0,0.0,0.0,0.0,0.0
1676104295.34555,6720,1676104295,340217032,base_link,1.3056206703186036e-05,1.5328809618949888e-05,-3.795698285102844e-05,-1.0,0.0,0.0,0.0,0.0,0.0,0.0,0.0,0.0
1676104295.364701,6721,1676104295,360234032,base_link,1.2151090055704118e-05,1.447552144527435e-05,-3.9614057540893556e-05,-1.0,0.0,0.0,0.0,0.0,0.0,0.0,0.0,0.0
1676104295.3855715,6722,1676104295,380257032,base_link,1.3109853863716126e-05,1.4769977331161495e-05,-3.8429889082908635e-05,-1.0,0.0,0.0,0.0,0.0,0.0,0.0,0.0,0.0
1676104295.403115,6723,1676104295,400283336,base_link,1.2136616557836533e-05,1.4738222956657406e-05,-3.842911720275879e-05,-1.0,0.0,0.0,0.0,0.0,0.0,0.0,0.0,0.0
1676104295.425666,6724,1676104295,420308336,base_link,1.2408892810344697e-05,1.4500451087951656e-05,-3.849016427993774e-05,-1.0,0.0,0.0,0.0,0.0,0.0,0.0,0.0,0.0
1676104295.4463344,6725,1676104295,440332336,base_link,1.2518750131130219e-05,1.5153101086616512e-05,-3.776816725730896e-05,-1.0,0.0,0.0,0.0,0.0,0.0,0.0,0.0,0.0
1676104295.467288,6726,1676104295,460358336,base_link,3.344053030014038e-05,8.95983800292013e-06,-0.00018634138107299805,-1.0,0.0,0.0,0.0,0.0,0.0,0.0,0.0,0.0
1676104295.4846964,6727,1676104295,480381336,base_link,4.6466898918151855e-05,8.906298875808695e-06,-0.00016699974536895753,-1.0,0.0,0.0,0.0,0.0,0.0,0.0,0.0,0.0
1676104295.5063858,6728,1676104295,500406896,base_link,6.218247413635254e-05,1.2706789374351488e-05,-0.00010801818370819092,-1.0,0.0,0.0,0.0,0.0,0.0,0.0,0.0,0.0
1676104295.5473814,6729,1676104295,540454896,base_link,2.3504006862640383e-05,1.7685851454734797e-05,-6.375807523727417e-05,-1.0,0.0,0.0,0.0,0.0,0.0,0.0,0.0,0.0
1676104295.567966,6730,1676104295,560478896,base_link,1.0168500244617463e-05,1.809218525886535e-05,-5.4120075702667236e-05,-1.0,0.0,0.0,0.0,0.0,0.0,0.0,0.0,0.0
1676104295.6048386,6731,1676104295,600529456,base_link,6.467362493276596e-06,1.9942095875740045e-05,-4.607630670070648e-05,-1.0,0.0,0.0,0.0,0.0,0.0,0.0,0.0,0.0
1676104295.6252966,6732,1676104295,620554456,base_link,3.842683881521225e-06,2.186954617500305e-05,-2.23009467124939e-05,-1.0,0.0,0.0,0.0,0.0,0.0,0.0,0.0,0.0
1676104295.647516,6733,1676104295,640578456,base_link,-1.3637110590934753e-06,2.333273589611053e-05,-2.782109379768372e-05,-1.0,0.0,0.0,0.0,0.0,0.0,0.0,0.0,0.0
1676104295.6660693,6734,1676104295,660602456,base_link,1.4879129827022554e-06,2.1452164649963376e-05,-2.7491569519042974e-05,-1.0,0.0,0.0,0.0,0.0,0.0,0.0,0.0,0.0
1676104295.6855292,6735,1676104295,680626456,base_link,1.9207175821065903e-06,2.1839073300361632e-05,-3.1602621078491215e-05,-1.0,0.0,0.0,0.0,0.0,0.0,0.0,0.0,0.0
1676104295.7060313,6736,1676104295,700652504,base_link,2.4054814130067825e-06,2.2097393870353696e-05,-3.425621390342713e-05,-1.0,0.0,0.0,0.0,0.0,0.0,0.0,0.0,0.0
1676104295.7262738,6737,1676104295,720676504,base_link,4.825100302696228e-06,2.1595486998558043e-05,-3.834031820297242e-05,-1.0,0.0,0.0,0.0,0.0,0.0,0.0,0.0,0.0
1676104295.7462015,6738,1676104295,740700504,base_link,4.477998614311218e-06,1.9593188166618345e-05,-3.8512575626373295e-05,-1.0,0.0,0.0,0.0,0.0,0.0,0.0,0.0,0.0
1676104295.7658482,6739,1676104295,760724504,base_link,7.715246081352234e-06,2.148085236549377e-05,-4.24966037273407e-05,-1.0,0.0,0.0,0.0,0.0,0.0,0.0,0.0,0.0
1676104295.787613,6740,1676104295,780749504,base_link,8.328184485435486e-06,1.975679993629455e-05,-4.573870897293091e-05,-1.0,0.0,0.0,0.0,0.0,0.0,0.0,0.0,0.0
1676104295.8070767,6741,1676104295,800776064,base_link,8.92321914434433e-06,1.9541423022747034e-05,-4.851770401000977e-05,-1.0,0.0,0.0,0.0,0.0,0.0,0.0,0.0,0.0
1676104295.8256052,6742,1676104295,820800064,base_link,1.3516068458557129e-05,1.9096447527408593e-05,-4.8631319403648376e-05,-1.0,0.0,0.0,0.0,0.0,0.0,0.0,0.0,0.0
1676104295.8455372,6743,1676104295,840824064,base_link,1.2493012845516206e-05,1.761237680912017e-05,-4.976332783699036e-05,-1.0,0.0,0.0,0.0,0.0,0.0,0.0,0.0,0.0
1676104295.8661513,6744,1676104295,860848064,base_link,1.318284571170807e-05,1.8193179368972773e-05,-4.806815683841706e-05,-1.0,0.0,0.0,0.0,0.0,0.0,0.0,0.0,0.0
1676104295.8850696,6745,1676104295,880873064,base_link,1.4614716172218323e-05,1.7554718255996697e-05,-4.755980372428894e-05,-1.0,0.0,0.0,0.0,0.0,0.0,0.0,0.0,0.0
1676104295.9046164,6746,1676104295,895892624,base_link,1.4050608873367311e-05,1.7215541005134575e-05,-4.5693379640579225e-05,-1.0,0.0,0.0,0.0,0.0,0.0,0.0,0.0,0.0
1676104295.9249942,6747,1676104295,920922624,base_link,1.3375383615493775e-05,1.7043220996856685e-05,-4.3801236152648925e-05,-1.0,0.0,0.0,0.0,0.0,0.0,0.0,0.0,0.0
1676104295.9463496,6748,1676104295,940947624,base_link,1.4308907091617584e-05,1.6467653214931483e-05,-4.4213452935218816e-05,-1.0,0.0,0.0,0.0,0.0,0.0,0.0,0.0,0.0
1676104295.9639542,6749,1676104295,955965624,base_link,1.6277006268501282e-05,1.6357715427875514e-05,-4.375033080577851e-05,-1.0,0.0,0.0,0.0,0.0,0.0,0.0,0.0,0.0
1676104295.9852386,6750,1676104295,980997624,base_link,1.5071219205856324e-05,1.5894648432731626e-05,-4.036148488521576e-05,-1.0,0.0,0.0,0.0,0.0,0.0,0.0,0.0,0.0
1676104296.0059817,6751,1676104296,1022184,base_link,1.536535322666168e-05,1.5836808085441588e-05,-4.067452847957611e-05,-1.0,0.0,0.0,0.0,0.0,0.0,0.0,0.0,0.0
1676104296.0261383,6752,1676104296,21047184,base_link,1.5658833086490633e-05,1.534999907016754e-05,-3.894688785076141e-05,-1.0,0.0,0.0,0.0,0.0,0.0,0.0,0.0,0.0
1676104296.046207,6753,1676104296,41072184,base_link,1.7724934220314025e-05,1.5711712837219234e-05,-4.2361882328987125e-05,-1.0,0.0,0.0,0.0,0.0,0.0,0.0,0.0,0.0
1676104296.0643501,6754,1676104296,56089184,base_link,1.8353366851806642e-05,1.5008960664272304e-05,-4.099836945533753e-05,-1.0,0.0,0.0,0.0,0.0,0.0,0.0,0.0,0.0
1676104296.0859008,6755,1676104296,81118184,base_link,1.7111355066299438e-05,1.4668266475200649e-05,-4.084326028823853e-05,-1.0,0.0,0.0,0.0,0.0,0.0,0.0,0.0,0.0
1676104296.1070933,6756,1676104296,101146000,base_link,1.8747466802597047e-05,1.443465650081634e-05,-4.297364354133606e-05,-1.0,0.0,0.0,0.0,0.0,0.0,0.0,0.0,0.0
1676104296.1251469,6757,1676104296,116165000,base_link,1.8911835551261903e-05,1.4063982665538783e-05,-4.3005123734474183e-05,-1.0,0.0,0.0,0.0,0.0,0.0,0.0,0.0,0.0
1676104296.1464865,6758,1676104296,141194000,base_link,1.9136348366737368e-05,1.4661203324794764e-05,-4.314231872558594e-05,-1.0,0.0,0.0,0.0,0.0,0.0,0.0,0.0,0.0
1676104296.1662474,6759,1676104296,161219000,base_link,1.96557030081749e-05,1.3940533995628352e-05,-4.1137182712554934e-05,-1.0,0.0,0.0,0.0,0.0,0.0,0.0,0.0,0.0
1676104296.2046742,6760,1676104296,201268816,base_link,2.0272091031074526e-05,1.394647657871246e-05,-4.383552074432373e-05,-1.0,0.0,0.0,0.0,0.0,0.0,0.0,0.0,0.0
1676104296.2258575,6761,1676104296,221293816,base_link,2.0325061678886414e-05,1.2947005033493038e-05,-4.491796493530274e-05,-1.0,0.0,0.0,0.0,0.0,0.0,0.0,0.0,0.0
1676104296.2659476,6762,1676104296,261342816,base_link,2.0771002769470215e-05,1.3047714531421656e-05,-4.320246875286103e-05,-1.0,0.0,0.0,0.0,0.0,0.0,0.0,0.0,0.0
1676104296.2851243,6763,1676104296,281365816,base_link,2.025967836380005e-05,1.2939396500587459e-05,-4.2556297779083256e-05,-1.0,0.0,0.0,0.0,0.0,0.0,0.0,0.0,0.0
1676104296.304276,6764,1676104296,296388632,base_link,2.0287933945655825e-05,1.3214032351970669e-05,-4.22663688659668e-05,-1.0,0.0,0.0,0.0,0.0,0.0,0.0,0.0,0.0
1676104296.3249638,6765,1676104296,321417632,base_link,1.8897923827171326e-05,1.2961131334304805e-05,-4.334847927093506e-05,-1.0,0.0,0.0,0.0,0.0,0.0,0.0,0.0,0.0
1676104296.346447,6766,1676104296,341442632,base_link,2.026703953742981e-05,1.3239309191703792e-05,-4.24846887588501e-05,-1.0,0.0,0.0,0.0,0.0,0.0,0.0,0.0,0.0
1676104296.364639,6767,1676104296,356460632,base_link,1.7566463351249697e-05,1.3856913149356838e-05,-4.2881390452384954e-05,-1.0,0.0,0.0,0.0,0.0,0.0,0.0,0.0,0.0
