Time,header.seq,header.stamp.secs,header.stamp.nsecs,header.frame_id,type_mask,orientation.x,orientation.y,orientation.z,orientation.w,body_rate.x,body_rate.y,body_rate.z,thrust
1676104288.8759253,1072,1676104288,827259520,,0,-0.004279513948088687,0.00017287353097384072,0.0403623087980943,-0.9991759698504925,0.9077107310295105,-0.2596164345741272,-0.006221890449523894,0.057575758546590805
1676104288.9556742,1073,1676104288,952261824,,0,-0.005349382886215508,0.00021609067894633394,0.04036197162330624,-0.9991708279349741,0.9249613881111145,-0.25947633385658264,-0.006120072212070195,0.057575758546590805
1676104289.0807395,1074,1676104289,77264384,,0,-0.005349383050851635,0.00021608129468709492,0.04036024360251729,-0.9991708700818226,0.9245513081550598,-0.2594579756259918,-0.00610540062189099,0.057575758546590805
1676104289.2067301,1075,1676104289,202269504,,0,-0.00534938552039354,0.0002160248244955354,0.04034966474354113,-0.9991713336971563,0.9249363541603088,-0.2593536078929901,-0.00611705472692844,0.057575758546590805
1676104289.3311613,1076,1676104289,328272064,,0,-0.004279519381080878,0.00017273573053554542,0.04033015075268059,-0.9991772764027963,0.9081583023071289,-0.2592985928058624,-0.006233082152903048,0.057575758546590805
1676104289.4564993,1077,1676104289,448274624,,0,-0.004279520698169894,0.00017270379112690833,0.04032269076049408,-0.9991775714307359,0.9080854058265686,-0.2593388259410858,-0.006251532584428755,0.057575758546590805
1676104289.580341,1078,1676104289,573277440,,0,-0.00534939045947735,0.00021590068885578057,0.04032648397686005,-0.9991722609278235,0.9081193208694458,-0.25994783639907837,-0.006291657686233488,0.057575758546590805
1676104289.7079687,1079,1676104289,703282304,,0,-0.004279519216444751,0.0001727352366271642,0.04033002431213505,-0.9991772342559477,0.9084768891334534,-0.2598283290863037,-0.006249641999602286,0.057575758546590805
1676104289.8315148,1080,1676104289,828286656,,0,-0.0053493902948412225,0.0002159048047589557,0.040327284766981816,-0.9991722187809751,0.9085298776626587,-0.2599736452102661,-0.006246448494493929,0.057575758546590805
1676104289.9567797,1081,1676104289,953288960,,0,-0.005349388483843826,0.00021595534804994335,0.04033668351419972,-0.9991718394593384,0.9259691834449768,-0.25997719168663025,-0.00613411236554381,0.057575758546590805
1676104290.081634,1082,1676104290,78292032,,0,-0.005349387166754809,0.00021597773856321485,0.04034089819905083,-0.9991716708719444,0.926222562789917,-0.2598297894001007,-0.00612331088632342,0.057575758546590805
1676104290.2059221,1083,1676104290,198296896,,0,-0.0042795187225363705,0.00017275054778697488,0.04033360679425844,-0.9991771078154023,0.9259322285652161,-0.2596365809440613,-0.006089285016059843,0.057575758546590805
1676104290.3303072,1084,1676104290,324299456,,0,-0.0053493889777522065,0.00021593509780632258,0.0403329324446823,-0.9991719658998839,0.9258182048797607,-0.25976186990737915,-0.006134985480457512,0.057575758546590805
1676104290.455977,1085,1676104290,449302016,,0,-0.004279521685986656,0.00017267251026277904,0.040315357208853264,-0.9991778243118269,0.9087926149368286,-0.2595844268798828,-0.006255482323467699,0.057575758546590805
1676104290.580291,1086,1676104290,574304576,,0,-0.005349392764383128,0.00021584372475584026,0.04031586297103532,-0.9991726823963086,0.92560213804245,-0.2593512237071991,-0.00611190218478438,0.057575758546590805
1676104290.7056615,1087,1676104290,699309696,,0,-0.005349393587563762,0.000215819852517426,0.0403113954050932,-0.9991728509837027,0.9254723191261292,-0.25953707098960876,-0.006139393895864455,0.057575758546590805
1676104290.8302078,1088,1676104290,824312256,,0,-0.005349394081472144,0.0002158055291743771,0.04030869800678844,-0.9991729352773997,0.9251853823661804,-0.25955161452293396,-0.006093958392739264,0.057575758546590805
1676104290.9575777,1089,1676104290,949314304,,0,-0.005349390624113477,0.00021589723149711387,0.04032585177413244,-0.9991723030746721,0.9251834750175476,-0.2596016526222229,-0.006090159993618695,0.057575758546590805
1676104291.0803084,1090,1676104291,75315072,,0,-0.005349389965568969,0.00021591764637686142,0.04032964499049838,-0.9991721344872779,0.9252269268035889,-0.259530633687973,-0.0061219064518809,0.057575758546590805
1676104291.207716,1091,1676104291,200319168,,0,-0.005349384532576778,0.00021604820282556888,0.04035400586893771,-0.9991711229629138,0.9252325892448425,-0.2594522535800934,-0.006127502769231764,0.057575758546590805
1676104291.3306444,1092,1676104291,325321728,,0,-0.004279514441997068,0.00017285821981403006,0.040358726315970914,-0.999176096291038,0.9253246188163757,-0.25965070724487305,-0.006119736470282046,0.057575758546590805
1676104291.4557233,1093,1676104291,450324544,,0,-0.004279513618816433,0.00017287517733511067,0.0403626881197309,-0.9991759277036439,0.9081733822822571,-0.2592681050300598,-0.006244449876248804,0.057575758546590805
1676104291.5805726,1094,1676104291,575327104,,0,-0.005349381075218111,0.00021613397824773377,0.04037006381822037,-0.999170490760186,0.9251595735549927,-0.25938013195991516,-0.006081529427319733,0.057575758546590805
1676104291.7058735,1095,1676104291,700332224,,0,-0.005349380252037476,0.00021614863086303623,0.04037280336337353,-0.9991703643196406,0.9253678321838379,-0.25942108035087585,-0.006089869886636702,0.057575758546590805
1676104291.8302994,1096,1676104291,825335040,,0,-0.005349376959314936,0.00021623555873808985,0.04038902990005023,-0.9991697321169128,0.925479531288147,-0.2594667077064514,-0.0061043426394462265,0.057575758546590805
1676104291.9559498,1097,1676104291,951337600,,0,-0.005349376465406555,0.0002162511991701543,0.04039193803259755,-0.9991696056763673,0.9252866506576538,-0.2591601610183716,-0.00610127020627257,0.057575758546590805
1676104292.0826762,1098,1676104292,76339904,,0,-0.005349376630042682,0.00021624379054443967,0.040390589333445144,-0.9991696899700643,0.9253897070884705,-0.2594769299030304,-0.0061268359422683395,0.057575758546590805
1676104292.2068102,1099,1676104292,201344256,,0,-0.005349377453223317,0.00021622386957307333,0.040386838263927714,-0.9991698164106099,0.9251846075057983,-0.2592874765396118,-0.006110166199505297,0.057575758546590805
1676104292.3297865,1100,1676104292,326346560,,0,-0.0053493790995845876,0.00021618271054132425,0.040379167537498754,-0.999170153585398,0.9250151515007019,-0.25944751501083374,-0.006111559458076922,0.057575758546590805
1676104292.4564524,1101,1676104292,451348608,,0,-0.0053493843679406515,0.0002160496845507116,0.0403543430437258,-0.9991711229629138,0.9251499772071838,-0.25926274061203003,-0.0061412760987877525,0.057575758546590805
1676104292.587089,1102,1676104292,576351168,,0,-0.005349387989935445,0.00021595979322537205,0.04033756859801846,-0.9991717973124898,0.9249386787414551,-0.2591061294078827,-0.006084260065108506,0.057575758546590805
1676104292.7056916,1103,1676104292,702356032,,0,-0.005349387825299317,0.00021596390912854716,0.04033828509444314,-0.9991717551656414,0.9252387881278992,-0.2592698931694031,-0.006130794063210455,0.057575758546590805
1676104292.8301153,1104,1676104292,827358336,,0,-0.005349388319207699,0.00021595485414156217,0.040336599220502645,-0.9991718394593384,0.9248470067977905,-0.25925037264823914,-0.006093420088291136,0.057575758546590805
1676104292.9557416,1105,1676104292,952359616,,0,-0.004279515923722211,0.00017281426196812203,0.04034848463178278,-0.9991764756126746,0.9247968196868896,-0.25923067331314087,-0.006118645891547171,0.057575758546590805
1676104293.0811214,1106,1676104293,77361920,,0,-0.005349384861849032,0.00021603997101921906,0.04035248858239126,-0.9991712072566107,0.9076970219612122,-0.25931060314178467,-0.006249193567782608,0.057575758546590805
1676104293.208415,1107,1676104293,202367040,,0,-0.005349384038668397,0.0002160598919905854,0.0403562396519088,-0.9991710808160652,0.9247288703918457,-0.2592311501502991,-0.006108797155320612,0.057575758546590805
1676104293.3314488,1108,1676104293,327369600,,0,-0.005349384532576778,0.00021604820282556888,0.04035400586893771,-0.9991711229629138,0.9248791337013245,-0.25930237770080566,-0.006129163317382304,0.057575758546590805
1676104293.455791,1109,1676104293,452372160,,0,-0.004279517240811227,0.00017278627382653287,0.04034195187026357,-0.9991767706406142,0.9076545238494873,-0.25891923904418945,-0.006263949442654816,0.057575758546590805
1676104293.5816758,1110,1676104293,578374720,,0,-0.004279518557900243,0.00017275631005141974,0.04033491334656222,-0.9991770656685538,0.9076222777366638,-0.2587803304195404,-0.00620396342128512,0.057575758546590805
1676104293.7056198,1111,1676104293,703379328,,0,-0.005349387825299317,0.0002159678603955951,0.04033904373771629,-0.9991717551656414,0.9249820113182068,-0.2591096758842468,-0.0061161560006439365,0.057575758546590805
1676104293.8304036,1112,1676104293,823381888,,0,-0.005349387825299317,0.00021596127495051524,0.04033782147910947,-0.9991717973124898,0.9249436259269714,-0.2593070864677429,-0.006095059681683747,0.057575758546590805
1676104293.9546578,1113,1676104293,948383936,,0,-0.004279651254618602,0.00016943592864217093,0.03955974850874987,-0.9992080014553608,0.921532392501831,-0.26785412430763245,0.045391578227281605,0.057575758546590805
1676104294.082104,1114,1676104294,78386496,,0,-0.0042801015344259355,0.0001576507807634396,0.036808107210019134,-0.9993131578423955,0.5379040837287903,-0.24914611876010895,0.05537270382046702,0.057575758546590805
1676104294.2061832,1115,1676104294,203391360,,0,-0.005350618809620863,0.0001829561766633104,0.034173001947421025,-0.9994016662242683,0.05930672958493233,-0.03040569089353084,0.0666833370923996,0.057575758546590805
1676104294.3316295,1116,1676104294,328393920,,0,-0.005351083083498991,0.00016881755534917562,0.03153216471342546,-0.9994884044385037,0.030773984268307686,-0.018733439967036237,0.08003383129835129,0.057575758546590805
1676104294.4568484,1117,1676104294,454396480,,0,-0.004281216121005694,0.00012373738496360015,0.028890063073974553,-0.9995733724851017,-0.006773790344595909,-0.013307659886777389,0.09244722127914429,0.057575758546590805
1676104294.579878,1118,1676104294,574399296,,0,-0.0042815160880290805,0.00011288094947725072,0.026355267310832303,-0.9996434205473268,-0.013506780378520489,-0.0010244381846859925,0.10271339118480682,0.057575758546590805
1676104294.705958,1119,1676104294,699404416,,0,-0.005352239816927263,0.00012696145423855666,0.02371417719574568,-0.9997044491839706,0.004877116065472364,0.006681828759610667,0.11052577942609787,0.057575758546590805
1676104294.8299859,1120,1676104294,824406976,,0,-0.005352556741471729,0.000112818717021247,0.021072539171628407,-0.9997636655061284,-0.007334268651902676,0.0007764327456243476,0.11452418565750122,0.057575758546590805
1676104294.9558682,1121,1676104294,949409792,,0,-0.005352836128979241,9.867268708139713e-05,0.018430311091631894,-0.9998158011577364,-0.011163742281496525,0.0013128150021657489,0.11534454673528671,0.057575758546590805
1676104295.0823169,1122,1676104295,74412352,,0,-0.004282470154385021,6.761638662944014e-05,0.015786987193574197,-0.9998661666417068,-0.02123355120420456,0.0031700769905001064,0.1148177906870842,0.057575758546590805
1676104295.2076356,1123,1676104295,200417472,,0,-0.005353282951427907,7.038490774100027e-05,0.013146655721760665,-0.9998992940646364,-0.011555307544767857,0.007164848968386664,0.11026908457279205,0.057575758546590805
1676104295.3307064,1124,1676104295,325420032,,0,-0.005353450057096807,5.624052416241994e-05,0.010504764816552381,-0.9999305248793829,-0.003045368008315563,0.006414021365344537,0.10896560549736023,0.057575758546590805
1676104295.4566474,1125,1676104295,447422336,,0,-0.22510164157213391,-0.24063460575846576,-0.05747789109727735,0.9424014675080135,-3.7232449054718018,-3.8058059215545654,-0.3327417075633998,0.42776671051979065
1676104295.5803773,1126,1676104295,568424896,,0,-0.18317261126706674,-0.24294264818389683,-0.046771664344843006,0.9514405335207509,-0.964927613735199,-1.4551128149032593,-0.16316698491573317,0.25086548924446106
1676104295.706364,1127,1676104295,698429504,,0,-0.08655266890870554,-0.08413175211924237,-0.007335658983321212,0.9926613736230121,0.748369574546814,1.3961143493652344,0.18292784690856917,0.08924323320388794
1676104295.8311243,1128,1676104295,821432064,,0,-0.03650670982796168,0.003096805548788676,0.00011312214140316238,0.9993285835889504,0.6665483713150024,1.3603694438934326,0.17215900123119338,0.19013744592666626
1676104295.9568236,1129,1676104295,947434624,,0,0.02181904151827516,0.09354059177871066,-0.0020504863269035713,0.9953742398211128,0.7493013143539429,1.3403866291046143,0.10125898569822295,0.16563138365745544
1676104296.0816212,1130,1676104296,67437184,,0,0.04821590250023159,0.12901068933083468,-0.00628034404345688,0.9904503920969792,0.4464910626411438,0.7571488618850708,0.03913537040352812,0.1506572961807251
1676104296.2077372,1131,1676104296,197442816,,0,0.055820297692192274,0.11013280241561947,-0.006195165262616384,0.9923288349882611,0.19447563588619232,-0.05528837069869041,0.032752223312854774,0.17696115374565125
1676104296.3298814,1132,1676104296,317445632,,0,0.033848072135915196,0.0538223566315807,-0.0018254643027038947,0.9979749954021746,-0.22281432151794434,-0.6721919178962708,0.05457423627376565,0.16965818405151367
1676104296.4559717,1133,1676104296,447447680,,0,0.0027037917840529073,0.0018240909081323827,-4.931181275835311e-06,0.999994714529665,-0.4672126770019531,-0.7668083906173706,0.04818553104996691,0.17698121070861816
1676104296.5806286,1134,1676104296,568450496,,0,-0.02146503573197116,-0.02347661771888495,-0.0005041606018873684,0.9994937992351132,-0.36585479974746704,-0.4299496114253998,0.02645613253116613,0.16110901534557343
1676104296.7064154,1135,1676104296,697455360,,0,-0.05250633805398871,-0.052354799770161074,-0.002756572480006575,0.9972434104057224,-0.37997034192085266,-0.37528881430625916,-0.0009471186785958248,0.17180104553699493
1676104296.8317058,1136,1676104296,827457920,,0,-0.06193160784842922,-0.043843589752800574,-0.002723150029137457,0.9971132187906723,-0.20260635018348694,-0.025245165452361107,0.0024049391504377157,0.16751696169376373
1676104296.9564497,1137,1676104296,950460480,,0,-0.059475551617928495,-0.024093672688093797,-0.0014359431287662506,0.997937906175485,-0.015097076073288918,0.21375110745429993,0.015098489820957158,0.16647031903266907
1676104297.080657,1138,1676104297,78463040,,0,-0.04937734583882446,-0.0037662897981381232,-0.0001862047767211961,0.9987730881255769,0.081569142639637,0.23191529512405396,0.020944325253367396,0.17979633808135986
1676104297.2099473,1139,1676104297,197467136,,0,-0.04204642047342673,0.003452398509675092,0.00014532233366547638,0.9991096728577848,0.11100643873214722,0.14867863059043884,0.01815924793481825,0.17484807968139648
1676104297.3317566,1140,1676104297,327469440,,0,-0.023055731634075254,0.019738874425760736,0.00045531240446313023,0.9995391913909594,0.2174588143825531,0.18733733892440796,0.017095033079385733,0.1698106825351715
1676104297.456505,1141,1676104297,447472000,,0,-0.009057132522769453,0.02312723096375971,0.00020955413079609198,0.9996914679546292,0.23343227803707123,0.11893799155950546,0.013345475308597074,0.16835546493530273
1676104297.5800903,1142,1676104297,567474560,,0,-0.0023676334594139466,0.019792162694893804,4.6867295544021145e-05,0.9998013026418486,0.16765904426574707,0.019990257918834686,0.009056445211172102,0.16828730702400208
1676104297.7084236,1143,1676104297,698479680,,0,-0.004320755627173479,0.006382761214610496,2.7564038926066298e-05,0.9999703115043772,-0.017417892813682556,-0.13223907351493835,0.0075284102931618855,0.17503775656223297
1676104297.8299773,1144,1676104297,826482240,,0,-0.005992358414212874,0.0027747583512305225,1.6648005161726136e-05,0.9999781929650489,-0.10271435976028442,-0.13177885115146637,0.00931802392005922,0.1702294647693634
1676104297.9549706,1145,1676104297,947484800,,0,-0.014973102572870435,-0.005463501240823319,-8.180703295975123e-05,0.9998729944311656,-0.10280226171016693,-0.10060802102088928,0.011259168386459363,0.18052643537521362
1676104298.0799973,1146,1676104298,64487360,,0,-0.021520738636860815,-0.0019308215458135169,-4.1598939480335104e-05,0.9997665314918271,-0.04900507628917694,0.046411462128162384,0.009713208302855486,0.16620159149169922
1676104298.2083366,1147,1676104298,203492736,,0,-0.02929206366633846,-0.005389732402128109,-0.00015796638821893215,0.9995563451583033,-0.06320880353450775,-0.007798929698765277,0.00476124044507742,0.1739346832036972
1676104298.3334258,1148,1676104298,329495552,,0,-0.034534372977820485,-0.007432513758288217,-0.00025684289482544537,0.9993758723529796,-0.06184840947389603,-0.026211820542812347,0.0030251031275838644,0.17129036784172058
1676104298.4547822,1149,1676104298,444498112,,0,-0.03686429554452925,-0.008690915921880269,-0.00032061107662247757,0.999282432789831,-0.03735050931572914,-0.03351834788918495,0.002740873023867611,0.17903286218643188
1676104298.5808027,1150,1676104298,576500928,,0,-0.03177438923726262,0.0028287265675680873,8.989922787364918e-05,0.9994910596899599,0.04282212257385254,0.13889093697071075,0.007398953661322576,0.16378718614578247
1676104298.706768,1151,1676104298,695506048,,0,-0.029310862477863332,-0.003390821964000796,-9.942441563726845e-05,0.9995645637937629,-0.01237217616289854,-0.011341442354023457,0.0045400219969451445,0.16908033192157745
1676104298.8304079,1152,1676104298,827508608,,0,-0.021856278917479155,-0.001596461376953482,-3.4897590567105616e-05,0.9997598301429139,0.10311836004257202,0.0247668270021677,0.005632916465401647,0.17350204288959503
1676104298.9558089,1153,1676104298,923511168,,0,-0.02723274757467192,-0.003239808488697245,-8.825550078190478e-05,0.9996238644096177,-0.019868362694978714,0.025737419724464417,0.006586826406419274,0.1725204586982727
1676104299.0801256,1154,1676104299,75513472,,0,-0.0229955727700904,-0.004938162506103786,-0.00011358575673694476,0.999723373118952,0.01169978454709053,-0.02989356219768524,0.002701197518035773,0.1760648488998413
1676104299.2062454,1155,1676104299,203518080,,0,-0.022650094394302094,-0.009372282948331636,-0.00021233582279798707,0.9996994758558463,-0.0283187422901392,-0.07730341702699661,-0.0014318434987217092,0.17253170907497406
1676104299.3325224,1156,1676104299,322520640,,0,-0.02558321804708722,-0.006465535320180234,-0.00016546852725383304,0.9996517656233319,-0.06955219060182571,-0.06707578897476196,-0.0018736125202849425,0.18259261548519135
1676104299.4549363,1157,1676104299,447523200,,0,-0.02427493706391605,-0.0025770071490149246,-6.254592319024413e-05,0.999702004666757,-0.016418563202023506,0.01579117961227894,-0.0020088858436793106,0.16340459883213043
1676104299.580269,1158,1676104299,574526016,,0,-0.025601402436586145,-0.011299475255361601,-0.00028942240872441223,0.9996083122225172,-0.021356968209147453,-0.09909600764513016,-0.007845670916140067,0.18182414770126343
1676104299.7063568,1159,1676104299,691531392,,0,-0.02640970194131766,-0.005368755783915335,-0.0001418241452392358,0.9996368034921106,0.024919632822275162,0.06488526612520218,-0.008560845628380784,0.16986821591854095
1676104299.8450348,1160,1676104299,824534208,,0,-0.029687280591725686,-0.008692495770154915,-0.00025814944712930694,0.9995214054208877,-0.05759798362851143,-0.00807790644466877,-0.005012372974306344,0.17137882113456726
1676104299.9559886,1161,1676104299,951536768,,0,-0.030293214637510172,-0.003114582299237283,-9.440894066450698e-05,0.9995361989647151,-0.05824897065758705,0.08748575299978256,0.0027439326513558518,0.1653669774532318
1676104300.0846608,1162,1676104300,75539584,,0,-0.02760020750759218,-0.004836173059607995,-0.0001335212160826073,0.9996073428450015,0.0041076624765992165,-0.007482006680220365,0.004303982015699149,0.18535451591014862
1676104300.2081678,1163,1676104300,202544192,,0,-0.02790082780713023,-0.005362597734221191,-0.00014970560591075536,0.9995963003706916,0.00783772673457861,-0.0303335078060627,0.0033449279144406358,0.16886603832244873
1676104300.3324704,1164,1676104300,324547008,,0,-0.024393274877822512,-0.007374124568032435,-0.00017992489629310823,0.9996752414179525,0.07564464211463928,-0.040799885988235474,0.004648577421903615,0.18054687976837158
1676104300.4547727,1165,1676104300,451549824,,0,-0.029083583621634816,-0.014399859993551223,-0.00041902396789538946,0.9994731472793428,-0.028108002617955208,-0.11798394471406937,0.0030635052826255703,0.17915846407413483
1676104300.581302,1166,1676104300,572552384,,0,-0.027423140035919315,-0.007836318104059535,-0.00021494892740564223,0.9995931815039018,0.025199802592396736,0.0453893207013607,0.00918067898601293,0.16519226133823395
1676104300.7080727,1167,1676104300,691557760,,0,-0.027888453755825236,-0.012071542299808412,-0.00033679546645062257,0.9995380955728981,0.005223121959716082,-0.049493126571178436,0.009619825519621377,0.17661288380622864
1676104300.8309433,1168,1676104300,821560576,,0,-0.027539737975235686,-0.009059966239787305,-0.0002495936368815692,0.9995796102186814,0.0012834822991862893,0.0026957513764500627,0.00790898222476244,0.17065954208374023
1676104300.9566326,1169,1676104300,952563136,,0,-0.026098163632381766,-0.0034274449411787287,-8.947775938873134e-05,0.9996534936441209,0.032503120601177216,0.0038244086317718038,0.006485754158347844,0.1694418340921402
1676104301.0798979,1170,1676104301,72565696,,0,-0.026785303459990112,-0.0033848147209989752,-9.070001799553664e-05,0.9996354969398068,-0.032918818295001984,0.01966138556599617,0.0035178633406758282,0.1744321882724762
1676104301.2062411,1171,1676104301,203570048,,0,-0.029124246769369224,-0.0030370650252026362,-8.850838187298545e-05,0.9995711808489791,-0.030120832845568657,0.019161297008395195,0.0023800113704055526,0.17020003497600555
1676104301.3328362,1172,1676104301,321571840,,0,-0.02999858775153928,-0.00863008419004438,-0.0002589923840995491,0.9995126388763975,-0.03425024449825287,-0.04340175911784172,-0.0006462962483055836,0.17947566509246826
1676104301.4555483,1173,1676104301,451574656,,0,-0.030478334791426656,-0.016660059819021824,-0.0005080802587989019,0.9993964821619015,-0.0445188544690609,-0.1277107149362564,0.0008983628358692087,0.17265835404396057
1676104301.5802429,1174,1676104301,571577216,,0,-0.027600969443587923,-0.016436937037183186,-0.00045392155846242266,0.9994837682851675,-0.010871300473809242,-0.1084514707326889,0.0063970028422773014,0.18315787613391876
1676104301.705823,1175,1676104301,691580544,,0,-0.027664904237145422,-0.012346034187447735,-0.00034168450087791686,0.9995409615585968,-0.048279862850904465,-0.02580387145280838,0.010048323310911659,0.16518615186214447
1676104301.8330426,1176,1676104301,821583360,,0,-0.03176066319408274,-0.012486357509753201,-0.000396770431881663,0.9994174291456114,-0.09659849107265472,-0.03343353047966957,0.012493775226175789,0.1730348914861679
1676104301.954765,1177,1676104301,951586176,,0,-0.026078232782847672,-0.009251505227023095,-0.00024137500142194917,0.9996170787670074,0.012986593879759312,-0.0009829906048253166,0.011304901912808418,0.17632441222667694
1676104302.0802088,1178,1676104302,71588992,,0,-0.028971376198553164,-0.006826262952595389,-0.00019783730691023092,0.9995569352141824,-0.04810764640569687,-0.014350332319736479,0.007638108916580679,0.1824837327003479
1676104302.2076952,1179,1676104302,182594624,,0,-0.0223912133042245,-0.005809240400236785,-0.0001301073213532049,0.9997323925445333,0.08375918120145798,0.023678578436374664,0.004366379696875808,0.17683129012584686
1676104302.6879437,1180,1676104302,182605376,,0,-0.0223912133042245,-0.005809240400236785,-0.0001301073213532049,0.9997323925445333,-3.17004132270813,-1.9946238994598389,0.19895967841148401,0.17683129012584686
1676104302.8141694,1181,1676104302,182610752,,0,-0.0223912133042245,-0.005809240400236785,-0.0001301073213532049,0.9997323925445333,-3.54044508934021,-5.58857536315918,0.0074564758688218285,0.17683129012584686
1676104302.936761,1182,1676104302,182613568,,0,-0.0223912133042245,-0.005809240400236785,-0.0001301073213532049,0.9997323925445333,-5.717416763305664,-0.8454912304878236,-0.8229258060455321,0.17683129012584686
1676104303.0648782,1183,1676104302,182616384,,0,-0.0223912133042245,-0.005809240400236785,-0.0001301073213532049,0.9997323925445333,0.18343216180801392,0.4836330115795135,-0.6694583296775819,0.17683129012584686
1676104303.1887288,1184,1676104302,182619456,,0,-0.0223912133042245,-0.005809240400236785,-0.0001301073213532049,0.9997323925445333,0.9828334450721741,1.2191400527954102,0.01022001262754187,0.17683129012584686
1676104303.3127384,1185,1676104302,182625088,,0,-0.0223912133042245,-0.005809240400236785,-0.0001301073213532049,0.9997323925445333,1.961431622505188,1.4419362545013428,0.7918320894241331,0.17683129012584686
1676104303.4377677,1186,1676104302,182627648,,0,-0.0223912133042245,-0.005809240400236785,-0.0001301073213532049,0.9997323925445333,5.234748363494873,-0.4389968216419219,0.8689074516296387,0.17683129012584686
1676104303.5618095,1187,1676104302,182630208,,0,-0.0223912133042245,-0.005809240400236785,-0.0001301073213532049,0.9997323925445333,5.308454990386963,-0.6752262115478516,0.38410711288452154,0.17683129012584686
1676104303.6872046,1188,1676104302,182633024,,0,-0.0223912133042245,-0.005809240400236785,-0.0001301073213532049,0.9997323925445333,1.6672970056533813,-1.4288135766983032,0.365106374025345,0.17683129012584686
1676104303.8144531,1189,1676104302,182638656,,0,-0.0223912133042245,-0.005809240400236785,-0.0001301073213532049,0.9997323925445333,-0.28625866770744324,0.7463956475257874,0.2736585736274718,0.17683129012584686
1676104303.9368107,1190,1676104302,182641216,,0,-0.0223912133042245,-0.005809240400236785,-0.0001301073213532049,0.9997323925445333,-3.181802988052368,1.460181713104248,-0.34574508666992204,0.17683129012584686
1676104304.0651853,1191,1676104302,182643776,,0,-0.0223912133042245,-0.005809240400236785,-0.0001301073213532049,0.9997323925445333,-4.216257572174072,5.803095817565918,-0.37501230835914684,0.17683129012584686
1676104304.1885233,1192,1676104302,182646592,,0,-0.0223912133042245,-0.005809240400236785,-0.0001301073213532049,0.9997323925445333,-3.578550100326538,4.102307319641113,0.38946351408958385,0.17683129012584686
1676104304.3136199,1193,1676104302,182652224,,0,-0.0223912133042245,-0.005809240400236785,-0.0001301073213532049,0.9997323925445333,0.6160857677459717,-0.2678624093532561,0.8844964504241943,0.17683129012584686
1676104304.4395607,1194,1676104302,182654784,,0,-0.0223912133042245,-0.005809240400236785,-0.0001301073213532049,0.9997323925445333,2.0161757469177246,-3.5673484802246094,-0.5702438950538631,0.17683129012584686
1676104304.5619483,1195,1676104302,182656832,,0,-0.0223912133042245,-0.005809240400236785,-0.0001301073213532049,0.9997323925445333,1.846305251121521,-5.15140438079834,-0.8453962206840508,0.17683129012584686
1676104304.6910787,1196,1676104302,182659392,,0,-0.0223912133042245,-0.005809240400236785,-0.0001301073213532049,0.9997323925445333,0.14279109239578247,-1.2531894445419312,-0.6175044178962706,0.17683129012584686
1676104304.8132696,1197,1676104304,795665024,,0,0.1126499748691835,-0.10080105354029886,0.011488008645462837,0.9884417575906469,1.0559756755828857,1.3658597469329834,-0.3253035545349123,0.1970556676387787
1676104304.9381373,1198,1676104304,927667840,,0,0.08356210148862377,-0.033824595024205734,0.0028380001913295037,0.9959242983410285,-0.08564414083957672,0.9329534769058228,-0.2735942602157594,0.20250855386257172
1676104305.066712,1199,1676104305,55670656,,0,0.011438825964022323,-0.011611427732199349,0.00013284686650626889,0.9998671360192226,-0.7722703218460083,0.36800938844680786,-0.16775581240653997,0.17982956767082214
1676104305.1875608,1200,1676104305,178673472,,0,-0.049368583245601234,-0.029927661849485015,-0.0014799444386116268,0.9983310519783946,-0.8450721502304077,-0.19548039138317108,-0.09342714399099347,0.17516693472862244
1676104305.314836,1201,1676104305,308679104,,0,-0.08075317735441079,-0.01921591254280675,-0.001557115318235063,0.9965476923773531,-0.5113126039505005,-0.008140387013554578,-0.04239783436059952,0.17100846767425537
1676104305.4378345,1202,1676104305,428681664,,0,-0.09259586226680498,-0.014842007434755318,-0.0013803935824288607,0.9955921811747626,-0.22720861434936523,0.11795968562364578,-0.007673389744013563,0.1727689504623413
1676104305.5617983,1203,1676104305,555683712,,0,-0.08653959984599041,-0.006462457941694417,-0.0005613538753166535,0.9962272920349733,0.01826387830078602,0.14894437789916992,0.009605282917618732,0.17609740793704987
1676104305.6887205,1204,1676104305,678686528,,0,-0.06537681900334424,0.006525962705688103,0.0004275797781429499,0.9978392404031209,0.26797807216644287,0.17921128869056702,0.014816829003393628,0.17686118185520172
1676104305.814321,1205,1676104305,795691904,,0,-0.049898154445873574,0.020528902777754397,0.001025854292755064,0.9985427977453133,0.22515252232551575,0.17597007751464844,0.01540659088641403,0.17739804089069366
1676104305.9390182,1206,1676104305,926694720,,0,-0.03319007553696323,0.020722629449845705,0.0006883001830313097,0.9992339639140435,0.20672981441020966,0.05799511447548866,0.005010676104575389,0.1745050698518753
1676104306.0658238,1207,1676104306,55697536,,0,-0.020912771993452435,0.01084122738875396,0.00022679219183704863,0.9997225301819818,0.15153415501117706,-0.09726012498140335,-0.002133630681782949,0.17913080751895905
1676104306.1868274,1208,1676104306,179700352,,0,-0.019132897739219477,-0.0008193097103605374,-1.5678627646119646e-05,0.9998166440947065,0.05255962535738945,-0.17584700882434845,-0.0015814580256119156,0.18244074285030365
1676104306.3138845,1209,1676104306,309705984,,0,-0.018125352959419763,-0.0018573398325237912,-3.367533196029964e-05,0.9998339664494446,0.05173882469534874,-0.08626712113618851,0.0017144270241260635,0.171905517578125
1676104306.437283,1210,1676104306,426708288,,0,-0.0222582294604605,-0.0031748516340633524,-7.068026495283503e-05,0.9997472282352091,-0.019385742023587227,-0.012783789075911045,0.001041395822539927,0.17133769392967224
1676104306.5651352,1211,1676104306,555710848,,0,-0.026980269512845444,-0.008680466137627595,-0.00023429433087212797,0.9995982812725716,-0.04191483557224274,-0.0643281415104866,-0.0023348205722868364,0.17946913838386536
1676104306.6898425,1212,1676104306,677713408,,0,-0.03353943076427003,-0.006548773370355728,-0.00021975366813587025,0.999415911859065,-0.09848960489034653,0.005810336209833622,-0.0032353606075048455,0.17740744352340698
1676104306.8118935,1213,1676104306,808718272,,0,-0.037302869064688535,-0.0025356070899760835,-9.466182175553318e-05,0.9993007666689332,-0.04539221152663231,0.09100265800952911,0.0011495487997308263,0.17608928680419922
1676104306.9379172,1214,1676104306,926720832,,0,-0.04235948726416565,-0.00268649017346705,-0.00011388078467650189,0.999098798970869,-0.08778492361307144,0.012456842698156834,0.00020289645181037334,0.17778368294239044
1676104307.0661867,1215,1676104307,57723648,,0,-0.03890000544976264,-0.0011741848577332462,-4.568718378589527e-05,0.9992424354305941,0.0405699647963047,0.02216392755508423,0.00738074956461787,0.17805972695350647
1676104307.188156,1216,1676104307,179726464,,0,-0.03239741448866278,0.0004723779268429916,1.529930600935812e-05,0.9994749595938288,0.13570700585842133,0.09117287397384644,0.012519295327365388,0.16951106488704681
1676104307.3143902,1217,1676104307,310731840,,0,-0.028484103312028556,-0.0018727412129319818,-5.3357910214845327e-05,0.9995925071543257,0.11663587391376495,0.013384786434471609,0.010927365161478518,0.17413312196731567
1676104307.4394546,1218,1676104307,426734656,,0,-0.03170641690732667,-0.009384192067213994,-0.0002976831910325232,0.9994531275263001,-0.006762826349586248,-0.09677102416753769,0.006686128210276377,0.18437044322490692
1676104307.5617306,1219,1676104307,555737216,,0,-0.03502563269279642,-0.004829062096010798,-0.00016921959677133525,0.9993747343880699,-0.0701807513833046,0.028676677495241165,0.0069192540831863845,0.1691773682832718
1676104307.688133,1220,1676104307,677739776,,0,-0.03457864429091413,-0.005084311313126866,-0.00017592094568453915,0.999389022169715,-0.08056480437517166,-0.007493410725146531,0.00363658624701202,0.18025735020637512
1676104307.8123784,1221,1676104307,808745152,,0,-0.02816455117497502,-0.00022714385460444387,-6.406320973733319e-06,0.9996032967475444,0.06177151948213577,0.0585593655705452,0.0058471476659178664,0.17800968885421753
1676104307.9383726,1222,1676104307,926747968,,0,-0.033997767205113875,-0.007232021199921893,-0.0002460111547581812,0.9993957235186283,-0.027290737256407738,-0.034304920583963394,0.002201757859438662,0.17502474784851074
1676104308.062278,1223,1676104308,57750784,,0,-0.032193648964091784,-0.014715935674147114,-0.0004740677520506064,0.9993731749546749,0.006483418866991997,-0.12860795855522156,0.0004165451973676839,0.18336418271064758
1676104308.1872869,1224,1676104308,179753600,,0,-0.028552425987642748,-0.005531590791681681,-0.00015800853506741345,0.9995769549672251,0.053641363978385925,0.04975777491927147,0.004045166540890926,0.16775169968605042
1676104308.3123152,1225,1676104308,306758720,,0,-0.031065265876888792,-0.0019655195973946192,-6.107078349234294e-05,0.9995154205683991,-0.028046634048223495,0.0626341924071312,0.0042489059269428175,0.17670951783657074
1676104308.438092,1226,1676104308,426761536,,0,-0.02668141411258879,-0.002826653469457078,-7.544285883460597e-05,0.9996399645057489,0.017833776772022247,-0.0229007750749588,9.149803372565937e-05,0.18172593414783478
1676104308.5653555,1227,1676104308,556764352,,0,-0.02898957310039774,-0.0016277600217843786,-4.724661718079694e-05,0.9995783879600745,0.02749163657426834,0.0374956950545311,-0.0010800895979628012,0.17636922001838684
1676104308.6877577,1228,1676104308,679767168,,0,-0.03561777615803924,0.0021017197725354854,7.489494980377154e-05,0.9993632704452748,-0.07294759899377823,0.08955103158950806,0.00028268952155484654,0.17605386674404144
1676104308.81244,1229,1676104308,801772800,,0,-0.03339416638252117,0.002093798799193468,6.99216216794967e-05,0.9994400620032617,-0.00943948794156313,0.08006172627210617,0.0012908945791423223,0.17578651010990143
1676104308.9370425,1230,1676104308,930775360,,0,-0.025875551222536812,0.006677307428879165,0.00017284422574309461,0.9996428726382961,0.08130478113889694,0.058530133217573166,0.0034214977640658543,0.17435431480407715
1676104309.0657747,1231,1676104309,57778176,,0,-0.029167739682854434,0.002140040477455,6.241948264456192e-05,0.9995722345201918,-0.02558755688369274,-0.050628796219825745,0.00042061597923748813,0.17893317341804504
1676104309.1893165,1232,1676104309,185780736,,0,-0.02452377798442494,-0.00618598317654157,-0.00015172865463928357,0.9996800883055312,0.027211204171180725,-0.1796710193157196,-0.0009614199516363222,0.1809186190366745
1676104309.3120089,1233,1676104309,305784832,,0,-0.033721827836646005,-0.01080451583733982,-0.0003645702396193144,0.9993727534861898,-0.12112680077552795,-0.11278999596834183,-0.0031466502696275572,0.18104755878448486
1676104309.4379451,1234,1676104309,428787136,,0,-0.03069938381660966,-0.0076241054290846445,-0.00023416789032659397,0.9994995312065106,-0.026608841493725777,-0.0025095364544540644,-0.0006726920837536451,0.1750156134366989
1676104309.5624907,1235,1676104309,559789440,,0,-0.03530436165580011,-0.013549599349860064,-0.0004787039053868071,0.999284666572802,-0.03485687077045441,-0.07343828678131104,-0.002306645968928924,0.17880606651306152
1676104309.6887755,1236,1676104309,681791232,,0,-0.034023890348656535,-0.013376942150757156,-0.000455438845008775,0.9993313652809521,-0.030328556895256042,-0.06061477214097977,-0.0014069793978705929,0.17918328940868378
1676104309.8123522,1237,1676104309,796796352,,0,-0.03817034998871893,-0.016155583774315186,-0.0006171984495936378,0.9991404400571978,-0.06612802296876907,-0.07085671275854111,-0.0009888634085655126,0.18192878365516663
1676104309.9391122,1238,1676104309,936798912,,0,-0.03380850414769768,-0.0051797278268884825,-0.00017524659610835319,0.9994149003347007,0.046137820929288864,0.052442099899053574,0.004321209155023092,0.17071431875228882
1676104310.062305,1239,1676104310,55801472,,0,-0.032645161566743915,-0.004454438515932701,-0.00014549092105971086,0.9994570471832116,-0.0008397551719099283,-0.01590590924024582,0.00517906714230776,0.18076154589653015
1676104310.1893048,1240,1676104310,178804032,,0,-0.03636537563983646,-0.008612260682935826,-0.00031344611237561656,0.9993013988716609,-0.049642108380794525,-0.03371244668960571,0.0052478238940239,0.1852485090494156
1676104310.3137589,1241,1676104310,307809152,,0,-0.029117031755739764,-0.002345400996824449,-6.832004143625126e-05,0.9995732460445561,0.0744573101401329,0.08158987015485764,0.012295393273234357,0.17198507487773895
1676104310.4371638,1242,1676104310,428811712,,0,-0.02945451474265665,-0.006492898503031426,-0.00019130454539102506,0.9995450076560538,0.022532492876052856,-0.004834887105971573,0.011899100616574287,0.17656269669532776
1676104310.5649757,1243,1676104310,558814272,,0,-0.030183806687131956,-0.001508500245566739,-4.5560743240382465e-05,0.9995432374884164,0.05013260990381241,0.11771603673696518,0.01728822290897368,0.1763603836297989
1676104310.6867924,1244,1676104310,680815808,,0,-0.030302663434110706,0.003544106100767748,0.00010743231685419007,0.9995344709439261,0.014807355590164661,0.1266377568244934,0.019705317914485918,0.16976869106292725
1676104310.8136342,1245,1676104310,795820672,,0,-0.02675046777260684,0.004077209733780902,0.0001090760439461183,0.9996338110658664,0.06517963111400604,0.08947043120861053,0.02251770719885825,0.1784789115190506
1676104310.9387753,1246,1676104310,936822976,,0,-0.03389626705718752,-0.008162723713807649,-0.0002768626478681516,0.9993920145959593,-0.059582002460956573,-0.07610899209976196,0.022068001329898845,0.18196339905261993
1676104311.061901,1247,1676104311,55825024,,0,-0.035056904337302484,0.0013640050438030837,4.7878819908320726e-05,0.9993843860163789,-0.025426940992474556,0.12100521475076675,0.03559492528438567,0.16382119059562683
1676104311.1891665,1248,1676104311,177827584,,0,-0.036683027217439955,-0.0005189976096522254,-1.9050375527015888e-05,0.9993268134213129,-0.004472511820495129,0.02070690877735615,0.034561507403850555,0.1776898354291916
1676104311.3132474,1249,1676104311,308832960,,0,-0.026775375242987762,0.001387270104181097,3.713137353804514e-05,0.9996405124147796,0.10204430669546127,-0.010879056528210636,0.03452656790614128,0.18040484189987183
1676104311.4389036,1250,1676104311,427835520,,0,-0.027278781152868928,-0.0012589843169371676,-3.439182838494899e-05,0.9996270675701046,0.10449734330177307,0.02506857924163342,0.03343954682350159,0.17511166632175446
1676104311.5640724,1251,1676104311,558838080,,0,-0.037181729802445114,-0.011030476946007867,-0.00041042601079918737,0.9992475773461125,-0.06192048639059067,-0.10534626990556717,0.03167490288615228,0.17813722789287567
1676104311.6890464,1252,1676104311,677840640,,0,-0.030107325962152875,-0.008923008079917633,-0.0002687704529540366,0.999506822611303,0.02660677768290043,-0.0602295733988285,0.03291722014546395,0.18452341854572296
1676104311.8142617,1253,1676104311,810846016,,0,-0.005353732572690731,1.1759464642982117e-05,0.00219644086329684,-0.9999832927337187,0.25598281621932983,0.03997269645333291,0.050901427865028374,0.19292929768562317
1676104311.939332,1254,1676104311,935848832,,0,0.0010931076567245763,4.864997553334861e-07,-0.00044507072027496016,-0.9999993085361528,-0.016505051404237747,0.007068341597914703,0.05761019140481949,0.17575757205486298
1676104312.0663426,1255,1676104312,60851648,,0,0.020767461184315765,6.412050310881469e-05,-0.0030868773317863233,-0.9997795970148655,-0.1450754553079605,0.0128083173185587,0.05657850578427315,0.15252524614334106
1676104312.1892467,1256,1676104312,185854208,,0,0.009837653632337498,5.6415861637669343e-05,-0.005734331620998132,-0.9999351610327192,0.026553763076663017,-0.012390985153615468,0.05377392843365669,0.20606060326099396
1676104312.312383,1257,1676104312,305859840,,0,0.0469847351033118,0.0003883858432059809,-0.008256778357526598,-0.9988613857732072,-0.41419684886932373,0.013209777884185321,0.05378546938300133,0.13636364042758942
1676104312.436995,1258,1676104312,430862656,,0,0.054624947213972624,0.0005960064873267057,-0.010893906668853278,-0.9984473351334361,-0.1754322201013565,0.015022649429738529,0.05242966115474701,0.1626262664794922
1676104312.567283,1259,1676104312,555865472,,0,0.07425610631337684,0.0010063271310045087,-0.013513459744350843,-0.9971471470037235,-0.2561274468898773,-0.01054373197257518,0.05009841546416283,0.17373737692832947
1676104312.6888754,1260,1676104312,686868288,,0,0.07207298912256561,0.001174793352858617,-0.016255491561621115,-0.9972662118507668,-0.06501789391040802,1.4917620319471568e-05,0.048397526144981384,0.1646464616060257
1676104312.812453,1261,1676104312,806873920,,0,0.07533960168982672,0.0014191976590172252,-0.018780424962211738,-0.9969800347493778,-0.06494246423244476,-0.009392138570547099,0.04642411693930626,0.16767676174640656
1676104312.9369454,1262,1676104312,931876480,,0,0.07533558983668408,0.0016182598587122122,-0.021414645140991118,-0.9969269718671027,-0.025867147371172905,-0.014365755952894682,0.04571785777807236,0.16565656661987305
1676104313.0661683,1263,1676104313,56879296,,0,0.075331045879579,0.0018174326938845383,-0.024050382606316926,-0.9968668283142775,-0.004113767761737108,-0.015424399636685843,0.041706621646881104,0.16565656661987305
1676104313.192063,1264,1676104313,186881856,,0,0.07096664488586678,0.0019071844077884936,-0.026796924136377808,-0.9971168434196442,0.03154722973704338,-0.019837323576211922,0.04688604176044464,0.1666666716337204
1676104313.3132792,1265,1676104313,306887232,,0,0.07205140730195002,0.0021192331051808934,-0.02932362770460591,-0.9969675592822187,-0.02972595952451229,-0.0021675457246601512,0.055565740913152695,0.1666666716337204
1676104313.4384952,1266,1676104313,432889792,,0,0.059543157797118,0.051138112094886036,-0.031942042815193715,-0.9964031286869607,0.08791329711675644,-0.5639436841011047,0.036692798137664864,0.19494949281215668
1676104313.5679011,1267,1676104313,557892352,,0,0.05380452727988976,0.055383827480873525,-0.034579213273368894,-0.9964145504829072,0.09622141718864441,-0.1535942405462265,0.03718150034546854,0.19494949281215668
1676104313.6877847,1268,1676104313,682894144,,0,0.04477121554674504,0.0016721248481981526,-0.03728474591982868,-0.998299821163648,0.11929002404212952,0.47215068340301514,0.047949120402336065,0.21313130855560303
1676104313.8121624,1269,1676104313,807899008,,0,0.039310312922550286,0.0015721933532898108,-0.039931568006312874,-0.998427610408333,0.06636139005422592,0.06190945953130723,0.046909607946872704,0.20606060326099396
1676104313.9388435,1270,1676104313,932901568,,0,0.049125389344248295,0.0020947800305104775,-0.042551247522355985,-0.9978835788877545,-0.026798317208886147,0.03640523925423623,0.04476543515920638,0.17373737692832947
1676104314.065327,1271,1676104314,57904128,,0,0.04802898649544197,0.0021752014858253317,-0.04519069391035072,-0.9978207379366247,-0.00430856179445982,0.03012901730835438,0.03535130992531776,0.17474748194217682
1676104314.1887925,1272,1676104314,183906688,,0,0.04366025227886722,0.002093023033763186,-0.04783814819956251,-0.9978982459910362,0.005761731415987015,0.04354727640748024,0.01336751133203506,0.17474748194217682
1676104314.3129325,1273,1676104314,308911808,,0,0.02471497189433855,-0.012628640001969796,-0.050509246870788956,-0.9983377533273078,0.15537256002426147,0.07386922091245651,0.00021962827304377247,0.18080808222293854
1676104314.4381366,1274,1676104314,433914368,,0,0.0032746810545729657,0.0001743325363312814,-0.05316091584485186,-0.998580561321579,0.32648786902427673,-0.09093715250492096,-0.011661947704851617,0.1797979772090912
1676104314.5621998,1275,1676104314,558916928,,0,0.001091404701785968,6.099385726201122e-05,-0.05579859206520915,-0.9984414345746446,0.1518058180809021,-0.040205106139183044,-0.016219053417444226,0.1797979772090912
1676104314.6882834,1276,1676104314,683919488,,0,0.006547393719611508,0.00038326368402289524,-0.058435509642293215,-0.9982696018732656,0.03404250741004944,0.06634470820426941,-0.01068973634392024,0.1797979772090912
1676104314.8123152,1277,1676104314,808924608,,0,0.0065463578291004515,0.00040056628242563316,-0.06107364947798409,-0.9981117197787439,0.055013127624988556,-5.32553567609282e-05,0.001733760116621852,0.1797979772090912
1676104314.9381416,1278,1676104314,933927168,,0,0.00545440953998224,0.0003482190733944681,-0.06371111496409886,-0.997953416215737,0.01741206832230091,-0.04534933343529701,0.012314235791563993,0.1797979772090912
1676104315.0661597,1279,1676104315,59929984,,0,0.014178613405015831,0.0009428026106754931,-0.06634149977966375,-0.9976957303839413,-0.10620675981044769,-0.05547061562538147,0.014616697095334537,0.17171716690063477
1676104315.1877964,1280,1676104315,184932288,,0,0.01962780579076964,0.0013572378404391764,-0.06897066233662183,-0.9974246840011678,-0.08002153784036636,-0.045960456132888794,0.012777525931596761,0.16969697177410126
1676104315.3142893,1281,1676104315,309937664,,0,0.02289430969818692,0.0016439332163559275,-0.0716021008233995,-0.9971691476586463,-0.03425523266196251,-0.03581082820892334,0.012813814915716653,0.16969697177410126
1676104315.4372177,1282,1676104315,434940224,,0,0.0218000695095448,0.0016232838947636229,-0.07423897625363504,-0.9970008974393908,0.04798359423875809,-0.024699095636606216,0.011805376969277862,0.16969697177410126
1676104315.5651522,1283,1676104315,559942528,,0,0.007208596771772962,0.06280252900896932,-0.07673668279008766,-0.9950453679621823,0.12921284139156342,-0.9381300210952759,0.000419692281866561,0.16969697177410126
1676104315.6889415,1284,1676104315,684945344,,0,0.002978353148137949,0.03138297145514195,-0.07948491019408904,-0.9963375060438293,0.1326175481081009,0.2784007489681244,0.007068770471960272,0.1707070767879486
1676104315.814249,1285,1676104315,809950720,,0,0.005447036146398613,0.0004490366399383059,-0.0821569782428312,-0.9966044220354487,0.06362945586442947,0.30229416489601135,0.015124490484595262,0.1707070767879486
1676104315.9369793,1286,1676104315,930953536,,0,0.006535040412458516,0.0005554312552841201,-0.0846856205660908,-0.9963861013601624,0.007472526282072067,0.11465799808502197,0.022379759699106203,0.16969697177410126
1676104316.0648043,1287,1676104316,60956096,,0,0.009457037873463208,-0.007733693573703734,-0.08742588221572356,-0.9960960888955589,-0.032621901482343674,0.15745407342910767,0.033717885613441446,0.1666666716337204
1676104316.1873424,1288,1676104316,180958912,,0,0.014152322332623639,0.0012781841820674077,-0.08994099540061119,-0.9958456944685556,-0.04619704186916351,0.03708521276712418,0.040839634835720055,0.13535353541374207
1676104316.3145268,1289,1676104316,310963520,,0,0.021766321079144214,0.002026164961134753,-0.09266435616399112,-0.9954574377000733,-0.011391201987862587,0.13082003593444824,0.036251883953809724,0.07979798316955566
1676104316.4389915,1290,1676104316,435965824,,0,0.01958509588670442,0.0018753418051940104,-0.09529912425180112,-0.9952542898902508,0.12975212931632996,0.1850765496492386,0.029500743374228453,0.057575758546590805
1676104316.5671952,1291,1676104316,560968384,,0,-0.005328001757038698,-0.0005243930648060003,-0.09794742147798319,-0.9951772033043244,0.8268989324569702,0.15144436061382294,0.04374627023935316,0.057575758546590805
1676104316.687423,1292,1676104316,680970944,,0,-0.0053266553627921275,-0.0005378988248479633,-0.10047003680190572,-0.9949257130592599,0.9222906827926636,-0.018332939594984048,0.061173465102910995,0.057575758546590805
1676104316.814599,1293,1676104316,806975808,,0,-0.005325215455225423,-0.000551970274622284,-0.10309839856874209,-0.9946568161657604,0.7948436737060547,-0.09630742669105528,0.07897593826055528,0.057575758546590805
1676104316.9379964,1294,1676104316,931977856,,0,-0.00532792602442028,-0.0005251635618803403,-0.09809131081879939,-0.9951630419632247,0.8526288866996765,-0.04368843138217926,-0.0010322971502318924,0.057575758546590805
1676104317.0617452,1295,1676104317,56980416,,0,-0.005327956976012155,-0.0005248487776055242,-0.09803251596512666,-0.9951688160814708,0.8596239686012268,-0.07099951803684235,-0.0015617815079167399,0.057575758546590805
1676104317.1869135,1296,1676104317,181982976,,0,-0.005328002250947079,-0.0005243879610860635,-0.09794645210046743,-0.9951773297448698,0.8539394736289978,-0.07236088067293167,-0.0015269671566784293,0.057575758546590805
1676104317.314345,1297,1676104317,311988352,,0,-0.005328034684264097,-0.0005240578656514372,-0.097884791261096,-0.995183356744207,0.8593536019325256,-0.06875161826610565,-0.0014262198237702166,0.057575758546590805
1676104317.4379127,1298,1676104317,431991168,,0,-0.005328020031648794,-0.000524207519890876,-0.09791273462165868,-0.9951806171990538,0.8617841601371765,-0.0745871365070343,-0.0015997993759810833,0.057575758546590805
1676104317.5619364,1299,1676104317,557993472,,0,-0.005328044068523335,-0.0005239608949726364,-0.0978667102630848,-0.9951851690586929,0.8625149726867676,-0.0671304389834404,-0.0012688625138252891,0.057575758546590805
1676104317.6883576,1300,1676104317,682996032,,0,-0.009590414292071895,-0.0009427522320204989,-0.09782544849839264,-0.9951569728170392,0.9352580308914185,-0.07626541703939438,-0.0016348150093108322,0.10000000149011612
1676104317.8118908,1301,1676104317,808000384,,0,-0.009590384657569034,-0.0009430545039496632,-0.09785676360683626,-0.9951538960970978,0.9364448189735413,-0.06820860505104065,-0.0014222190948203121,0.10000000149011612
1676104317.9381855,1302,1676104317,933003456,,0,-0.009590422523878244,-0.0009426695846847472,-0.09781685054129644,-0.9951578157540094,0.9314313530921936,-0.0725475400686264,-0.0013744789175689132,0.10000000149011612
1676104318.0618637,1303,1676104318,58006272,,0,-0.009590463682909993,-0.0009422464698383685,-0.09777293352514807,-0.9951621147325574,0.9354970455169678,-0.07012301683425903,-0.0014672505203634414,0.10000000149011612
1676104318.1890543,1304,1676104318,183009088,,0,-0.009590478170889169,-0.0009420969802350563,-0.09775742348489605,-0.9951636320191038,0.934771716594696,-0.07127086818218231,-0.001322642667219034,0.10000000149011612
1676104318.3145094,1305,1676104318,308014464,,0,-0.009590514061564854,-0.0009417364271169358,-0.09771999708341837,-0.9951673409417728,0.9418681263923645,-0.0697229728102684,-0.0012939010048285042,0.10000000149011612
1676104318.438146,1306,1676104318,434017280,,0,-0.009590548964423776,-0.0009413788374491008,-0.0976829078567288,-0.9951709655707448,0.9433484673500061,-0.06712234020233154,-0.00148497649934142,0.10000000149011612
1676104318.5622916,1307,1676104318,559020096,,0,-0.009590594733267082,-0.0009409089659426551,-0.0976341439530017,-0.9951757281646264,0.9417113661766052,-0.0677923858165741,-0.0013141827657818712,0.10000000149011612
1676104318.6890178,1308,1676104318,684022400,,0,-0.009590588147822002,-0.0009409794302050092,-0.09764143535779406,-0.9951750116682018,0.9400157332420349,-0.06607472896575928,-0.0012103145709261218,0.10000000149011612
1676104318.8168762,1309,1676104318,809028032,,0,-0.009590687588042707,-0.000939966588751732,-0.09753636326445644,-0.9951853376460871,0.9377467036247253,-0.06328185647726059,-0.00123275211080908,0.10000000149011612
1676104318.9373388,1310,1676104318,934030848,,0,-0.009590734673975029,-0.0009394848634441427,-0.09748641924897099,-0.9951901845336658,0.9404638409614563,-0.0630214661359787,-0.0013917667092755359,0.10000000149011612
1676104319.064387,1311,1676104319,59033664,,0,-0.009590731710524741,-0.000939515485763764,-0.09748958026260932,-0.9951898895057262,0.9418508410453796,-0.07194752991199493,-0.0013224732829257757,0.10000000149011612
1676104319.1890523,1312,1676104319,184036480,,0,-0.009590684295320166,-0.0009400021501551628,-0.09754007218712536,-0.9951850004712989,0.9355220794677734,-0.060894910246133804,-0.0012874667299911306,0.10000000149011612
1676104319.3130212,1313,1676104319,310041856,,0,-0.009590817650583033,-0.0009386366581178605,-0.09739841662928025,-0.9951987824907619,0.9347767233848572,-0.05617382749915123,-0.0008491462795063785,0.10000000149011612
1676104319.4389367,1314,1676104319,435044672,,0,-0.009590855846164497,-0.0009382500924916755,-0.09735829282949787,-0.9952027442945219,0.9367192387580872,-0.05498724430799484,-0.0010474938899278574,0.10000000149011612
1676104319.5638053,1315,1676104319,560046976,,0,-0.009590734673975029,-0.0009394835463551267,-0.09748625066157694,-0.9951901845336658,0.9342582821846008,-0.05661579966545105,-0.001093091443181031,0.10000000149011612
1676104319.6891649,1316,1676104319,685049536,,0,-0.009590733356886013,-0.0009395019856013503,-0.09748818941660846,-0.9951900159462717,0.9404118061065674,-0.06320182234048843,-0.001206826185807578,0.10000000149011612
1676104319.81388,1317,1676104319,810054144,,0,-0.009590741259420107,-0.0009394216431713761,-0.09747984434060332,-0.9951908588832419,0.9384073615074158,-0.06624776870012283,-0.0013097579358145514,0.10000000149011612
1676104319.9380767,1318,1676104319,935056448,,0,-0.009590744552142648,-0.0009393808134118814,-0.09747562965575221,-0.99519119605803,0.9408601522445679,-0.06747031211853027,-0.0013898743782192386,0.10000000149011612
1676104320.0665565,1319,1676104320,61059008,,0,-0.009590720185995851,-0.0009396350115919624,-0.09750201358292003,-0.9951886672471194,0.9391713738441467,-0.0582922026515007,-0.0010673152282833981,0.10000000149011612
1676104320.1894886,1320,1676104320,186061568,,0,-0.00959077945500157,-0.0009390291506446187,-0.09743913048494178,-0.9951948206870019,0.929473876953125,-0.062455613166093826,-0.000995248788967721,0.10000000149011612
1676104320.313933,1321,1676104320,311066176,,0,-0.009590795589342015,-0.0009388641852453694,-0.09742201886444635,-0.9951965065609424,0.935955822467804,-0.06190628185868263,-0.001229783054441206,0.10000000149011612
1676104320.4369228,1322,1676104320,431068736,,0,-0.009590819626216558,-0.0009386195359606534,-0.09739660431479427,-0.9951989932250045,0.9381824135780334,-0.06317967921495438,-0.001262031262740485,0.10000000149011612
1676104320.5657024,1323,1676104320,561071296,,0,-0.0095908479436304,-0.0009383284592881252,-0.09736642717126051,-0.9952019435044003,0.9346669912338257,-0.057181332260370255,-0.0011225261259823968,0.10000000149011612
1676104320.6870875,1324,1676104320,681073856,,0,-0.009590860126703798,-0.0009382036651038625,-0.09735344594191915,-0.9952032079098555,0.9382315278053284,-0.06418414413928986,-0.0013842487242072743,0.10000000149011612
1676104320.8142738,1325,1676104320,811078720,,0,-0.009590859468159291,-0.0009382069578264024,-0.09735378311670724,-0.9952031236161586,0.934830904006958,-0.06488294899463654,-0.0012534408597275535,0.10000000149011612
1676104320.9373662,1326,1676104320,932081024,,0,-0.00959091544444247,-0.0009376359997379811,-0.09729452464770089,-0.9952089398812531,0.9347713589668274,-0.06107853353023529,-0.00121387327089905,0.10000000149011612
1676104321.062472,1327,1676104321,57083072,,0,-0.009590902932096817,-0.0009377644159170382,-0.09730788519867885,-0.9952076333289492,0.9318522214889526,-0.0646514818072319,-0.0013165874406695286,0.10000000149011612
1676104321.187925,1328,1676104321,182085632,,0,-0.009590928944604882,-0.0009374980346635587,-0.09728023686605575,-0.995210330727254,0.9315683841705322,-0.05391259863972664,-0.0010174835333600575,0.10000000149011612
1676104321.3131554,1329,1676104321,307089984,,0,-0.00959094277403955,-0.0009373597403168823,-0.09726590693756204,-0.9952117637201033,0.9303048253059387,-0.06697078049182892,-0.0012594417203217662,0.10000000149011612
1676104321.438869,1330,1676104321,432092544,,0,-0.009590949030212376,-0.0009372909224157983,-0.09725874197331515,-0.9952124380696794,0.9300925731658936,-0.055108651518821716,-0.0010710918577387862,0.10000000149011612
1676104321.561734,1331,1676104321,557095104,,0,-0.009590966481641837,-0.0009371134446708967,-0.09724032380051592,-0.9952142503841656,0.9381231069564819,-0.057755667716264725,-0.0011659825686365294,0.10000000149011612
1676104321.6905465,1332,1676104321,683097408,,0,-0.009590999079594983,-0.000936780550422112,-0.09720576338473695,-0.9952176221320463,0.9377619028091431,-0.05461471527814865,-0.000891246949322515,0.10000000149011612
1676104321.815129,1333,1676104321,808101504,,0,-0.009590917090803739,-0.0009376218410310599,-0.09729309165485157,-0.9952091084686471,0.9265632033348083,-0.057986781001091,-0.0011722570052370357,0.10000000149011612
1676104321.938381,1334,1676104321,933103808,,0,-0.009590943761856312,-0.0009373455816099606,-0.09726443179786415,-0.9952118901606488,0.9317934513092041,-0.07490938901901245,-0.0014771006535738616,0.10000000149011612
1676104322.066282,1335,1676104322,58105344,,0,-0.009590949030212376,-0.0009372909224157983,-0.09725874197331515,-0.9952124380696794,0.9316331744194031,-0.07700127363204956,-0.0015269496943801548,0.10000000149011612
1676104322.1887655,1336,1676104322,183107904,,0,-0.009590948700940122,-0.0009372952029551002,-0.09725920558864877,-0.995212395922831,0.9317329525947571,-0.07820773124694824,-0.0015537927392870092,0.10000000149011612
1676104322.3119893,1337,1676104322,308113024,,0,-0.009590955615657456,-0.0009372237508759837,-0.09725174559646237,-0.9952131124192557,0.9327102303504944,-0.07808077335357666,-0.001535536022856822,0.10000000149011612
1676104322.4379966,1338,1676104322,433115584,,0,-0.009590970432908887,-0.0009370719563668941,-0.09723602482196779,-0.9952146718526506,0.9422779679298401,-0.05906226858496666,-0.0009637661278247761,0.10000000149011612
1676104322.568401,1339,1676104322,559118144,,0,-0.009590962530374789,-0.0009371562500639162,-0.09724479136645804,-0.9952138289156803,0.9392532110214233,-0.05430232360959053,-0.0011167115299031071,0.10000000149011612
1676104322.6867242,1340,1676104322,684120704,,0,-0.009590888773389896,-0.000937912917703588,-0.09732326879838533,-0.9952061581892514,0.939681351184845,-0.06656158715486526,-0.001213304232805959,0.10000000149011612
1676104322.8171475,1341,1676104322,809126336,,0,-0.009590935859322216,-0.0009374285582179667,-0.09727302975496036,-0.9952110472236786,0.9419007301330566,-0.07026028633117676,-0.0013416670262813481,0.10000000149011612
1676104322.9367206,1342,1676104322,934128896,,0,-0.009590947383851106,-0.0009373156178348473,-0.09726131293107433,-0.9952122273354369,0.9518923759460449,-0.07060617953538895,-0.0014985080342739734,0.10000000149011612
1676104323.0652769,1343,1676104323,59130176,,0,-0.009591033982453905,-0.0009364262534768173,-0.09716901133283545,-0.9952212467610182,0.9467405080795288,-0.078075110912323,-0.001633545034565022,0.10000000149011612
1676104323.1900947,1344,1676104323,184132736,,0,-0.009591060653506478,-0.000936149994055718,-0.09714035147584804,-0.99522402845302,0.94111168384552,-0.08301429450511932,-0.0015969510423019426,0.10000000149011612
1676104323.3142679,1345,1676104323,309136576,,0,-0.00959107975129721,-0.0009359590161484028,-0.09712054245704795,-0.9952259672080515,0.9394157528877258,-0.083974190056324,-0.0016762898303568261,0.10000000149011612
1676104323.4367576,1346,1676104323,435138880,,0,-0.009591093251459624,-0.000935813807084393,-0.09710545388528104,-0.9952274002009008,0.9399423599243164,-0.0820787325501442,-0.0016197235090657969,0.10000000149011612
1676104323.5646367,1347,1676104323,560141184,,0,-0.009591102141810482,-0.0009357225986700374,-0.0970960129912146,-0.9952283274315681,0.9417663812637329,-0.08269871026277542,-0.0016383093316107886,0.10000000149011612
1676104323.6883678,1348,1676104323,685143488,,0,-0.009591121568873467,-0.0009355273402234203,-0.09707574035708083,-0.9952303083334482,0.9414719939231873,-0.08124251663684845,-0.001577127375639965,0.10000000149011612
