Time,header.seq,header.stamp.secs,header.stamp.nsecs,header.frame_id,pose.position.x,pose.position.y,pose.position.z,pose.orientation.x,pose.orientation.y,pose.orientation.z,pose.orientation.w
1676104289.096614,4377,1676104289,95613718,world,-0.41223645210266113,0.5218770503997803,0.12514810264110565,0.00416279723867774,-0.004380174446851015,-0.040418241173028946,0.9991646409034729
1676104289.0991008,4378,1676104289,97237586,world,-0.412243127822876,0.5218901038169861,0.12514370679855347,0.0042471433989703655,-0.004453650210052729,-0.040565140545368195,0.9991579651832581
1676104289.1002984,4379,1676104289,98031282,world,-0.4122193455696106,0.5218397378921509,0.12516261637210846,0.004039537161588669,-0.004544170573353767,-0.04011840000748634,0.9991764426231384
1676104289.104707,4380,1676104289,103809833,world,-0.4122356176376343,0.521879255771637,0.12514691054821014,0.004154037218540907,-0.004322516266256571,-0.04041294381022453,0.9991651177406311
1676104289.1071124,4381,1676104289,106209754,world,-0.41222885251045227,0.521876335144043,0.12514591217041016,0.004229692276567221,-0.004456234164535999,-0.04039745777845383,0.999164879322052
1676104289.113983,4382,1676104289,113402843,world,-0.41223686933517456,0.5218758583068848,0.12515033781528473,0.00414028437808156,-0.0044368417002260685,-0.0403866320848465,0.9991657137870789
1676104289.114893,4383,1676104289,114460706,world,-0.4122365415096283,0.5218827724456787,0.12515470385551453,0.004189471714198589,-0.004401141311973333,-0.040464531630277634,0.999162495136261
1676104289.125149,4384,1676104289,124529600,world,-0.4122363030910492,0.5218849778175354,0.12514495849609375,0.004214124754071236,-0.0043958635069429874,-0.040560271590948105,0.9991585612297058
1676104289.126248,4385,1676104289,125379323,world,-0.41223546862602234,0.5218791961669922,0.12514114379882812,0.004136773757636547,-0.004468098748475313,-0.04045733064413071,0.9991627931594849
1676104289.135902,4386,1676104289,134506225,world,-0.41224080324172974,0.5218782424926758,0.12515391409397125,0.004191432613879442,-0.004377007018774748,-0.04044405370950699,0.9991635084152222
1676104289.136031,4387,1676104289,135397672,world,-0.4122332036495209,0.5218791365623474,0.12515051662921906,0.004180909600108862,-0.004407327622175217,-0.040364377200603485,0.9991666078567505
1676104289.1468587,4390,1676104289,146304845,world,-0.4122302234172821,0.5218730568885803,0.12514811754226685,0.004024059511721134,-0.004469160456210375,-0.04042186588048935,0.9991646409034729
1676104289.154717,4391,1676104289,153873920,world,-0.41222822666168213,0.5218722224235535,0.12514625489711761,0.004194210283458233,-0.0044091749005019665,-0.040347252041101456,0.999167263507843
1676104289.1558008,4392,1676104289,155311107,world,-0.41223371028900146,0.5218833088874817,0.12515035271644592,0.004108926746994257,-0.004450575914233923,-0.04044583439826965,0.9991634488105774
1676104289.1567914,4393,1676104289,156133890,world,-0.41224080324172974,0.5218848586082458,0.12513400614261627,0.004262029193341732,-0.0043817744590342045,-0.04045001044869423,0.9991629123687744
1676104289.165036,4394,1676104289,163189411,world,-0.4122404456138611,0.521880567073822,0.12514770030975342,0.004133737646043301,-0.004450034350156784,-0.04047646373510361,0.9991620779037476
1676104289.1662066,4395,1676104289,164787292,world,-0.4122364819049835,0.5218775868415833,0.1251489520072937,0.004084160551428795,-0.004410048946738243,-0.04039229452610016,0.9991658329963684
1676104289.1745825,4396,1676104289,173334360,world,-0.41223254799842834,0.521879255771637,0.12514561414718628,0.004219213500618935,-0.0045208679512143135,-0.04042380303144455,0.9991635680198669
1676104289.1759512,4397,1676104289,174848556,world,-0.41224032640457153,0.5218759179115295,0.125146746635437,0.0042504514567554,-0.004380427300930023,-0.04042501002550125,0.9991639852523804
1676104289.187234,4398,1676104289,183558225,world,-0.4122310280799866,0.5218852758407593,0.1251508891582489,0.0041434005834162235,-0.004482682794332504,-0.04048816114664078,0.999161422252655
1676104289.1881135,4400,1676104289,185756206,world,-0.4122323989868164,0.5218698382377625,0.12515215575695038,0.0042328559793531895,-0.004482520278543234,-0.04032087326049805,0.9991677403450012
1676104289.1937163,4401,1676104289,193085432,world,-0.4122311770915985,0.5218666195869446,0.1251431256532669,0.004155259113758802,-0.0044751474633812904,-0.04032283276319504,0.9991680979728699
1676104289.204409,4402,1676104289,203786134,world,-0.4122413098812103,0.5218955278396606,0.1251433789730072,0.004258876200765371,-0.004554462619125843,-0.04056409001350403,0.9991575479507446
1676104289.207005,4403,1676104289,205363750,world,-0.41223904490470886,0.5218857526779175,0.1251542717218399,0.004184587858617306,-0.0043796063400805,-0.040498036891222,0.9991613030433655
1676104289.209667,4404,1676104289,206842660,world,-0.4122352600097656,0.521869421005249,0.12514559924602509,0.0040977708995342255,-0.004430430009961128,-0.04037563130259514,0.9991663098335266
1676104289.2263355,4405,1676104289,224559068,world,-0.41223081946372986,0.521874189376831,0.12514075636863708,0.004218676593154669,-0.004362503066658974,-0.04037649929523468,0.9991660714149475
1676104289.2282941,4407,1676104289,227629423,world,-0.41222575306892395,0.521871030330658,0.12515099346637726,0.0041761016473174095,-0.004389850422739983,-0.040340665727853775,0.9991676211357117
1676104289.2345061,4408,1676104289,233563423,world,-0.4122292995452881,0.5218762755393982,0.1251506358385086,0.004189278464764357,-0.0044447253458201885,-0.040351029485464096,0.9991669058799744
1676104289.235439,4409,1676104289,234793901,world,-0.4122318923473358,0.5218760371208191,0.1251414567232132,0.00425164308398962,-0.004460273776203394,-0.040449608117341995,0.9991625547409058
1676104289.2441645,4410,1676104289,242959499,world,-0.4122398793697357,0.5218867659568787,0.12515343725681305,0.004192913416773081,-0.0043520196340978146,-0.040448956191539764,0.9991633892059326
1676104289.2455947,4411,1676104289,244018316,world,-0.41223108768463135,0.5218772292137146,0.12514619529247284,0.004200751893222332,-0.00440096715465188,-0.040429335087537766,0.9991639256477356
1676104289.2547228,4412,1676104289,254187822,world,-0.41223427653312683,0.5218832492828369,0.12514728307724,0.004071189556270838,-0.0043949829414486885,-0.04046475142240524,0.9991630911827087
1676104289.2564688,4414,1676104289,255723714,world,-0.41222840547561646,0.5218693614006042,0.12514731287956238,0.0041547478176653385,-0.00444719847291708,-0.04030517861247063,0.9991689324378967
1676104289.267478,4416,1676104289,265149593,world,-0.41224405169487,0.521884024143219,0.12515036761760712,0.004194002132862806,-0.004367094021290541,-0.040512409061193466,0.9991607069969177
1676104289.275329,4418,1676104289,274361371,world,-0.41223105788230896,0.5218781232833862,0.12514843046665192,0.004206817131489515,-0.004434413276612759,-0.04035336896777153,0.9991667866706848
1676104289.2855542,4419,1676104289,283647775,world,-0.41223567724227905,0.521866500377655,0.12515275180339813,0.0041150557808578014,-0.004424382001161575,-0.04032961279153824,0.9991681575775146
1676104289.2873402,4420,1676104289,286032676,world,-0.4122198820114136,0.5218479037284851,0.12515737116336823,0.004117129370570183,-0.004415275529026985,-0.040134891867637634,0.9991760849952698
1676104289.2885916,4421,1676104289,287486553,world,-0.4122321307659149,0.52186518907547,0.12514656782150269,0.004185976926237345,-0.0045160227455198765,-0.04037689045071602,0.9991655349731445
1676104289.2960055,4423,1676104289,295118093,world,-0.41223838925361633,0.5218852162361145,0.12514401972293854,0.0041471244767308235,-0.004345509223639965,-0.04044907167553902,0.9991635084152222
1676104289.30563,4425,1676104289,304166555,world,-0.41222894191741943,0.5218730568885803,0.12514318525791168,0.004214932210743427,-0.004399327095597982,-0.040303174406290054,0.9991689920425415
1676104289.3144557,4426,1676104289,313073396,world,-0.4122377038002014,0.5218891501426697,0.12514187395572662,0.0042471447959542274,-0.004418686497956514,-0.04059716686606407,0.9991568326950073
1676104289.3361795,4427,1676104289,335403680,world,-0.4122433364391327,0.521885871887207,0.12515193223953247,0.004259346518665552,-0.004488648381084204,-0.0405149981379509,0.9991598129272461
1676104289.339208,4428,1676104289,337672948,world,-0.41223475337028503,0.5218782424926758,0.12515100836753845,0.0042078131809830666,-0.004448988474905491,-0.04036013036966324,0.9991664290428162
1676104289.3469787,4429,1676104289,344821453,world,-0.41223466396331787,0.5218713283538818,0.1251516342163086,0.004199511371552944,-0.0043451497331261635,-0.040330931544303894,0.9991680979728699
1676104289.3473992,4430,1676104289,346266031,world,-0.4122403860092163,0.5218838453292847,0.12513937056064606,0.004217672161757946,-0.004400983452796936,-0.040521904826164246,0.9991600513458252
1676104289.3541012,4431,1676104289,353161334,world,-0.4122297465801239,0.5218701362609863,0.1251392960548401,0.004128273576498032,-0.0044213226065039635,-0.04040483385324478,0.9991650581359863
1676104289.3551252,4432,1676104289,354350566,world,-0.4122316539287567,0.5218774080276489,0.12515005469322205,0.004104784689843655,-0.004467676393687725,-0.040332160890102386,0.9991679787635803
1676104289.3874245,4433,1676104289,384681940,world,-0.4122297167778015,0.5218795537948608,0.1251489371061325,0.004082008730620146,-0.004454442765563726,-0.040408458560705185,0.9991650581359863
1676104289.39189,4434,1676104289,387921333,world,-0.41222742199897766,0.5218662023544312,0.1251547485589981,0.004148577805608511,-0.004492498934268951,-0.040300402790308,0.999168872833252
1676104289.393551,4435,1676104289,391534566,world,-0.4122355282306671,0.5218828916549683,0.12514854967594147,0.004291549790650606,-0.004392123781144619,-0.04039866849780083,0.9991648197174072
1676104289.3962543,4436,1676104289,393978834,world,-0.41223272681236267,0.5218824148178101,0.12514883279800415,0.004084629938006401,-0.004452941007912159,-0.04043079912662506,0.9991641044616699
1676104289.3983471,4440,1676104289,397773265,world,-0.4122394323348999,0.5218831300735474,0.12514673173427582,0.004283104091882706,-0.00438314164057374,-0.04052472114562988,0.9991598129272461
1676104289.406409,4441,1676104289,404949188,world,-0.41223016381263733,0.5218777656555176,0.12514609098434448,0.004196567926555872,-0.0043951948173344135,-0.04040182754397392,0.9991649985313416
1676104289.4091172,4442,1676104289,406912803,world,-0.4122239649295807,0.5218673944473267,0.12515346705913544,0.004161733202636242,-0.004490121733397245,-0.04026517644524574,0.9991703629493713
1676104289.415057,4443,1676104289,412964105,world,-0.4122363030910492,0.5218819379806519,0.1251431703567505,0.004187062848359346,-0.0044726175256073475,-0.04043041542172432,0.9991636276245117
1676104289.4159515,4444,1676104289,415143966,world,-0.4122045636177063,0.5218303203582764,0.12515795230865479,0.003979974426329136,-0.004445611033588648,-0.040024399757385254,0.9991809725761414
1676104289.4170966,4445,1676104289,416439533,world,-0.41223618388175964,0.5218732357025146,0.1251407414674759,0.004116637632250786,-0.00450868671759963,-0.04039769992232323,0.9991651177406311
1676104289.4247193,4446,1676104289,423477411,world,-0.41223835945129395,0.5218825340270996,0.1251472383737564,0.004217993002384901,-0.0044616409577429295,-0.04044391214847565,0.9991629123687744
1676104289.4262712,4447,1676104289,425496816,world,-0.41223570704460144,0.5218798518180847,0.12514568865299225,0.004286113195121288,-0.00444007059559226,-0.04047909006476402,0.999161422252655
1676104289.4340231,4448,1676104289,433164834,world,-0.4122372269630432,0.5218853950500488,0.12515397369861603,0.0042268973775208,-0.004345155321061611,-0.04051326960325241,0.999160647392273
1676104289.4351833,4449,1676104289,434631109,world,-0.4122351109981537,0.5218749642372131,0.12514431774616241,0.004143110476434231,-0.004397507291287184,-0.040429312735795975,0.9991641640663147
1676104289.4462929,4450,1676104289,443731784,world,-0.41223642230033875,0.5218795537948608,0.12514247000217438,0.004213110078126192,-0.004427703097462654,-0.040507569909095764,0.9991605281829834
1676104289.4488297,4451,1676104289,446455717,world,-0.41222143173217773,0.5218433737754822,0.12515738606452942,0.00402163527905941,-0.004330782685428858,-0.040088821202516556,0.9991786479949951
1676104289.458883,4452,1676104289,458048343,world,-0.41223594546318054,0.5218910574913025,0.1251390278339386,0.004307014402002096,-0.004399457015097141,-0.04049985483288765,0.999160647392273
1676104289.46128,4453,1676104289,460180282,world,-0.4122198224067688,0.5218616724014282,0.12514981627464294,0.00415137829259038,-0.004551571328192949,-0.04024943336844444,0.99917072057724
1676104289.465241,4454,1676104289,463059902,world,-0.41223564743995667,0.5218861103057861,0.12514476478099823,0.004214492626488209,-0.004431655164808035,-0.04056490957736969,0.9991582036018372
1676104289.470175,4455,1676104289,468729496,world,-0.4122256934642792,0.5218749642372131,0.12515084445476532,0.004121632780879736,-0.004341470077633858,-0.04033869504928589,0.9991681575775146
1676104289.473766,4456,1676104289,471381902,world,-0.41221362352371216,0.5218603014945984,0.12516489624977112,0.004056958481669426,-0.004382600542157888,-0.04012588784098625,0.9991768002510071
1676104289.476958,4457,1676104289,474188566,world,-0.41223305463790894,0.5218786597251892,0.12514819204807281,0.004123244900256395,-0.0044492860324680805,-0.040374044328927994,0.9991662502288818
1676104289.4769979,4458,1676104289,474960088,world,-0.4122312664985657,0.5218608379364014,0.12515218555927277,0.004172116983681917,-0.004466934595257044,-0.04019945114850998,0.9991730451583862
1676104289.4858568,4459,1676104289,483627796,world,-0.4122347831726074,0.521877110004425,0.12515239417552948,0.004142572171986103,-0.004397840704768896,-0.04033795744180679,0.9991678595542908
1676104289.4874597,4460,1676104289,484706640,world,-0.4122268855571747,0.5218685269355774,0.12514352798461914,0.004136810079216957,-0.004453600384294987,-0.04031902924180031,0.9991683959960938
1676104289.4892645,4461,1676104289,488424539,world,-0.41222071647644043,0.5218549370765686,0.125160813331604,0.004079926293343306,-0.004498171154409647,-0.04018095135688782,0.9991739988327026
1676104289.511118,4464,1676104289,505925655,world,-0.4122326374053955,0.5218695998191833,0.1251457929611206,0.004120254423469305,-0.00441588182002306,-0.04029708355665207,0.9991694688796997
1676104289.515277,4465,1676104289,514265537,world,-0.41222673654556274,0.5218733549118042,0.12515126168727875,0.0041686659678816795,-0.004447638988494873,-0.04031934589147568,0.9991682767868042
1676104289.5253048,4466,1676104289,523570775,world,-0.4122307300567627,0.521876335144043,0.12514923512935638,0.004270119126886129,-0.004433284979313612,-0.04037593677639961,0.9991655945777893
1676104289.5259976,4468,1676104289,525193214,world,-0.41222208738327026,0.5218740701675415,0.12514233589172363,0.00428346823900938,-0.004421694669872522,-0.04032016545534134,0.9991679191589355
1676104289.534317,4469,1676104289,533645629,world,-0.41223880648612976,0.5218872427940369,0.12514206767082214,0.004280334338545799,-0.004453613422811031,-0.04060516133904457,0.9991562366485596
1676104289.5357304,4470,1676104289,534720182,world,-0.41224080324172974,0.521885097026825,0.12515194714069366,0.0042394185438752174,-0.004428948741406202,-0.04048354923725128,0.999161422252655
1676104289.5357745,4471,1676104289,535144090,world,-0.41223934292793274,0.5218866467475891,0.12515220046043396,0.004206359852105379,-0.0043424624018371105,-0.04056920111179352,0.999158501625061
1676104289.545212,4472,1676104289,544617176,world,-0.4122374653816223,0.5218786001205444,0.1251526176929474,0.004197828005999327,-0.004367228131741285,-0.040471289306879044,0.9991624355316162
1676104289.5470898,4473,1676104289,545922279,world,-0.412240207195282,0.5218794345855713,0.12514713406562805,0.004156466107815504,-0.004424986895173788,-0.04048541933298111,0.9991617798805237
1676104289.5554235,4474,1676104289,553141832,world,-0.4122365713119507,0.5218802690505981,0.12514623999595642,0.004172731190919876,-0.004398665390908718,-0.04044301435351372,0.9991634488105774
1676104289.5554588,4475,1676104289,554792642,world,-0.41223493218421936,0.5218788385391235,0.12515424191951752,0.004147473722696304,-0.004404536448419094,-0.04043986648321152,0.9991637468338013
1676104289.5658236,4476,1676104289,563922166,world,-0.41223639249801636,0.5218771696090698,0.12514719367027283,0.0041359043680131435,-0.004420087207108736,-0.04043528437614441,0.9991638660430908
1676104289.5669205,4477,1676104289,566242933,world,-0.41222864389419556,0.5218697786331177,0.1251421719789505,0.004218044690787792,-0.0044077602215111256,-0.04034215211868286,0.9991673827171326
1676104289.5707366,4478,1676104289,569011449,world,-0.4122255742549896,0.5218744277954102,0.12514673173427582,0.004148215986788273,-0.004471426829695702,-0.040344156324863434,0.999167263507843
1676104289.57653,4479,1676104289,573422670,world,-0.41222384572029114,0.5218623876571655,0.12514299154281616,0.004297040402889252,-0.004434420261532068,-0.04027991741895676,0.9991694092750549
1676104289.5809069,4480,1676104289,576676845,world,-0.41223230957984924,0.52187579870224,0.1251518875360489,0.004236237611621618,-0.004401137121021748,-0.040350545197725296,0.9991669654846191
1676104289.5852826,4481,1676104289,583735704,world,-0.4122074842453003,0.5218342542648315,0.12515932321548462,0.004044542089104652,-0.004440242424607277,-0.04001585394144058,0.9991810321807861
1676104289.5883298,4482,1676104289,586163997,world,-0.4122486710548401,0.5218960046768188,0.12514860928058624,0.00432876031845808,-0.004396893549710512,-0.0406113900244236,0.9991559982299805
1676104289.5906427,4483,1676104289,588443040,world,-0.41222649812698364,0.5218816995620728,0.12514279782772064,0.004134053364396095,-0.004405823536217213,-0.040344301611185074,0.9991675615310669
1676104289.593672,4484,1676104289,593016386,world,-0.4122433662414551,0.5218760967254639,0.1251533031463623,0.004111504647880793,-0.004414676688611507,-0.04045801982283592,0.9991630911827087
1676104289.6055279,4485,1676104289,603261470,world,-0.4122333228588104,0.5218806862831116,0.1251540631055832,0.004206680227071047,-0.00429774634540081,-0.04041897505521774,0.9991647601127625
1676104289.6074667,4486,1676104289,606040716,world,-0.4122158885002136,0.5218667984008789,0.12514318525791168,0.0042035761289298534,-0.004526789300143719,-0.04022751376032829,0.9991714954376221
1676104289.6404955,4487,1676104289,636831760,world,-0.41224363446235657,0.5218918323516846,0.12514804303646088,0.004243727307766676,-0.004424593411386013,-0.0405418798327446,0.9991590976715088
1676104289.640982,4488,1676104289,639623403,world,-0.4122025668621063,0.5218321084976196,0.1251477599143982,0.0040102736093103886,-0.004517088178545237,-0.03994062542915344,0.9991838335990906
1676104289.6455965,4490,1676104289,642224550,world,-0.4122331440448761,0.5218861103057861,0.12515230476856232,0.004228891804814339,-0.004437943920493126,-0.04048053175210953,0.9991615414619446
1676104289.6486397,4491,1676104289,647268772,world,-0.4122316241264343,0.5218712091445923,0.12515239417552948,0.004188907332718372,-0.004441726021468639,-0.04031805694103241,0.9991682171821594
1676104289.6505346,4492,1676104289,648961544,world,-0.412214457988739,0.5218478441238403,0.1251606047153473,0.004005031194537878,-0.004415180068463087,-0.04011262580752373,0.9991773962974548
1676104289.657506,4493,1676104289,656418800,world,-0.412224680185318,0.5218868851661682,0.1251518577337265,0.004261352121829987,-0.0044801803305745125,-0.040473613888025284,0.9991615414619446
1676104289.6589804,4494,1676104289,658216953,world,-0.41221386194229126,0.5218474864959717,0.1251629889011383,0.0039911773055791855,-0.004410312045365572,-0.04012252390384674,0.9991771578788757
1676104289.6607723,4495,1676104289,660192012,world,-0.4122390151023865,0.5218891501426697,0.12514656782150269,0.004212859086692333,-0.004461980890482664,-0.04053511843085289,0.9991592764854431
1676104289.6679165,4496,1676104289,665208339,world,-0.4122365415096283,0.5218812227249146,0.12514890730381012,0.004199008923023939,-0.0044386121444404125,-0.04048558697104454,0.999161422252655
1676104289.6705098,4497,1676104289,668255329,world,-0.41223302483558655,0.5218770503997803,0.12514518201351166,0.0042480966076254845,-0.004475085996091366,-0.04042430967092514,0.9991635680198669
1676104289.6737921,4498,1676104289,670421361,world,-0.4122430980205536,0.521885097026825,0.1251513659954071,0.004238709807395935,-0.0043632579036056995,-0.040511392056941986,0.999160647392273
1676104289.6761174,4499,1676104289,674614191,world,-0.4122304618358612,0.5218720436096191,0.1251443475484848,0.0042147268541157246,-0.00455049192532897,-0.04034964367747307,0.9991663694381714
1676104289.6782985,4500,1676104289,677527904,world,-0.4122297763824463,0.5218721628189087,0.12513844668865204,0.004212276078760624,-0.0043885475024580956,-0.040406741201877594,0.999164879322052
1676104289.6842685,4501,1676104289,683459281,world,-0.4122203588485718,0.5218526124954224,0.12515978515148163,0.00410695094615221,-0.004434257745742798,-0.040222495794296265,0.9991725087165833
1676104289.6863275,4502,1676104289,684761762,world,-0.4122401475906372,0.5218823552131653,0.12514802813529968,0.004218174144625664,-0.004351610317826271,-0.040474530309438705,0.9991622567176819
1676104289.6876497,4503,1676104289,686082601,world,-0.41222548484802246,0.5218744874000549,0.12515051662921906,0.004201050847768784,-0.0045466069132089615,-0.040375418961048126,0.9991654753684998
1676104289.6939716,4504,1676104289,693071365,world,-0.4122317433357239,0.5218720436096191,0.12514443695545197,0.004139058757573366,-0.004391180817037821,-0.040396902710199356,0.9991655349731445
1676104289.695386,4505,1676104289,694405317,world,-0.4122362732887268,0.5218763947486877,0.1251429170370102,0.004211792256683111,-0.004435400478541851,-0.04051591083407402,0.9991602301597595
1676104289.705313,4506,1676104289,704103231,world,-0.4122322201728821,0.5218818783760071,0.12514348328113556,0.00425610039383173,-0.004502730444073677,-0.04038914665579796,0.9991648197174072
1676104289.7063415,4507,1676104289,705729007,world,-0.412234365940094,0.5218814611434937,0.1251487135887146,0.004318437539041042,-0.004430714529007673,-0.04042554274201393,0.9991634488105774
1676104289.7147202,4508,1676104289,713934421,world,-0.4122210741043091,0.5218468308448792,0.12516039609909058,0.003987625241279602,-0.004501651041209698,-0.040142010897397995,0.9991759657859802
1676104289.715824,4509,1676104289,715195894,world,-0.412228524684906,0.5218790769577026,0.1251399666070938,0.0042919740080833435,-0.004398401360958815,-0.040351592004299164,0.99916672706604
1676104289.7259498,4511,1676104289,724079847,world,-0.4122256636619568,0.521856963634491,0.12515228986740112,0.004069575108587742,-0.00442984513938427,-0.04027885943651199,0.9991704225540161
1676104289.7348382,4512,1676104289,734077453,world,-0.41223806142807007,0.5218797922134399,0.12514753639698029,0.004099129233509302,-0.00447221240028739,-0.04045037552714348,0.9991631507873535
1676104289.736328,4513,1676104289,735761642,world,-0.4122369885444641,0.5218775272369385,0.12515342235565186,0.0041080075316131115,-0.004416442941874266,-0.04036901891231537,0.9991666674613953
1676104289.7382038,4514,1676104289,736729145,world,-0.4122278392314911,0.5218751430511475,0.125151127576828,0.0041936240158975124,-0.0044537503272295,-0.04035928100347519,0.9991664886474609
1676104289.7487228,4515,1676104289,746702671,world,-0.41223636269569397,0.521889865398407,0.1251472681760788,0.00426511513069272,-0.004462975077331066,-0.040519654750823975,0.9991596937179565
1676104289.7493143,4516,1676104289,747965812,world,-0.41223374009132385,0.5218847393989563,0.12515024840831757,0.004308742471039295,-0.004489433020353317,-0.04050472378730774,0.9991600513458252
1676104289.7543209,4517,1676104289,753640174,world,-0.41223475337028503,0.5218784213066101,0.1251492202281952,0.004080775659531355,-0.004385359585285187,-0.040396325290203094,0.9991657733917236
1676104289.7555811,4518,1676104289,754970550,world,-0.41224750876426697,0.5218906402587891,0.1251496970653534,0.004131144378334284,-0.004326815716922283,-0.040586940944194794,0.9991581439971924
1676104289.7649786,4519,1676104289,763206243,world,-0.41220206022262573,0.5218312740325928,0.12515807151794434,0.0039848932065069675,-0.00443272665143013,-0.03999016433954239,0.9991823434829712
1676104289.7651312,4520,1676104289,764390945,world,-0.4122278392314911,0.5218691229820251,0.1251518428325653,0.004113282077014446,-0.00451545137912035,-0.04025958850979805,0.9991706013679504
1676104289.767231,4521,1676104289,766043901,world,-0.4122218191623688,0.5218544602394104,0.1251528263092041,0.004071605857461691,-0.004379868507385254,-0.04028066620230675,0.9991704821586609
1676104289.7754612,4522,1676104289,773860692,world,-0.412223219871521,0.5218709707260132,0.12514953315258026,0.004145458340644836,-0.004483481869101524,-0.04030740261077881,0.9991687536239624
1676104289.7768335,4523,1676104289,776358366,world,-0.41224801540374756,0.5219001173973083,0.12514004111289978,0.004293721169233322,-0.004359289538115263,-0.040665045380592346,0.9991540908813477
1676104289.7963638,4524,1676104289,795261621,world,-0.4122368097305298,0.5218785405158997,0.12515167891979218,0.004228345584124327,-0.004438605159521103,-0.04037611186504364,0.9991657733917236
1676104289.7979655,4526,1676104289,797099590,world,-0.4122482240200043,0.5218945145606995,0.12514284253120422,0.004248743411153555,-0.00435637217015028,-0.04061950743198395,0.9991561770439148
1676104289.812524,4527,1676104289,804251670,world,-0.4122214615345001,0.5218616724014282,0.1251543015241623,0.004104027058929205,-0.004422866739332676,-0.04023925960063934,0.9991718530654907
1676104289.815827,4528,1676104289,814065694,world,-0.4122233986854553,0.5218796730041504,0.12515322864055634,0.004175671376287937,-0.0044271070510149,-0.040380604565143585,0.9991658926010132
1676104289.8185935,4529,1676104289,817793607,world,-0.4122336804866791,0.5218613147735596,0.12516430020332336,0.004117864649742842,-0.00444604828953743,-0.04026801884174347,0.9991705417633057
1676104289.8206747,4530,1676104289,818824529,world,-0.41223645210266113,0.5218843817710876,0.1251460760831833,0.004207775462418795,-0.004448891617357731,-0.040447089821100235,0.9991629719734192
1676104289.8207276,4531,1676104289,819731950,world,-0.41222867369651794,0.5218670964241028,0.12514488399028778,0.0041960678063333035,-0.004436172544956207,-0.04032887890934944,0.999167799949646
1676104289.8249679,4532,1676104289,824017524,world,-0.41223618388175964,0.5218786597251892,0.1251567155122757,0.004080845974385738,-0.0044531673192977905,-0.04034188389778137,0.9991676807403564
1676104289.830477,4533,1676104289,828425168,world,-0.4122312664985657,0.5218707919120789,0.12514740228652954,0.00400313176214695,-0.00447316188365221,-0.04030505567789078,0.9991694092750549
1676104289.8356194,4534,1676104289,835079193,world,-0.412239670753479,0.5218814015388489,0.1251540184020996,0.004262907430529594,-0.004402879625558853,-0.040438730269670486,0.9991632103919983
1676104289.8374045,4535,1676104289,836438417,world,-0.41220664978027344,0.5218330025672913,0.12515652179718018,0.003964252304285765,-0.004486252553761005,-0.03995785862207413,0.9991834759712219
1676104289.8440669,4536,1676104289,843098163,world,-0.41223806142807007,0.5218760967254639,0.12515871226787567,0.004165334161370993,-0.004428052809089422,-0.040420789271593094,0.9991642832756042
1676104289.8454216,4537,1676104289,844720125,world,-0.41223809123039246,0.5218839049339294,0.12514837086200714,0.0041550565510988235,-0.004538878798484802,-0.04050188511610031,0.9991605877876282
1676104289.8548388,4538,1676104289,853879213,world,-0.4122270941734314,0.5218769907951355,0.12515009939670563,0.00416787713766098,-0.004456961993128061,-0.04037291929125786,0.9991660714149475
1676104289.8566139,4540,1676104289,855941534,world,-0.4122272729873657,0.5218849182128906,0.12514756619930267,0.004269741475582123,-0.004459257237613201,-0.04049897566437721,0.9991605877876282
1676104289.8651898,4541,1676104289,864493608,world,-0.41223984956741333,0.5218883156776428,0.12514498829841614,0.0042497445829212666,-0.004292893223464489,-0.040462978184223175,0.9991627931594849
1676104289.8664434,4542,1676104289,865788459,world,-0.41223016381263733,0.5218626260757446,0.12515594065189362,0.004154023248702288,-0.004454740788787603,-0.040336623787879944,0.9991676211357117
1676104289.8750951,4543,1676104289,873325586,world,-0.4122333824634552,0.5218821167945862,0.1251499056816101,0.00416127685457468,-0.004434993956238031,-0.04040740802884102,0.9991648197174072
1676104289.886285,4544,1676104289,883541822,world,-0.4122248888015747,0.5218682289123535,0.12515105307102203,0.004034522920846939,-0.0044885557144880295,-0.04033464938402176,0.9991680383682251
1676104289.8872962,4545,1676104289,886723279,world,-0.41221851110458374,0.5218515396118164,0.1251487135887146,0.004076175857335329,-0.004530697595328093,-0.04018331691622734,0.9991737604141235
1676104289.88829,4546,1676104289,887348175,world,-0.4122369885444641,0.5218886137008667,0.12515249848365784,0.004342065192759037,-0.004396827891469002,-0.04047215357422829,0.9991616010665894
1676104289.8952463,4547,1676104289,893541336,world,-0.4122256338596344,0.5218645930290222,0.1251504123210907,0.0041899289935827255,-0.004396216943860054,-0.040324706584215164,0.9991682171821594
1676104289.895282,4548,1676104289,894568443,world,-0.41223087906837463,0.5218740701675415,0.12514890730381012,0.004103490617126226,-0.004396997857838869,-0.0403812900185585,0.9991662502288818
1676104289.9054117,4549,1676104289,903767824,world,-0.4122296869754791,0.5218785405158997,0.1251479685306549,0.004141544923186302,-0.004444309044629335,-0.04034096375107765,0.9991675019264221
1676104289.9078774,4551,1676104289,906247138,world,-0.4122375547885895,0.5218786597251892,0.12515397369861603,0.004222693853080273,-0.0044110678136348724,-0.04044294357299805,0.9991632699966431
1676104289.9137843,4552,1676104289,913239002,world,-0.41224050521850586,0.5218870639801025,0.1251467764377594,0.004282587207853794,-0.004331731703132391,-0.04058137908577919,0.999157726764679
1676104289.9150443,4553,1676104289,914308786,world,-0.4122421443462372,0.521883487701416,0.1251566857099533,0.004138262942433357,-0.00453773932531476,-0.040415290743112564,0.9991641640663147
1676104289.9246488,4554,1676104289,922964572,world,-0.41223230957984924,0.5218731760978699,0.12514573335647583,0.004171738401055336,-0.004386467859148979,-0.04032991826534271,0.9991680979728699
1676104289.9258597,4555,1676104289,924026012,world,-0.412217378616333,0.5218437314033508,0.12516172230243683,0.004072702955454588,-0.004407517146319151,-0.04014192894101143,0.999176025390625
1676104289.9350493,4556,1676104289,932972908,world,-0.4122258722782135,0.521873950958252,0.12515553832054138,0.004061785526573658,-0.004450901877135038,-0.04027155041694641,0.9991706013679504
1676104289.9351032,4557,1676104289,934156894,world,-0.4122311770915985,0.5218780040740967,0.12514294683933258,0.004225479438900948,-0.004399171564728022,-0.040517259389162064,0.9991602897644043
1676104289.9466915,4558,1676104289,943043947,world,-0.4122171401977539,0.5218558311462402,0.12514904141426086,0.004067322704941034,-0.004517024848610163,-0.040242500603199005,0.9991714358329773
1676104289.9485607,4559,1676104289,947504997,world,-0.41223153471946716,0.5218726992607117,0.1251506805419922,0.004161308519542217,-0.004479654598981142,-0.04041628912091255,0.9991642832756042
1676104289.9513588,4560,1676104289,950442075,world,-0.4122297465801239,0.52187579870224,0.1251543164253235,0.004138787742704153,-0.004309455398470163,-0.04041091725230217,0.9991652965545654
1676104289.955705,4561,1676104289,953938245,world,-0.4122454822063446,0.5218924283981323,0.12514328956604004,0.004317435435950756,-0.004287689924240112,-0.040677886456251144,0.9991537928581238
1676104289.9576762,4562,1676104289,956189155,world,-0.4122317135334015,0.5218772888183594,0.12514816224575043,0.0042675030417740345,-0.004537889733910561,-0.04030492529273033,0.9991679787635803
1676104289.9650414,4563,1676104289,963974237,world,-0.4122489094734192,0.5219011902809143,0.1251354217529297,0.0042346627451479435,-0.004458014853298664,-0.04065896198153496,0.9991541504859924
1676104289.966436,4564,1676104289,965776443,world,-0.4122112989425659,0.521848201751709,0.12516003847122192,0.004095202311873436,-0.004412858281284571,-0.04013201966881752,0.9991763234138489
1676104289.9752667,4565,1676104289,974127769,world,-0.41223573684692383,0.5218830704689026,0.1251547783613205,0.004225467331707478,-0.004478671122342348,-0.040436774492263794,0.9991630911827087
1676104289.9786186,4567,1676104289,977110862,world,-0.4122282862663269,0.5218769311904907,0.1251458078622818,0.004128564149141312,-0.004449579864740372,-0.04041358828544617,0.9991646409034729
1676104289.9844353,4568,1676104289,983638048,world,-0.4122229814529419,0.5218684673309326,0.12514933943748474,0.004220501519739628,-0.00442191306501627,-0.04031793773174286,0.9991682767868042
1676104289.9869673,4569,1676104289,985143899,world,-0.41224217414855957,0.5218846797943115,0.12514598667621613,0.004290381446480751,-0.004425338935106993,-0.04053487628698349,0.9991590976715088
1676104289.9942136,4570,1676104289,993519306,world,-0.41224339604377747,0.521896243095398,0.1251525580883026,0.004140576813369989,-0.004537226166576147,-0.040583930909633636,0.9991572499275208
1676104289.9952295,4571,1676104289,994532346,world,-0.4122345447540283,0.5218784809112549,0.1251496970653534,0.004241197369992733,-0.004374171141535044,-0.04042467474937439,0.9991639852523804
1676104289.9957254,4572,1676104289,995132923,world,-0.41223302483558655,0.5218833684921265,0.12514789402484894,0.004213898442685604,-0.004507864825427532,-0.04043976962566376,0.9991629719734192
1676104290.0068014,4573,1676104290,3525733,world,-0.41224151849746704,0.5218919515609741,0.12514829635620117,0.004170873202383518,-0.004374177195131779,-0.040573716163635254,0.9991583228111267
1676104290.0069776,4574,1676104290,5290985,world,-0.4122137129306793,0.5218467712402344,0.12516197562217712,0.00396468210965395,-0.004414179362356663,-0.040068455040454865,0.9991794228553772
1676104290.00764,4575,1676104290,6337642,world,-0.41223469376564026,0.5218806862831116,0.1251520812511444,0.004084412008523941,-0.004383055027574301,-0.040561504662036896,0.9991590976715088
1676104290.0149655,4576,1676104290,14016866,world,-0.41223734617233276,0.5218794941902161,0.12514685094356537,0.004298961255699396,-0.0043452163226902485,-0.040487002581357956,0.999161422252655
1676104290.0158052,4577,1676104290,14986276,world,-0.41223254799842834,0.521880030632019,0.12514586746692657,0.004117678385227919,-0.004445290192961693,-0.040450066328048706,0.9991632103919983
1676104290.0259774,4578,1676104290,23834466,world,-0.41222622990608215,0.5218679308891296,0.12515538930892944,0.004114361479878426,-0.004446643404662609,-0.04037105292081833,0.9991663694381714
1676104290.0260077,4579,1676104290,25058269,world,-0.4122351408004761,0.5218865275382996,0.12514464557170868,0.004245985299348831,-0.00447355629876256,-0.0404202938079834,0.999163806438446
1676104290.0350447,4580,1676104290,32958507,world,-0.4122387766838074,0.5218849778175354,0.12514114379882812,0.0042726886458694935,-0.004380976781249046,-0.040520839393138885,0.9991599917411804
1676104290.0363982,4581,1676104290,34161806,world,-0.41223400831222534,0.5218833088874817,0.12514831125736237,0.0043103452771902084,-0.004378993064165115,-0.04048822075128555,0.9991611838340759
1676104290.0364616,4582,1676104290,35687446,world,-0.4122409224510193,0.5218940377235413,0.12514764070510864,0.004292330704629421,-0.004398311488330364,-0.04060214012861252,0.9991565346717834
1676104290.04427,4583,1676104290,43546676,world,-0.41223064064979553,0.5218866467475891,0.12515246868133545,0.004185151308774948,-0.0043083601631224155,-0.0404326356947422,0.9991642236709595
1676104290.0560608,4584,1676104290,54047822,world,-0.4122352600097656,0.5218806862831116,0.1251518279314041,0.004261778201907873,-0.004493402782827616,-0.04049752652645111,0.9991605281829834
1676104290.0567608,4585,1676104290,55389642,world,-0.4122321307659149,0.5218796133995056,0.1251460611820221,0.00417938269674778,-0.004441650118678808,-0.040436044335365295,0.9991635084152222
1676104290.0567782,4586,1676104290,55982828,world,-0.41222360730171204,0.521855354309082,0.12516264617443085,0.003963976167142391,-0.004365640692412853,-0.04020266234874725,0.999174177646637
1676104290.067567,4587,1676104290,64690113,world,-0.4122234284877777,0.5218701362609863,0.12514300644397736,0.004214873071759939,-0.0045181745663285255,-0.04034251719713211,0.9991667866706848
1676104290.0677204,4588,1676104290,66024780,world,-0.4122433066368103,0.5218906402587891,0.125143900513649,0.004266072064638138,-0.004442128352820873,-0.04053964838385582,0.999159038066864
1676104290.068807,4589,1676104290,67235231,world,-0.4122379720211029,0.5218778252601624,0.12515030801296234,0.004197477828711271,-0.004427233245223761,-0.04042324796319008,0.9991641044616699
1676104290.0749416,4591,1676104290,74152708,world,-0.41223636269569397,0.5218857526779175,0.1251407116651535,0.004217096138745546,-0.004335037432610989,-0.040536291897296906,0.9991597533226013
1676104290.084355,4592,1676104290,83634138,world,-0.4122321605682373,0.5218720436096191,0.1251503974199295,0.004207937512546778,-0.004426951054483652,-0.04036468639969826,0.9991663694381714
1676104290.0853693,4593,1676104290,84702014,world,-0.4122399091720581,0.5218861699104309,0.1251441091299057,0.004266213625669479,-0.00439808052033186,-0.0404774509370327,0.9991617202758789
1676104290.0949054,4594,1676104290,93721151,world,-0.4122307598590851,0.5218742489814758,0.1251509040594101,0.004266398027539253,-0.0043890029191970825,-0.040381282567977905,0.9991655945777893
1676104290.0957317,4595,1676104290,95075607,world,-0.41222232580184937,0.5218704342842102,0.12515366077423096,0.004063752014189959,-0.004388697445392609,-0.040402088314294815,0.9991656541824341
1676104290.096267,4596,1676104290,95760822,world,-0.41222625970840454,0.5218757390975952,0.1251543164253235,0.00416478281840682,-0.00444737309589982,-0.040376584976911545,0.9991660118103027
1676104290.1053414,4597,1676104290,104452371,world,-0.412233829498291,0.5218678712844849,0.1251494586467743,0.004188499413430691,-0.0044266656041145325,-0.040357306599617004,0.9991667866706848
1676104290.1068604,4598,1676104290,105548381,world,-0.41223418712615967,0.5218858122825623,0.125155508518219,0.004167542792856693,-0.004397268872708082,-0.040429819375276566,0.9991639852523804
1676104290.1076546,4599,1676104290,106442928,world,-0.4122258126735687,0.5218701362609863,0.12514574825763702,0.004136114381253719,-0.004392571747303009,-0.040334105491638184,0.9991680383682251
1676104290.1146877,4600,1676104290,114010095,world,-0.41223299503326416,0.521889865398407,0.12515097856521606,0.004191472195088863,-0.004398693796247244,-0.040499139577150345,0.9991611838340759
1676104290.1155612,4601,1676104290,114902734,world,-0.41223421692848206,0.521876871585846,0.12514236569404602,0.0042659565806388855,-0.004363905638456345,-0.04046230763196945,0.999162495136261
1676104290.1253254,4602,1676104290,123043298,world,-0.4122432470321655,0.521882951259613,0.1251520961523056,0.004229737911373377,-0.0043549793772399426,-0.04048485681414604,0.9991617798805237
1676104290.125433,4603,1676104290,124439001,world,-0.41224250197410583,0.5218875408172607,0.1251513659954071,0.004217802546918392,-0.004349344875663519,-0.04058351367712021,0.9991578459739685
1676104290.1338196,4604,1676104290,133110761,world,-0.41221562027931213,0.5218532085418701,0.12515738606452942,0.00407496327534318,-0.004417738877236843,-0.040213171392679214,0.9991730451583862
1676104290.146623,4605,1676104290,144170761,world,-0.41223007440567017,0.5218850374221802,0.12514916062355042,0.004118309356272221,-0.004428528714925051,-0.040503185242414474,0.9991611838340759
1676104290.1466415,4606,1676104290,145179510,world,-0.41224220395088196,0.5218865871429443,0.1251477748155594,0.004258645698428154,-0.004464980214834213,-0.040498945862054825,0.9991605877876282
1676104290.1556823,4607,1676104290,153671741,world,-0.4122369587421417,0.5218832492828369,0.12515205144882202,0.004174475558102131,-0.00451031606644392,-0.04047355800867081,0.9991617798805237
1676104290.1556976,4608,1676104290,154797792,world,-0.41223981976509094,0.5218915939331055,0.12515360116958618,0.0042608133517205715,-0.004427959211170673,-0.040595464408397675,0.9991567730903625
1676104290.1565466,4609,1676104290,155646324,world,-0.41223713755607605,0.5218821167945862,0.12514805793762207,0.004209013190120459,-0.004420723766088486,-0.04044244438409805,0.9991632699966431
1676104290.1658144,4610,1676104290,163567543,world,-0.4122401773929596,0.5218912363052368,0.12514278292655945,0.004332963842898607,-0.004418740049004555,-0.04053172841668129,0.9991590976715088
1676104290.1667323,4611,1676104290,165723562,world,-0.41223809123039246,0.5218858122825623,0.12515723705291748,0.004183788783848286,-0.004362205043435097,-0.04050598666071892,0.9991610050201416
1676104290.1748557,4612,1676104290,173045158,world,-0.41223448514938354,0.5218886137008667,0.12515026330947876,0.004256310872733593,-0.004443660378456116,-0.04049477353692055,0.9991608262062073
1676104290.1758707,4613,1676104290,174392223,world,-0.4122242033481598,0.5218717455863953,0.12515442073345184,0.004128661006689072,-0.004499729722738266,-0.04034682363271713,0.9991671442985535
1676104290.1858304,4614,1676104290,183942317,world,-0.4122285544872284,0.5218804478645325,0.12515978515148163,0.004072040785104036,-0.004502969328314066,-0.04038991034030914,0.9991655349731445
1676104290.186722,4615,1676104290,186083316,world,-0.41221627593040466,0.5218366980552673,0.1251649260520935,0.004069097340106964,-0.00447795819491148,-0.03999453783035278,0.9991815686225891
1676104290.1940506,4616,1676104290,193408012,world,-0.41223299503326416,0.5218786597251892,0.1251503825187683,0.004255864303559065,-0.0043412260711193085,-0.04038197547197342,0.9991658329963684
1676104290.195116,4617,1676104290,194455385,world,-0.41222426295280457,0.5218685269355774,0.1251465082168579,0.004101149272173643,-0.004445290192961693,-0.04029066860675812,0.9991697072982788
1676104290.207742,4619,1676104290,205750703,world,-0.4122004806995392,0.5218300819396973,0.12516701221466064,0.003992460668087006,-0.00450642965734005,-0.039942774921655655,0.9991838932037354
1676104290.2094166,4620,1676104290,206826925,world,-0.4122343957424164,0.5218721032142639,0.1251484751701355,0.0041553424671292305,-0.004356418736279011,-0.04034154862165451,0.999167799949646
1676104290.2163265,4621,1676104290,214240312,world,-0.4122377634048462,0.5218847393989563,0.12514342367649078,0.004322088323533535,-0.004400940611958504,-0.04049626365303993,0.9991607069969177
1676104290.2172632,4622,1676104290,215660095,world,-0.4122278094291687,0.5218736529350281,0.12514947354793549,0.004168113227933645,-0.0044823503121733665,-0.040378108620643616,0.9991657733917236
1676104290.2187135,4623,1676104290,216473340,world,-0.4122408628463745,0.5218878984451294,0.1251491755247116,0.004200873896479607,-0.004356334451586008,-0.0405750498175621,0.9991582036018372
1676104290.2251415,4624,1676104290,222868680,world,-0.4122123718261719,0.521841824054718,0.12516234815120697,0.003955222200602293,-0.004484307020902634,-0.04016384482383728,0.9991753101348877
1676104290.2252517,4625,1676104290,223975181,world,-0.412230521440506,0.5218822956085205,0.1251586526632309,0.004105473402887583,-0.004393324721604586,-0.04039523005485535,0.9991657137870789
1676104290.2343686,4626,1676104290,233719110,world,-0.4122236669063568,0.5218656063079834,0.12514181435108185,0.004047031980007887,-0.0044593061320483685,-0.040338825434446335,0.9991679787635803
1676104290.2365565,4627,1676104290,235719203,world,-0.4122304916381836,0.5218774080276489,0.12515389919281006,0.004157158080488443,-0.004425967577844858,-0.04033220186829567,0.9991679191589355
1676104290.2460566,4628,1676104290,244606256,world,-0.4122418463230133,0.5218899846076965,0.12514862418174744,0.0042771329171955585,-0.004488829057663679,-0.040523480623960495,0.9991593956947327
1676104290.2477155,4629,1676104290,246381521,world,-0.41222935914993286,0.5218744277954102,0.12514454126358032,0.004191395826637745,-0.004405909683555365,-0.04039915278553963,0.9991651773452759
1676104290.2481074,4630,1676104290,247204542,world,-0.41224515438079834,0.5218927264213562,0.12514691054821014,0.004079706501215696,-0.004351923242211342,-0.040610574185848236,0.9991573095321655
1676104290.2536218,4631,1676104290,252985000,world,-0.4122430384159088,0.5218900442123413,0.1251491755247116,0.00431260047480464,-0.004462680779397488,-0.040520187467336655,0.9991595149040222
1676104290.2545743,4632,1676104290,254069805,world,-0.41220685839653015,0.5218438506126404,0.12515822052955627,0.004029440693557262,-0.00450801569968462,-0.04005592316389084,0.9991791844367981
1676104290.269806,4634,1676104290,265107393,world,-0.4122263491153717,0.5218755602836609,0.12515202164649963,0.004147025756537914,-0.004387228284031153,-0.04041522368788719,0.9991648197174072
1676104290.269995,4635,1676104290,268139123,world,-0.41223374009132385,0.5218904614448547,0.12514637410640717,0.004250476602464914,-0.004349716007709503,-0.040530528873205185,0.9991598129272461
1676104290.2763245,4636,1676104290,273903608,world,-0.4122297167778015,0.521865963935852,0.1251484900712967,0.00422250758856535,-0.004432871472090483,-0.040359802544116974,0.9991664886474609
1676104290.2786489,4637,1676104290,276584625,world,-0.4122348427772522,0.5218793749809265,0.12514865398406982,0.004152389708906412,-0.00441915774717927,-0.040449392050504684,0.9991632103919983
1676104290.285241,4638,1676104290,283827781,world,-0.41222983598709106,0.5218721032142639,0.12515300512313843,0.004170348402112722,-0.004410297144204378,-0.04037534072995186,0.9991661906242371
1676104290.2873104,4639,1676104290,286316871,world,-0.4122336208820343,0.5218816995620728,0.12515543401241302,0.004184446297585964,-0.004399914760142565,-0.040450867265462875,0.9991630911827087
1676104290.2885296,4640,1676104290,287520885,world,-0.41222745180130005,0.5218755006790161,0.12514933943748474,0.004239742178469896,-0.004492867272347212,-0.04036414995789528,0.999165952205658
1676104290.2956564,4641,1676104290,293058633,world,-0.41223886609077454,0.521888017654419,0.12514670193195343,0.004181790631264448,-0.004424571059644222,-0.040588706731796265,0.9991574287414551
1676104290.2956681,4642,1676104290,294591665,world,-0.41222524642944336,0.5218753814697266,0.12514576315879822,0.004245447460561991,-0.004453133791685104,-0.04030701890587807,0.9991684556007385
1676104290.30718,4643,1676104290,304620265,world,-0.41223105788230896,0.521866500377655,0.12515026330947876,0.004240170121192932,-0.004536599386483431,-0.04028823599219322,0.999168872833252
1676104290.3072157,4644,1676104290,306431770,world,-0.41223037242889404,0.5218724012374878,0.12514270842075348,0.004143642261624336,-0.004416892770677805,-0.04033678025007248,0.9991678595542908
1676104290.3091226,4645,1676104290,307324409,world,-0.41223371028900146,0.5218808054924011,0.12514501810073853,0.004249394405633211,-0.004361873026937246,-0.04047848656773567,0.9991618394851685
1676104290.3158886,4646,1676104290,314466953,world,-0.4122292995452881,0.5218572020530701,0.12516556680202484,0.004117795266211033,-0.004454209469258785,-0.04018465429544449,0.9991738796234131
1676104290.317092,4647,1676104290,316451072,world,-0.41223981976509094,0.5218818783760071,0.12514425814151764,0.00425142515450716,-0.0044099572114646435,-0.040491122752428055,0.9991611838340759
1676104290.3242102,4648,1676104290,323292970,world,-0.4122266471385956,0.5218678116798401,0.1251489371061325,0.004096836317330599,-0.004499024245887995,-0.04024718701839447,0.9991711974143982
1676104290.3266957,4649,1676104290,324564218,world,-0.4122324287891388,0.5218828320503235,0.1251436024904251,0.004165405873209238,-0.0043755327351391315,-0.04056259244680405,0.9991587400436401
1676104290.335663,4650,1676104290,333868741,world,-0.412230521440506,0.5218744874000549,0.12514901161193848,0.004205738659948111,-0.004415564704686403,-0.040304817259311676,0.9991688132286072
1676104290.3363252,4652,1676104290,335512876,world,-0.412240207195282,0.5218823552131653,0.1251467913389206,0.0042163715697824955,-0.0042580850422382355,-0.040471553802490234,0.9991627931594849
1676104290.344453,4653,1676104290,343337774,world,-0.41224291920661926,0.521887481212616,0.12515293061733246,0.004318170715123415,-0.0044852374121546745,-0.040490515530109406,0.9991605281829834
1676104290.347422,4654,1676104290,346616744,world,-0.4122356176376343,0.5218847393989563,0.12514938414096832,0.004227206576615572,-0.004466387443244457,-0.040432460606098175,0.9991633892059326
1676104290.3553932,4655,1676104290,353152990,world,-0.41223588585853577,0.5218778848648071,0.1251448541879654,0.004258648492395878,-0.004336229059845209,-0.04037719964981079,0.9991660714149475
1676104290.3554323,4656,1676104290,354689121,world,-0.4122236967086792,0.5218663215637207,0.12515275180339813,0.0041082678362727165,-0.00439661368727684,-0.04027782380580902,0.9991704821586609
1676104290.366213,4657,1676104290,363035202,world,-0.41222262382507324,0.5218762159347534,0.1251462996006012,0.0041205319575965405,-0.00447120564058423,-0.04031526297330856,0.9991685748100281
1676104290.3676183,4658,1676104290,366673469,world,-0.4122280478477478,0.5218713283538818,0.1251496523618698,0.004114523995667696,-0.004417026415467262,-0.040293995290994644,0.9991697072982788
1676104290.36957,4659,1676104290,368246555,world,-0.412212610244751,0.5218437910079956,0.1251627802848816,0.003951938357204199,-0.004494373220950365,-0.040096212178468704,0.9991779327392578
1676104290.374493,4660,1676104290,373545885,world,-0.41222840547561646,0.5218721628189087,0.12515248358249664,0.00427565723657608,-0.0044308253563940525,-0.04035906866192818,0.9991662502288818
1676104290.386808,4661,1676104290,383016109,world,-0.41223374009132385,0.5218819379806519,0.12515424191951752,0.004197818227112293,-0.004422406200319529,-0.040429700165987015,0.999163806438446
1676104290.387061,4662,1676104290,386180162,world,-0.4122290015220642,0.5218780040740967,0.12514515221118927,0.004167463164776564,-0.004520143382251263,-0.04034297168254852,0.9991669654846191
1676104290.388229,4663,1676104290,387547969,world,-0.4122273921966553,0.5218662023544312,0.1251513510942459,0.004186923149973154,-0.004383416846394539,-0.04027784615755081,0.999170184135437
1676104290.3946705,4664,1676104290,392983436,world,-0.41223156452178955,0.521876871585846,0.12514428794384003,0.004234321415424347,-0.004339250270277262,-0.04046868905425072,0.9991623759269714
1676104290.3953643,4665,1676104290,394281148,world,-0.4122328758239746,0.521874725818634,0.12515290081501007,0.004111649934202433,-0.004461586009711027,-0.04036376625299454,0.9991666078567505
1676104290.4041762,4666,1676104290,403033971,world,-0.4122409224510193,0.5218849182128906,0.12515835464000702,0.004221102688461542,-0.004339707084000111,-0.04043838381767273,0.9991636872291565
1676104290.4049966,4667,1676104290,404030561,world,-0.4122236371040344,0.5218458771705627,0.12516796588897705,0.004085579887032509,-0.004400474485009909,-0.04018263518810272,0.9991743564605713
1676104290.4157274,4668,1676104290,413785457,world,-0.4122260808944702,0.5218827724456787,0.1251465082168579,0.004219595342874527,-0.004391199443489313,-0.04046928882598877,0.9991621971130371
1676104290.4170513,4669,1676104290,415009975,world,-0.4122282862663269,0.521883487701416,0.12515045702457428,0.004174443893134594,-0.004501414485275745,-0.040460698306560516,0.9991623163223267
1676104290.4171748,4670,1676104290,415579557,world,-0.41222789883613586,0.5218839049339294,0.12515129148960114,0.0043327705934643745,-0.004459850024431944,-0.04051055386662483,0.9991597533226013
1676104290.4262183,4671,1676104290,423776149,world,-0.41223350167274475,0.5218812227249146,0.12514731287956238,0.004198693670332432,-0.004388455767184496,-0.04052351787686348,0.9991601705551147
1676104290.4262505,4672,1676104290,425365209,world,-0.412227600812912,0.5218762159347534,0.12515200674533844,0.00409943051636219,-0.004414398688822985,-0.0404038168489933,0.9991652369499207
1676104290.4342952,4673,1676104290,433608770,world,-0.41215845942497253,0.521881103515625,0.12510749697685242,0.003871483728289604,-0.004736953880637884,-0.04038938134908676,0.9991652965545654
1676104290.4353712,4674,1676104290,434849977,world,-0.4122253656387329,0.5218620300292969,0.1251489371061325,0.004189445171505213,-0.004420642741024494,-0.04034769535064697,0.9991672039031982
1676104290.450787,4675,1676104290,443996667,world,-0.4122365117073059,0.5218774080276489,0.12515193223953247,0.0041618142277002335,-0.0044402433559298515,-0.04037082940340042,0.9991662502288818
1676104290.451884,4676,1676104290,450739860,world,-0.4122243821620941,0.5218722224235535,0.12514561414718628,0.0042633977718651295,-0.004361413419246674,-0.04032484441995621,0.9991680383682251
1676104290.4569604,4677,1676104290,455053567,world,-0.412235826253891,0.5218779444694519,0.12515667080879211,0.004196671769022942,-0.004411027766764164,-0.04030894860625267,0.9991687536239624
1676104290.4586074,4678,1676104290,457372188,world,-0.4122338593006134,0.5218766927719116,0.12515300512313843,0.004198169801384211,-0.004502746742218733,-0.040385644882917404,0.9991652369499207
1676104290.4646912,4679,1676104290,463464736,world,-0.4122416377067566,0.5218906402587891,0.12514080107212067,0.004315060097724199,-0.0044400449842214584,-0.04062609374523163,0.9991552233695984
1676104290.4668398,4680,1676104290,465307474,world,-0.41223031282424927,0.5218801498413086,0.12515075504779816,0.004114741459488869,-0.004557440523058176,-0.040375471115112305,0.9991657137870789
1676104290.4685636,4681,1676104290,466763257,world,-0.41222938895225525,0.521883487701416,0.12515684962272644,0.004184506367892027,-0.004440875258296728,-0.04041788727045059,0.9991642236709595
1676104290.4745564,4682,1676104290,472985744,world,-0.4122140109539032,0.5218508839607239,0.12515851855278015,0.003955323714762926,-0.004462862387299538,-0.04015345871448517,0.9991757869720459
1676104290.47624,4683,1676104290,474386453,world,-0.4122355580329895,0.521877110004425,0.12513865530490875,0.0042291670106351376,-0.0043363734148442745,-0.04046059399843216,0.9991628527641296
1676104290.485124,4684,1676104290,483053922,world,-0.41222691535949707,0.5218729376792908,0.12514768540859222,0.004228245001286268,-0.004411906003952026,-0.040380727499723434,0.9991657733917236
1676104290.4862146,4685,1676104290,484630823,world,-0.4122273623943329,0.5218775868415833,0.12514831125736237,0.004229268524795771,-0.004478083457797766,-0.04037817195057869,0.9991655349731445
1676104290.4867158,4686,1676104290,485883951,world,-0.41223978996276855,0.5218909978866577,0.12514235079288483,0.004145585931837559,-0.004360910505056381,-0.040608782321214676,0.9991570711135864
1676104290.4940436,4687,1676104290,493081808,world,-0.4122236669063568,0.521869421005249,0.12514810264110565,0.004197531379759312,-0.0044719744473695755,-0.040273502469062805,0.9991699457168579
1676104290.495574,4688,1676104290,494296073,world,-0.4122374653816223,0.5218797326087952,0.1251521110534668,0.004285634029656649,-0.004446843173354864,-0.04044413939118385,0.9991627335548401
1676104290.5059328,4689,1676104290,503638744,world,-0.4122290313243866,0.5218701362609863,0.12514716386795044,0.004107909742742777,-0.004383676685392857,-0.04037301614880562,0.9991666674613953
1676104290.5075727,4690,1676104290,506183147,world,-0.4122084081172943,0.5218349695205688,0.12515681982040405,0.004098201636224985,-0.004347657319158316,-0.04001300409436226,0.9991813898086548
1676104290.5076194,4691,1676104290,506804466,world,-0.4122318625450134,0.5218832492828369,0.1251533478498459,0.004122091922909021,-0.004514999687671661,-0.040485117584466934,0.999161422252655
1676104290.5150168,4692,1676104290,514115810,world,-0.4122375249862671,0.5218859314918518,0.12515880167484283,0.0042164865881204605,-0.004383780527859926,-0.04051908478140831,0.9991602897644043
1676104290.5162709,4693,1676104290,515500545,world,-0.41222938895225525,0.5218685865402222,0.1251448541879654,0.004160721320658922,-0.004351902287453413,-0.0403633788228035,0.9991669058799744
1676104290.5243042,4694,1676104290,523635864,world,-0.41223612427711487,0.5218837261199951,0.12514537572860718,0.004240681417286396,-0.004337146412581205,-0.04046852886676788,0.9991624355316162
1676104290.5261686,4695,1676104290,524731397,world,-0.41222473978996277,0.5218657851219177,0.1251535713672638,0.0040174322202801704,-0.004322543740272522,-0.040241580456495285,0.9991726279258728
1676104290.5337634,4696,1676104290,532978057,world,-0.4122355580329895,0.5218789577484131,0.12514640390872955,0.004268933553248644,-0.0044694808311760426,-0.04041610285639763,0.9991638660430908
1676104290.5349934,4697,1676104290,534405231,world,-0.4122284948825836,0.5218693614006042,0.1251409947872162,0.004153464455157518,-0.004455811344087124,-0.040357302874326706,0.99916672706604
1676104290.546256,4698,1676104290,543197631,world,-0.4122334122657776,0.5218861699104309,0.12514588236808777,0.0042661940678954124,-0.004425195511430502,-0.040431130677461624,0.9991635084152222
1676104290.5462742,4699,1676104290,544510364,world,-0.4122198522090912,0.5218473672866821,0.12516914308071136,0.003985597286373377,-0.004432802554219961,-0.040098026394844055,0.9991780519485474
1676104290.547825,4700,1676104290,546838998,world,-0.4122365713119507,0.5218771696090698,0.1251486837863922,0.004176334943622351,-0.0044518718495965,-0.04042831063270569,0.9991638660430908
1676104290.556712,4701,1676104290,554110288,world,-0.41221415996551514,0.5218513607978821,0.12515336275100708,0.004064146429300308,-0.004343326203525066,-0.04015038534998894,0.9991759657859802
1676104290.557541,4703,1676104290,556581020,world,-0.41222551465034485,0.5218758583068848,0.12515075504779816,0.0041062901727855206,-0.004395859781652689,-0.04035567119717598,0.999167263507843
1676104290.5638833,4704,1676104290,563349723,world,-0.4122355580329895,0.5218775868415833,0.1251460611820221,0.004256876651197672,-0.004425292368978262,-0.040425170212984085,0.9991637468338013
1676104290.5753756,4705,1676104290,573938846,world,-0.4122316241264343,0.5218827128410339,0.12514948844909668,0.004254544619470835,-0.004464573226869106,-0.0404537133872509,0.9991623759269714
1676104290.5769095,4706,1676104290,575610637,world,-0.4122318923473358,0.5218812227249146,0.1251518875360489,0.004176419228315353,-0.004442768637090921,-0.04039580002427101,0.9991651773452759
1676104290.5873919,4707,1676104290,585493803,world,-0.41223379969596863,0.5218769311904907,0.1251453310251236,0.0041966671124100685,-0.004319577943533659,-0.040489472448825836,0.9991618394851685
1676104290.5887132,4708,1676104290,587269067,world,-0.41223135590553284,0.521878719329834,0.12514613568782806,0.004208861850202084,-0.004441290162503719,-0.04033868387341499,0.9991673231124878
1676104290.5895193,4710,1676104290,588958263,world,-0.4122360348701477,0.5218837857246399,0.12514294683933258,0.004318003077059984,-0.004425728693604469,-0.04050195962190628,0.9991603493690491
1676104290.5941718,4711,1676104290,593548774,world,-0.4122276306152344,0.5218706727027893,0.12514935433864594,0.004172297194600105,-0.004448384512215853,-0.04034052789211273,0.9991673827171326
