Time,header.seq,header.stamp.secs,header.stamp.nsecs,header.frame_id,twist.linear.x,twist.linear.y,twist.linear.z,twist.angular.x,twist.angular.y,twist.angular.z
1676104288.873089,548,1676104288,532254400,base_link,-0.0005289719843863548,-0.007931002550359766,-2.769034048390552e-05,0.001640671631321311,-0.001098131528124213,0.0009438050910830499
1676104288.8740299,549,1676104288,562254400,base_link,-0.0004414815969111608,-0.008047762242132177,-0.00016456771016027492,0.001216161297634244,-0.0005201692692935465,0.0014817062765359879
1676104288.8745086,550,1676104288,602256960,base_link,-0.0006256963201729627,-0.008172445281700693,-0.00029452030711510043,0.0018426957540214062,-0.0002377387136220932,4.401244223117831e-05
1676104288.8746474,551,1676104288,632256960,base_link,-0.0006379484373290472,-0.008401541709310732,-0.0004955199302759292,0.001626238925382495,0.0015153260901570318,-0.001819584518671036
1676104288.8747785,552,1676104288,662256960,base_link,-0.0007520590754463984,-0.00823604201172292,-0.0003987603458015114,0.0005186322377994657,0.0006711606401950118,-0.002379373647272587
1676104288.8748915,553,1676104288,702259008,base_link,-0.0008243621972746625,-0.007995882849421567,-7.937503418807687e-05,-0.0001466531539335847,-0.0002427869476377962,0.001522062812000513
1676104288.8750994,554,1676104288,732259008,base_link,-0.0011488739745601825,-0.008071601267047063,-0.0003797838798109892,0.001203418942168355,0.0005532724317163229,0.0002119773998856544
1676104288.8754942,555,1676104288,762259008,base_link,-0.0011167315100239707,-0.008252996621134056,-0.000308554159385462,-0.00024338223738595843,-0.00037475186400115506,-0.0014036907814443111
1676104288.875699,556,1676104288,802259520,base_link,-0.0010870110942081787,-0.007956407971438676,-0.00021768648115952808,0.0014602597802877426,0.0006990898400545117,-0.002405451610684395
1676104288.875952,557,1676104288,832259520,base_link,-0.0010306891922937159,-0.007797053203833625,-0.00010875931364845034,-0.00026211701333522797,-0.000695571885444224,-0.0009259437210857867
1676104288.879343,558,1676104288,872259520,base_link,-0.0008352483046470391,-0.007309875164654523,-5.688913220845106e-05,0.0014628401258960366,0.00010348437353968634,0.0011007068678736687
1676104288.91322,559,1676104288,902261824,base_link,-0.0007363513586671807,-0.007355635518524945,-9.657815587976673e-05,0.0008660705061629415,0.0014810925349593163,-0.0005516177043318751
1676104288.9489944,560,1676104288,932261824,base_link,-0.0009076639469569299,-0.007509882194395918,-5.691897460997615e-05,0.0014195481780916452,0.001434057019650936,-0.0017997371032834055
1676104288.9761188,561,1676104288,972261824,base_link,-0.0009617027938808003,-0.007561041868379416,-8.697582586721716e-05,0.0013285188470035791,-0.000252648489549756,0.00024660769850015646
1676104289.0097642,562,1676104289,2264384,base_link,-0.001079002942238797,-0.007735157638030025,-0.00020444963314154044,0.0007166631985455751,0.0008835345506668091,8.818646892905224e-05
1676104289.046166,563,1676104289,32264384,base_link,-0.001056909713401983,-0.007521978551094862,-0.00018002182383446017,0.002074031624943018,-0.0004811957478523256,-0.0015215100720524788
1676104289.0758493,564,1676104289,72264384,base_link,-0.001538483396714272,-0.007595582780820049,4.0453786294948904e-05,0.001683021429926157,0.0004828232340514661,0.0009933337569236755
1676104289.1085427,565,1676104289,102266944,base_link,-0.0018821048521623137,-0.0075407424525705145,6.85632409286731e-05,0.0001655064697843045,0.0004386554937809706,-0.0002041305415332318
1676104289.141157,566,1676104289,132266944,base_link,-0.0018218109900839312,-0.007557814955660112,0.0003512361201835031,0.0009650109568610787,0.0012395109515637162,0.0014881100505590437
1676104289.176691,567,1676104289,172266944,base_link,-0.001626335994097128,-0.007474377336720507,0.0003482455896756584,-8.19470442365855e-05,-3.701471723616104e-05,0.0015422534197568893
1676104289.2083845,568,1676104289,203269504,base_link,-0.0017679937636332303,-0.007447941290125564,0.00031128118850530853,-0.00010971687152050436,-0.0013915107119828463,0.0005922988057136538
1676104289.2410789,569,1676104289,233269504,base_link,-0.002033161922561806,-0.007479987595580627,0.0003597992110681696,0.0009533663978800178,-0.0003050735685974359,0.0006181644275784492
1676104289.2748806,570,1676104289,263269504,base_link,-0.0021857793829590565,-0.007428833876451039,0.00029124737456314446,0.00016383620095439255,-0.0004048177506774664,-6.219698116183276e-05
1676104289.307321,571,1676104289,303272064,base_link,-0.0022654247210962715,-0.007678042864518656,0.00022353347396557609,-7.362017640843987e-05,-0.0016535136383026838,-0.0001712036319077013
1676104289.3445423,572,1676104289,333272064,base_link,-0.002259563122056303,-0.007489515863341504,0.0002127439923178334,0.0002590589865576476,0.0016827965155243876,0.0011372244916856287
1676104289.3770046,573,1676104289,373272064,base_link,-0.002283865667971709,-0.0074090090520891085,0.0004982129209545713,0.0009641123469918966,-0.001245575724169612,-0.0004158546216785906
1676104289.4093337,574,1676104289,403274624,base_link,-0.002339020680855353,-0.0073622071363498055,0.0006406818126282015,0.0030752390157431364,0.0012290212325751781,2.0953360944986194e-05
1676104289.4443526,575,1676104289,433274624,base_link,-0.0022454484449219163,-0.0074444406816847435,0.0006030037209833585,-0.0004587755538523197,-0.0006971515249460938,-0.0018637068569660187
1676104289.4777403,576,1676104289,473274624,base_link,-0.0022614963563890597,-0.007284655664655547,0.00029695954071808946,-0.0014305104268714786,1.6772653907537528e-05,0.0005535841919481754
1676104289.511389,577,1676104289,503277440,base_link,-0.0025727194082384554,-0.0070181391469339395,0.0002630985134572209,0.0006889833603054285,0.0009253132157027722,0.0007441742345690726
1676104289.5403938,578,1676104289,533277440,base_link,-0.002789568560690029,-0.00671474018227058,8.238340385788431e-05,0.001185126486234367,0.0014369443524628878,-0.0004597390070557596
1676104289.575074,579,1676104289,563277440,base_link,-0.0025994260860814095,-0.006278204109878267,0.00010781047318675521,0.0026119721587747335,0.0004346994683146476,-0.0005732285790145397
1676104289.6078076,580,1676104289,603280000,base_link,-0.002657977787364315,-0.0060700637529935274,0.00042186895363809264,0.0007145279087126255,-0.00011735246516764154,0.0008023139089345932
1676104289.6407423,581,1676104289,633280000,base_link,-0.002807110249737342,-0.005987003760946837,0.0003218736295473675,0.0018672673031687737,-0.0003772126510739327,-0.00047054467722773547
1676104289.676563,582,1676104289,673280000,base_link,-0.002781060702159894,-0.00569940064657699,0.0009083213674878937,0.0002728858089540154,0.0006881162989884615,5.696434527635566e-05
1676104289.7079284,583,1676104289,703282304,base_link,-0.002815438764432142,-0.005655796573712584,0.0006945566392935902,-0.0011293018469586968,-0.0012618881883099675,-0.000807962380349636
1676104289.740415,584,1676104289,733282304,base_link,-0.002717855779844658,-0.005260346062081833,0.0006275111202594225,0.001994379097595811,0.0006327710580080747,-0.001079463865607977
1676104289.7746258,585,1676104289,763282304,base_link,-0.002638705552122068,-0.004986211840222143,0.0005868344880816585,-0.0006171585409902036,-0.0004701334983110428,-2.1932646632188762e-07
1676104289.8135066,586,1676104289,803286656,base_link,-0.002421075828788574,-0.004757527359082986,0.0004872067614771801,0.0018117320723831654,0.000139824580401182,-0.0014114337973296642
1676104289.8414428,587,1676104289,833286656,base_link,-0.002643174651681313,-0.00449415894339459,0.0004282849467734087,-0.0006856581312604249,0.000903921201825142,0.0005247448571026324
1676104289.875267,588,1676104289,864286656,base_link,-0.002534994200602032,-0.004500758218354839,0.0007561082552034644,-0.0010573141044005752,0.0013864627107977867,0.00066195847466588
1676104289.9081008,589,1676104289,904288960,base_link,-0.0025158129815191226,-0.004410780684099575,0.0010013976568569883,0.00041711845551617444,0.0015654065646231177,0.0010849926620721815
1676104289.9465432,590,1676104289,934288960,base_link,-0.002384914483575831,-0.004479507387454773,0.0011331593497073335,0.000504900817759335,0.00024005211889743791,-0.001135340891778469
1676104289.975525,591,1676104289,963288960,base_link,-0.0022465574934118497,-0.004065042162387667,0.0010247435756122595,0.0023844342213124037,-0.00044071255251765246,0.0005880841054022312
1676104290.010426,592,1676104290,3292032,base_link,-0.0018600772890441251,-0.003867214789510871,0.0013031735739619979,5.723375943489373e-05,-0.0006259636720642447,-0.0002160463482141494
1676104290.04101,593,1676104290,34292032,base_link,-0.001867868096012294,-0.003699058188350238,0.001395033005748158,2.4978333385661244e-05,-0.0001428050454705956,-0.002041976898908615
1676104290.0764835,594,1676104290,63292032,base_link,-0.001579901197797327,-0.0039038775634969293,0.0010916746507152683,0.0019441416952759027,0.001336829736828804,0.0004624612629413603
1676104290.1097753,595,1676104290,104294592,base_link,-0.0012778710959292997,-0.0040317174350511875,0.0013057176530732184,0.00034925653017126024,-0.0004430485423654316,0.0013283793814480305
1676104290.1422818,596,1676104290,134294592,base_link,-0.0011018310582953299,-0.0037866571257062437,0.0010561973837438512,-5.184594192542136e-05,0.00025609461590647703,0.0004368755035102367
1676104290.1762047,597,1676104290,164294592,base_link,-0.0008701234444946041,-0.003434978013873375,0.001219272398440831,0.0007167590083554387,-0.00020267022773623456,0.0009932671673595905
1676104290.210401,598,1676104290,204296896,base_link,-0.0006491039478040007,-0.0035314713139309845,0.001138421641364667,0.0014353664591908455,-0.00039684143848717224,-0.0009297640062868595
1676104290.2424803,599,1676104290,234296896,base_link,-0.0004470856162595582,-0.0034435441690514913,0.0008399028697030211,0.00017919493257068098,0.0007626316510140896,0.00039729056879878033
1676104290.2760212,600,1676104290,264296896,base_link,-0.0005427883696384255,-0.0033450603678408545,0.0008800225264278564,-0.00012865770258940756,0.0008301790803670882,-0.0005823536776006223
1676104290.309789,601,1676104290,304299456,base_link,-0.00027221805695942336,-0.0033986182345452738,0.0009400027902206951,0.0004459813644643873,-0.0008801047224551438,0.0005815443582832814
1676104290.3424942,602,1676104290,334299456,base_link,-0.00015003031719426017,-0.003503869455387369,0.0009455422045284516,-0.0003458054270595312,0.0010910797864198687,0.0013379282318055628
1676104290.3753605,603,1676104290,364299456,base_link,-3.208861542794872e-05,-0.003594331525219018,0.0010929210621785333,0.00039933048537932336,0.00029088277369737636,0.0007935385219752789
1676104290.4095669,604,1676104290,404302016,base_link,0.000190604725918075,-0.0034254503042508316,0.0008991705059877467,0.002752767177298665,-0.00012906803749501702,0.00013237399980425837
1676104290.441186,605,1676104290,434302016,base_link,0.00018775216411266352,-0.003481812719404901,0.0011650084709348952,-0.00031483639031648636,-4.0818704292178235e-05,-0.000682490412145853
1676104290.4754686,606,1676104290,464302016,base_link,0.00027979898948960895,-0.003413284180063286,0.0013901466787054674,-5.910819163545966e-05,-0.0008006246061995625,-0.0001233583316206931
1676104290.5085974,607,1676104290,504304576,base_link,0.0002482325076299974,-0.003324015649575645,0.0015929683295230583,0.0013745573814958334,-0.0003857391420751809,0.00103306258097291
1676104290.5409124,608,1676104290,534304576,base_link,-6.063685425315858e-05,-0.0036778114195454084,0.0012544103788145885,-0.00040358040132559836,-0.0006973823765292762,0.0014770952984690666
1676104290.5743618,609,1676104290,565304576,base_link,0.0001339679987602597,-0.0037738835849807856,0.00132387941280359,0.0018990146927535534,0.0009647845290601251,-0.001428591087460518
1676104290.6075478,610,1676104290,604307136,base_link,0.0001579717321253761,-0.0037133455537470897,0.0014824275879090193,0.0008015227504074574,-0.0013892374699935317,4.808371886611002e-05
1676104290.646737,611,1676104290,634307136,base_link,6.852371809497681e-05,-0.003734090638857183,0.0013356507763200552,0.001485363463871181,-0.0021979999728500843,-0.0006537977606058119
1676104290.6759923,612,1676104290,664307136,base_link,9.361228541268261e-05,-0.003565973213826202,0.0013034069627384788,0.00022641473333351314,0.0001650017220526933,-0.00034940149635076523
1676104290.7099392,613,1676104290,704309696,base_link,0.00033833322569942114,-0.0038010513661493783,0.001181271569496231,-0.0009329690365120769,-0.0006607406539842485,0.0008235019631683828
1676104290.7469938,614,1676104290,734309696,base_link,0.00016149389375217174,-0.003857280700621302,0.0010205409288663032,0.0013493907172232866,-2.0370818674564287e-05,0.0006021661683917046
1676104290.7751904,615,1676104290,764309696,base_link,-4.889151469700234e-05,-0.0038576971464341606,0.0007952340343911711,-0.00022890776745043695,0.0004272875376045705,0.000944911502301693
1676104290.8091013,616,1676104290,804312256,base_link,1.0319224508258356e-05,-0.00378123354246917,0.000700427151484389,-0.00046779829426668584,4.814146086573628e-05,0.0022232667542994022
1676104290.8433335,617,1676104290,834312256,base_link,0.00014298236606222764,-0.0037460959898032173,0.0007506579492836022,0.00041168686584569514,0.0011897741351276636,0.00015280582010745989
1676104290.8751676,618,1676104290,864312256,base_link,0.00012587769174996456,-0.004156988007145491,0.0006743012435222302,0.00282535282894969,-0.0006437328411266209,-0.0012953677214682102
1676104290.9086132,619,1676104290,905314304,base_link,0.00018082616794501784,-0.0040311410123724505,0.0006654732419158278,0.0012443442828953266,0.0007803982589393853,-0.0009349067695438863
1676104290.9405067,620,1676104290,935314304,base_link,0.0002045068677962036,-0.0037564442018087675,0.0004812636585791031,0.0026279378216713667,-6.007310003042231e-05,-0.0008350927382707596
1676104290.9768796,621,1676104290,965314304,base_link,0.00031560616226037567,-0.0040174295209282,0.0005315584399189411,-2.3831147700548172e-05,0.001479624304920435,-0.0005124579183757307
1676104291.0079682,622,1676104290,995315072,base_link,-4.631761694957196e-05,-0.004043530719173202,0.0003829347886703717,0.0007692188955843449,-0.0006480587180703878,-0.0002569067291915416
1676104291.0451221,623,1676104291,35315072,base_link,-0.00023071251180424349,-0.004008879951291081,0.0003012584903560996,-0.0006496258429251611,0.00036859069950878626,0.0004290668293833732
1676104291.0769768,624,1676104291,65315072,base_link,-0.0004519844984922974,-0.0036636563145899565,0.0001779529745088508,0.0009255438344553113,0.000807378673925996,0.0015837140381336212
1676104291.1075401,625,1676104291,95317632,base_link,-0.00035402484339412416,-0.003375931564666882,0.00017431385750894403,0.0021837162785232067,-0.0009198545012623074,-0.001423983834683895
1676104291.1412284,626,1676104291,135317632,base_link,-0.00014056810033789661,-0.0032421307917468787,0.00024181630453887706,0.0002503802825231105,-4.006014205515374e-05,0.0008584484457969666
1676104291.1748934,627,1676104291,165317632,base_link,-2.065966512064009e-05,-0.003147113629429865,-0.00017715685417948266,0.001456056721508503,-0.0013359374133870006,-0.0003293785266578196
1676104291.2074995,628,1676104291,195319168,base_link,-0.0003779695572787885,-0.0032405541498884347,-0.0005109131140606969,0.0005684861680492759,-0.0002508617471903562,0.00038919458165764814
1676104291.2405956,629,1676104291,235319168,base_link,-0.0007416860245248507,-0.003122243649332072,-0.0004467066528204055,0.0008494160138070583,-0.0005214527482166885,0.0008613364771008493
1676104291.2790422,630,1676104291,266319168,base_link,-0.0006265951879008628,-0.0032541420504521214,-0.0001180572635994714,0.0012334134662523866,0.0007059397175908089,4.3985899537801654e-05
1676104291.3095942,631,1676104291,305321728,base_link,-0.0007512742717705039,-0.003221477261557112,-5.522315221348535e-05,0.0006762605626136065,0.0027647148817777634,0.0011407802812755104
1676104291.3429792,632,1676104291,335321728,base_link,-0.0007140536992240111,-0.0033532525261257156,6.624140532582952e-05,0.00017179027781821787,0.0012490043882280588,-0.000737092923372984
1676104291.375607,633,1676104291,365321728,base_link,-0.0005202954476194263,-0.0031276989949705182,0.00016314088674776147,0.0002416119968984276,-0.00046928902156651025,-0.00029840087518095965
1676104291.408984,634,1676104291,405324544,base_link,-0.0008041424388634927,-0.002783140983937999,0.00016795631676884046,0.0006774322828277946,-0.0020174800883978605,0.0003330651670694354
1676104291.4415529,635,1676104291,435324544,base_link,-0.0009181372980662748,-0.0030911901637678913,0.00038241571216857573,0.0008529950864613056,-8.280156180262533e-06,0.0002571740187704563
1676104291.4743636,636,1676104291,465324544,base_link,-0.0008935165136994548,-0.003256922269950423,0.0002652079710849438,0.0007423580391332507,0.00011619995348155501,0.00018887920305132863
1676104291.5089808,637,1676104291,495327104,base_link,-0.0008844227468858773,-0.0034985712678724575,0.00013895944627831668,0.0005497179226949811,0.0012012354563921688,-0.0009390898048877717
1676104291.5401378,638,1676104291,535327104,base_link,-0.0009209456790683703,-0.0035551181440664752,0.00016349271836460646,-0.0005073489155620337,-0.0002486684825271368,-3.522681072354314e-05
1676104291.5748613,639,1676104291,566327104,base_link,-0.0009150382687173216,-0.0036112194056034112,-0.00020404284983933257,0.0009385019075125456,0.0012026547919958828,-0.0015363264828920367
1676104291.6079726,640,1676104291,596329664,base_link,-0.0009247932903743445,-0.003446986885634436,-0.0002658600882326409,-0.0004090189468115568,0.0010411117691546676,-0.0012194351293146612
1676104291.643235,641,1676104291,636329664,base_link,-0.0007135026317119931,-0.0035865432417606373,-0.0003602209365052164,-0.00021329137962311506,8.52386001497508e-05,0.0008003008551895618
1676104291.676053,642,1676104291,665329664,base_link,-0.000838151309575282,-0.0036906102669570064,-0.00055945528224574,0.001270652050152421,-0.0007096173940226436,-0.0002026353031396865
1676104291.7102282,643,1676104291,705332224,base_link,-0.0008103891770585216,-0.003524690846137752,-0.0004967100761727809,0.002243450377136469,-0.00027253152802586566,-0.001098481472581625
1676104291.7432113,644,1676104291,736332224,base_link,-0.0005410488194061346,-0.003773014850995946,-0.00028901571821989214,0.0013214813079684973,0.0008514537476003168,-0.0019388562068343163
1676104291.7760265,645,1676104291,766332224,base_link,-0.00019029994010851998,-0.003876071330217638,-0.0004057582626362909,-0.00015916017582640052,-0.0002786591649055481,-0.0001511992886662483
1676104291.8101876,646,1676104291,806335040,base_link,-7.876165299863096e-05,-0.004069777774242033,-0.00037788437641402705,0.0010191717883571982,0.0002752481959760188,-0.0010528601706027985
1676104291.8427393,647,1676104291,836335040,base_link,-0.00022325134465477016,-0.004249925378720718,-0.0004426301228971893,-0.0006358986720442772,0.0009565902873873708,-0.0014121332205832007
1676104291.875738,648,1676104291,866335040,base_link,2.921155594004559e-05,-0.004298127779431761,-0.00041550771226729735,0.001556352712213993,-7.629464380443095e-05,0.00016427971422672272
1676104291.910091,649,1676104291,906337600,base_link,0.0003103690274759879,-0.004370378394944722,-0.00011436669473208936,0.0002466194855514914,-6.292248144745824e-05,0.0002641542814671993
1676104291.9412813,650,1676104291,936337600,base_link,0.00036952992855838633,-0.004577357525792403,-0.00019885395931610643,0.002663929248228669,0.00023141200654208666,0.0004551084712147712
1676104291.975146,651,1676104291,966337600,base_link,8.402457636444138e-05,-0.004585711647776114,-0.00025996063756995,0.0016897744499146938,0.0012985316570848227,-0.0007670461200177671
1676104292.008063,652,1676104291,996339904,base_link,-6.819164162992412e-05,-0.0044617151295028344,-0.0003378534452730613,-0.0005150530487298965,0.00041272933594882483,-0.00028412230312824255
1676104292.0411284,653,1676104292,36339904,base_link,5.708337079151055e-05,-0.004490868210963918,-0.00026167900731600323,-0.00037859013536944985,-0.000943209044635296,-0.00118565559387207
1676104292.0763462,654,1676104292,66339904,base_link,0.00036934245416130366,-0.004227889839931124,-0.0002208555950110246,0.0009658574126660824,-0.0005747664254158734,0.0006061210297048093
1676104292.1106777,655,1676104292,106341952,base_link,0.0005114540503609206,-0.004024142570351332,-0.0002546992833165234,0.0012021398870274425,0.00031873327679932107,-0.0006791357882320881
1676104292.140349,656,1676104292,136341952,base_link,0.0003588754943308375,-0.0041998735870880655,-0.00031066499208116276,0.00011415165499784052,0.0005502381827682257,8.439505472779267e-05
1676104292.1744459,657,1676104292,166341952,base_link,0.00028426651032742364,-0.004228479526747824,-0.00033410097164866234,0.0007690666243433952,-0.000471408013254404,0.0006358367390930654
1676104292.2102497,658,1676104292,206344256,base_link,0.0005416962008157963,-0.004123626257088361,-0.0005285223680495542,0.0024585644714534283,-0.0005791328148916364,0.00012453366070985802
1676104292.242473,659,1676104292,236344256,base_link,0.0005953705171046243,-0.0038565217945551295,-0.0005302682128812705,0.002293454250320792,0.0004355672281235457,0.0005453932099044323
1676104292.2763374,660,1676104292,266344256,base_link,0.0008058929809263808,-0.0038186423876738567,-0.0005488648119621592,-0.00038257642881944776,0.000824014889076352,-0.0007064105011522771
1676104292.3075387,661,1676104292,296346560,base_link,0.0009365346584282601,-0.0032058280341901216,-0.0006227783869728727,0.0033797386568039656,-0.0007478153565898537,0.001159823965281248
1676104292.34337,662,1676104292,336346560,base_link,0.0010775576609651286,-0.003108423421977814,-0.000603179439728741,0.002506641671061516,0.00020292890258133417,0.00043109990656375885
1676104292.3751554,663,1676104292,366346560,base_link,0.001083280309482697,-0.0032255572448335857,-0.0006542705606630567,0.0005903895944356918,-0.001136425998993218,-0.000540714245289564
1676104292.4088347,664,1676104292,396348608,base_link,0.0010047870276223539,-0.0032926893627002797,-0.0008511944721553584,0.000149386323755607,0.00015351618640124811,0.001157836988568306
1676104292.4438312,665,1676104292,436348608,base_link,0.0010800524558501649,-0.0030632008504381802,-0.0009804302773713854,0.00035727504291571677,0.0008003213442862035,0.0007463102228939532
1676104292.4756444,666,1676104292,466348608,base_link,0.0011782642245592454,-0.0031442762771157367,-0.0006199653736601087,0.0003974314604420215,0.001686668489128351,-0.0013606809079647066
1676104292.5107956,667,1676104292,497351168,base_link,0.0011066558738783302,-0.003125666031978453,-0.0006708096202356007,0.0016037619207054377,-0.0002753145527094602,0.0003355205990374089
1676104292.5419803,668,1676104292,537351168,base_link,0.0011741774181264226,-0.003303257236214325,-0.00043835681264371175,0.0027593059930950403,-0.0005394738400354981,0.00031906832009553915
1676104292.574362,669,1676104292,566351168,base_link,0.0013254491015248944,-0.0031565008255064974,-0.0008552706751791279,0.0002485727600287646,0.0005669866222888232,0.0013028252869844437
1676104292.6075242,670,1676104292,597353728,base_link,0.001052625262637736,-0.002985409819233168,-0.0008748269577657262,-0.0007691901409998536,-0.00046251411549747,-0.0008311038836836814
1676104292.646098,671,1676104292,637353728,base_link,0.0007946291074861959,-0.0027376643078372625,-0.0010351618297470041,-0.00013243118883110583,0.00043921242468059074,0.0011027329601347446
1676104292.6760235,672,1676104292,667353728,base_link,0.0006064558753831658,-0.002613360875447519,-0.000945617838422216,-0.0005267340457066894,-0.0004573306068778037,0.0006655165925621987
1676104292.7102706,673,1676104292,697356032,base_link,0.0005451955873304223,-0.002662812908792795,-0.0006566359345414829,0.0007470410782843828,0.0005722923669964077,0.0013809599913656712
1676104292.742418,674,1676104292,737356032,base_link,0.00038064036066837387,-0.00274567319403966,-0.0006560439731796888,0.00010931215365417302,-0.00040564825758337975,0.00016226340085268026
1676104292.7775311,675,1676104292,767356032,base_link,5.3773963807384246e-05,-0.0026366528121464007,-0.0006187673739790194,0.0010516492184251547,-0.0015867312904447317,-0.0005977628752589224
1676104292.8093283,676,1676104292,797358336,base_link,9.322238746154821e-05,-0.002383831430750493,-0.0006765937881046077,0.0005818062927573919,0.00040355417877435684,2.4050939828157374e-05
1676104292.8423374,677,1676104292,837358336,base_link,-9.874970213668403e-05,-0.002638322259954398,-0.0007437025398825333,-0.0009112310945056379,0.001716062892228365,-0.00012173689901828788
1676104292.876602,678,1676104292,867358336,base_link,-0.00022213086559501894,-0.0024921704283981266,-0.0006264005971582155,-0.0009583613136783242,0.002615797333419323,-0.0016321185976266863
1676104292.9084208,679,1676104292,897359616,base_link,-0.0005217540038950207,-0.002623291921401694,-0.0004796327749255881,0.0020096185617148876,0.001509400550276041,-0.00022188993170857448
1676104292.9412513,680,1676104292,937359616,base_link,-0.0007455104609862125,-0.0028630487766334507,-0.0002914785313251938,0.001605090918019414,0.00038585951551795,-0.00035994034260511404
1676104292.9778419,681,1676104292,967359616,base_link,-0.0011077044198889634,-0.0031065521839993373,-2.2556384056486082e-05,0.0001555914932396263,-6.753136403858662e-05,-3.105634823441505e-05
1676104293.007975,682,1676104292,997361920,base_link,-0.0013790185958647695,-0.0033476901313785105,0.00011962421858389924,0.00040065895882435143,0.00014924607239663593,-0.0005784579552710056
1676104293.041097,683,1676104293,38361920,base_link,-0.0010319346487762861,-0.00339404379897018,8.567311379949449e-05,0.00123318110127002,0.0012366867158561945,-0.0003982274793088438
1676104293.0751796,684,1676104293,67361920,base_link,-0.0010481442609861949,-0.003209267135431185,-0.00012925550560769655,-7.004005601629615e-05,0.0012186937965452669,-0.0013009575195610525
1676104293.1104262,685,1676104293,97363712,base_link,-0.001269685895149666,-0.003238812598613055,-0.00022855224912739154,-0.00013909587869420648,-0.0006895337719470264,-0.0006699776276946067
1676104293.140714,686,1676104293,137363712,base_link,-0.0009930466680642966,-0.0035936154233294107,9.908799131283693e-05,-0.0013492446159943938,0.0007617780938744545,0.00042650336399674405
1676104293.1762419,687,1676104293,167363712,base_link,-0.0009549435374501161,-0.003510839520402882,0.00023956222061825266,-0.00017750536790117621,-0.0006144921062514186,-0.00012799073010683052
1676104293.2101095,688,1676104293,197367040,base_link,-0.0010305462097249926,-0.00360854667211691,0.0003877205521871785,-0.0004744279431179166,-0.001447211718186736,0.0006810347549617293
1676104293.2427456,689,1676104293,237367040,base_link,-0.0007916130666027009,-0.003955034333323839,0.00039569113581289114,0.0005277633899822831,0.0009064271580427884,-0.0006037261337041856
1676104293.275635,690,1676104293,267367040,base_link,-0.0009975181553928472,-0.003987031903881534,0.0003951231283473394,-0.0003444866742938757,-0.0005713785067200661,-3.82913276553147e-06
1676104293.3100278,691,1676104293,298369600,base_link,-0.0010203084567966987,-0.004253966153399138,5.193069294999876e-05,-0.0019657330121845007,0.0004006919916719198,0.00019639870151877398
1676104293.346474,692,1676104293,338369600,base_link,-0.0008679030097762767,-0.004298213287746787,0.00029272685208243417,0.0007090221624821424,0.0005825161933898925,-0.0012797326780855656
1676104293.375245,693,1676104293,368369600,base_link,-0.001017634165451738,-0.004255706144025929,0.0003114367806168567,0.0014580825809389353,-0.0006200467469170691,-0.00047288509085774416
1676104293.4090662,694,1676104293,397372160,base_link,-0.000845284888760519,-0.004257158424846386,0.0003979541124796687,0.0005601278971880674,-0.0006783651188015936,0.0014443853870034218
1676104293.4410768,695,1676104293,438372160,base_link,-0.0008043360972214218,-0.004341180477694348,0.0004919015581201906,0.0007600118406116962,-5.829636938869958e-05,-0.00039604539051651955
1676104293.475681,696,1676104293,468372160,base_link,-0.0007211333979282804,-0.00472858082885947,0.0005053828331523989,0.0011620372533798218,-1.3683922588825136e-05,0.0007366286590695381
1676104293.5076857,697,1676104293,498374720,base_link,-0.0006882672491080965,-0.0048646637688106505,0.0003113912678274972,5.926474113948643e-05,-0.000575011014007032,-0.0009001069702208041
1676104293.5452533,698,1676104293,538374720,base_link,-0.0005302556559434815,-0.005185927842550426,0.00044155332904187677,0.00046300943358801305,-0.00018673366867005828,-0.00012669153511524198
1676104293.5776358,699,1676104293,568374720,base_link,-0.0006385646864110385,-0.005223824223664779,0.0004716820971688723,0.0012838889379054308,0.0002300555352121594,0.002058975864201784
1676104293.608611,700,1676104293,598377280,base_link,-0.0006739857027761826,-0.00533889090551424,0.0006563250067669762,0.0016214067582041025,-0.0016162032261490822,0.0003639245405793192
1676104293.6468644,701,1676104293,638377280,base_link,-0.0008198926535904207,-0.005695576261871765,0.0008369485300351607,0.0011762373615056276,0.0011484518181532621,-0.0008549815975129605
1676104293.6761837,702,1676104293,668377280,base_link,-0.0007644959148036917,-0.005929327455898327,0.0009403175017450409,0.0018360589165240526,-0.0006142314523458483,-0.0014167912304401398
1676104293.709728,703,1676104293,698379328,base_link,-0.0007532957318302382,-0.006074261904812387,0.001069523006581162,0.00017753415158949792,-3.50968912243839e-06,0.00033241091296076775
1676104293.7426817,704,1676104293,738379328,base_link,-0.0006939696893945564,-0.00611784753466662,0.0009119338277128519,0.0005754171870648861,0.0004713439848273992,-0.0003715758211910725
1676104293.7752295,705,1676104293,768379328,base_link,-0.000818751184137493,-0.006106556643826924,0.0008936952696154339,0.0020093494094908237,0.0008937381207942963,0.00011654663830995549
1676104293.8098247,706,1676104293,798381888,base_link,-0.0006534764024124363,-0.006057471634180434,0.0011650396071363415,0.0006208277773112059,-0.00014358479529619222,-0.0005158348940312862
1676104293.8453205,707,1676104293,838381888,base_link,-0.0007100948414854353,-0.006319445806551381,0.0013954906941979625,0.003288815962150693,0.0006146118976175784,-0.0013053780421614647
1676104293.8760328,708,1676104293,868381888,base_link,-0.0009086048663750448,-0.006813996665058871,0.0012412736689883133,0.0002146765764337033,0.0011637108400464058,7.436145097017146e-06
1676104293.9110632,709,1676104293,898383936,base_link,-0.0011693888523298622,-0.006884964324463768,0.0010336412010709117,0.0016639020759612322,-0.0006058760918676854,-0.0005860496312379836
1676104293.9457319,710,1676104293,938383936,base_link,0.001369688965067404,-0.007340504874412488,-0.0004748731033098169,0.0016639020759612322,-0.0006058760918676854,-0.0005860496312379836
1676104293.978059,711,1676104293,968383936,base_link,0.00314508909227674,-0.010901294410039864,0.000286801844770985,0.019832441583275795,0.04322085157036782,0.031106345355510705
1676104294.010491,712,1676104293,998386496,base_link,0.00857790462041017,-0.017176652915809783,0.0028270965484049468,0.07559916377067566,0.08938743174076082,0.07405096292495726
1676104294.0445397,713,1676104294,38386496,base_link,0.002358224130589405,-0.06132236105047386,-0.0003758519237478371,0.3278970718383789,0.06209786236286164,0.08079276978969573
1676104294.0752792,714,1676104294,68386496,base_link,-0.0253265803966993,-0.0801648484720067,0.0023341742081868645,0.764439046382904,-0.13141776621341705,0.043529979884624495
1676104294.1087947,715,1676104294,98389056,base_link,-0.028594617765378427,-0.07833660419337231,0.0032849332451615203,0.7287130355834961,-0.28193220496177673,0.06793469190597537
1676104294.1432545,716,1676104294,138389056,base_link,-0.023703497669786043,-0.05509954879868751,0.004084212423095676,0.6404217481613159,-0.2869916260242462,0.059435740113258397
1676104294.1755486,717,1676104294,169389056,base_link,-0.01932252416240583,-0.04023568018597118,0.0026882430018764,0.36646103858947754,-0.2141871601343155,-0.0059726350009441116
1676104294.2094429,718,1676104294,198391360,base_link,-0.004437050164471043,-0.022527973578495956,0.0028023020176662066,0.17721527814865112,-0.06730101257562636,0.09912409633398057
1676104294.2421813,719,1676104294,238391360,base_link,-0.0020019101824344174,-0.017318917522299023,0.00012208693379375406,0.01940905675292015,0.01826392672955989,-0.06804832816123962
1676104294.2751272,720,1676104294,269391360,base_link,-0.004089191293477644,-0.011471781515628072,0.002987285207272692,0.04506940394639969,-0.012593250721693035,0.02550671249628067
1676104294.309124,721,1676104294,299393920,base_link,-0.0035081748545062316,-0.01777746113558777,0.0003527151978344389,-0.001484055770561099,-0.018040288239717494,-0.07908891141414642
1676104294.3414364,722,1676104294,329393920,base_link,-0.006467444674902539,-0.013578466102966709,0.0015489975866250932,0.010722358711063862,-0.016495553776621822,-0.0181170143187046
1676104294.3746948,723,1676104294,369393920,base_link,-0.0032401500424592755,-0.020205532256412036,0.0005460295714322219,-0.013996836729347706,0.03399444371461868,0.0013830033130943734
1676104294.4083076,724,1676104294,399396480,base_link,-0.0070354192511089386,-0.015342593829770334,0.003453169261679101,0.024641763418912888,-0.053777594119310365,0.10329105705022812
1676104294.4415867,725,1676104294,429396480,base_link,-0.0008490145864683194,-0.018568067840828595,0.0003097540262429239,0.038806650787591934,-0.03349275887012481,0.047201786190271385
1676104294.4759092,726,1676104294,469396480,base_link,-0.009241815181668141,-0.014798968061236721,0.0012173782293918992,0.020391948521137238,-0.022152086719870564,0.041622985154390335
1676104294.5090559,727,1676104294,499399296,base_link,-0.005866730204400533,-0.018300867765471136,0.0008976612677406441,-0.046616945415735245,0.022260539233684547,0.062340859323740005
1676104294.5412414,728,1676104294,529399296,base_link,-0.006953027195075618,-0.014178444613788739,0.0014129110368442277,0.045051880180835724,-0.0690932422876358,-0.032479420304298394
1676104294.5749373,729,1676104294,569399296,base_link,-0.01223764631822843,-0.012679334557250463,0.0013817872704948199,-0.026881370693445206,0.02861971221864223,-0.017979620024561885
1676104294.6108136,730,1676104294,599401856,base_link,-0.0032429602597633615,-0.016333555287187607,0.0008193929379948264,-0.030903946608304977,0.041337396949529655,0.0651167705655098
1676104294.6464336,731,1676104294,639401856,base_link,-0.006831026105850308,-0.008345108447534779,0.0017219792424898069,0.021867191419005394,-0.027880948036909107,-0.02673748135566711
1676104294.6766126,732,1676104294,669401856,base_link,-0.006805951110099338,-0.010669684427495696,0.0013181594563323167,-0.031867437064647675,0.03395037353038787,-0.04923758655786515
1676104294.7099543,733,1676104294,699404416,base_link,-0.006318216331962607,-0.011312614161713386,0.002086711731420528,0.013442711904644966,-0.03465713933110236,0.11165764182806015
1676104294.7448375,734,1676104294,739404416,base_link,-0.005686364482927091,-0.006939697360947643,0.0018748428079905968,0.0004882311914116144,0.06056953594088554,-0.05136512219905854
1676104294.7760289,735,1676104294,769404416,base_link,-0.00013811682855622407,-0.010787689696655037,0.00041427438606253536,-0.01840135082602501,0.025190129876136787,0.05505191907286644
1676104294.809508,736,1676104294,799406976,base_link,-0.005953118141368265,-0.0050561784281959185,0.0011785141442598765,0.04081665724515915,-0.035494506359100335,0.03826618194580079
1676104294.8455157,737,1676104294,839406976,base_link,-0.007112541525563362,-0.0040452754771151565,0.002382623853345397,0.009770849719643593,0.0322398990392685,0.05834646895527839
1676104294.8751726,738,1676104294,869406976,base_link,-0.0011328241558005779,-0.004064489739773633,7.183988461311606e-05,0.028852950781583786,-0.07915290445089339,0.1452198624610901
1676104294.9088583,739,1676104294,899409792,base_link,-0.0040447006828563505,4.5907727898211615e-05,0.0015780005612772543,-0.02512439154088497,0.01977576315402985,0.017964098602533337
1676104294.9416003,740,1676104294,930409792,base_link,0.0034056449742036637,-0.004915066923223979,-0.0005976712561996947,0.025972871109843254,-0.026338297873735417,0.08774475753307343
1676104294.9741218,741,1676104294,969409792,base_link,-0.002559045875480796,0.0010081627760379545,0.0012061778428825128,0.006853354629129171,-0.011687383055686956,-0.04002581536769867
1676104295.0093572,742,1676104295,412352,base_link,6.194505994381072e-05,-0.0005301644067797207,0.0014776906408643347,-0.021510722115635872,-0.0018359652021899815,0.003726976923644543
1676104295.0429475,743,1676104295,30412352,base_link,-0.0019042068266658372,0.0028857279068691282,0.0010620345597526478,0.023408109322190285,-0.029564583674073205,0.11600073426961899
1676104295.076869,744,1676104295,70412352,base_link,-0.004826062429041534,0.007096764230166852,0.0014456008748853558,0.014186156913638115,0.0197386983782053,0.01066091004759073
1676104295.1098342,745,1676104295,100414656,base_link,0.0013981953328173187,0.0004233700800843759,-0.00011055696152256125,-0.017281867563724518,0.023915888741612438,0.023566821590065953
1676104295.1432798,746,1676104295,130414656,base_link,-0.002806209200919393,0.0063691380809809415,0.0012430363183614575,-0.007361104246228933,-0.021373596042394628,0.07652761042118073
1676104295.1753137,747,1676104295,170414656,base_link,-0.003732653278715723,0.005610280911973372,0.0017595435759439949,-0.0577157586812973,0.0405430868268013,-0.018753387033939365
1676104295.2090237,748,1676104295,200417472,base_link,0.0002779962329874493,0.002665941397603212,7.827446568914835e-05,0.010737343691289425,0.03846153616905213,0.042679604142904275
1676104295.241043,749,1676104295,230417472,base_link,-0.0037868737334967014,0.005941679117207599,0.002364326928115316,-0.01028477493673563,0.05191133171319961,-0.07484766840934753
1676104295.2748764,750,1676104295,270417472,base_link,0.003788763511572403,0.0030608456243840588,-0.0003998601592172369,-0.034512098878622055,0.04844074696302414,-0.012687690556049352
1676104295.3071086,751,1676104295,300420032,base_link,-0.0013724863733208504,0.008599179640987003,0.00045115516796145536,0.012812617234885693,-0.04436370730400084,0.13186603784561157
1676104295.3403077,752,1676104295,330420032,base_link,0.004488834698962335,0.006329233153482343,-7.755940188056551e-05,-0.016018282622098923,0.07150128483772278,-0.04913734272122384
1676104295.3760412,753,1676104295,370420032,base_link,0.0031679516454425974,0.005870781319102068,-0.0005779755885708003,0.02935924381017685,-0.045117773115634904,0.1137944683432579
1676104295.4103625,754,1676104295,400422336,base_link,4.6705199246171165e-05,0.009313336753894298,0.001220295422390124,-0.0066766743548214436,0.041772663593292236,-0.012247798964381223
1676104295.4428673,755,1676104295,430422336,base_link,0.004796477513203119,0.0048305958571187345,-0.0011279295649001334,-0.021749837324023247,-0.026685250923037505,0.18880817294120789
1676104295.4761908,756,1676104295,470422336,base_link,-0.021118232483084472,0.023304542429766213,0.03253118245639536,-0.014177870936691761,-0.022132163867354386,0.06445328891277313
1676104295.5092173,757,1676104295,500424896,base_link,-0.11787213816128243,0.10172230709836477,0.3317101110666019,-3.6055338382720947,-3.6587531566619873,-0.5835834741592403
1676104295.541644,758,1676104295,530424896,base_link,-0.09618496017420428,0.03635620756753668,0.8598845798605571,-3.3221113681793213,-3.643639087677002,-0.4121366143226619
1676104295.5757074,759,1676104295,570424896,base_link,-0.043706419245869155,-0.08677439677214278,1.4803622745962413,-1.5443503856658936,-2.876891613006592,-0.21077245473861658
1676104295.608554,760,1676104295,600427456,base_link,0.017007891813735538,-0.11890668282131354,1.72193984342681,-0.7671378254890442,-1.656733512878418,0.011269088834524358
1676104295.6467462,761,1676104295,640427456,base_link,-0.021265199125981647,-0.06147919888992918,1.71265862513753,-0.38453492522239685,-0.8071284294128418,0.018374549224972822
1676104295.6778617,762,1676104295,670427456,base_link,-0.11490597605660695,0.01680347109272477,1.60947321718476,0.30618005990982056,0.65654456615448,0.1808958798646926
1676104295.7113006,763,1676104295,700429504,base_link,-0.2622692609558058,0.10672136273021715,1.4505778344865323,0.796023428440094,1.3034582138061523,0.17900662124156935
1676104295.7410798,764,1676104295,730429504,base_link,-0.39287460294132187,0.1912637993895557,1.2876412579049945,0.9125975370407104,1.4409924745559692,0.16598337888717635
1676104295.7746773,765,1676104295,770429504,base_link,-0.5681003718484692,0.3250076322722234,1.0891302784395087,0.8600758910179138,1.459047794342041,0.16703122854232771
1676104295.8108585,766,1676104295,800432064,base_link,-0.679728652972411,0.3862971708834946,0.9606864624516502,0.8246893882751465,1.5125335454940796,0.17766448855400066
1676104295.840655,767,1676104295,831432064,base_link,-0.7464165658334381,0.4468018695830362,0.8901918311638987,0.9455634355545044,1.5098062753677368,0.07821569591760617
1676104295.877402,768,1676104295,871432064,base_link,-0.841492380366587,0.501468400655598,0.8822152901642051,0.8836824893951416,1.2505559921264648,0.18134126067161543
1676104295.9101064,769,1676104295,900434624,base_link,-0.8996744956577166,0.5269984433856274,0.8127884353410479,0.8454957604408264,1.4440335035324097,0.1249709799885748
1676104295.9427633,770,1676104295,931434624,base_link,-0.9354493922767684,0.5796907710686129,0.8127803209819279,0.8499184250831604,1.4967339038848877,0.14143317937850933
1676104295.9758909,771,1676104295,971434624,base_link,-0.9619416529857665,0.5957090679357487,0.7807858480473534,0.833156406879425,1.384423017501831,0.09905423969030364
1676104296.0094,772,1676104296,1437184,base_link,-0.9710668833164234,0.6260581623371996,0.6329037776740121,0.7508324980735779,1.2372734546661377,0.06806741654872879
1676104296.043268,773,1676104296,31437184,base_link,-0.9628119458957288,0.6074772867934396,0.605189740122069,0.698207676410675,1.13404381275177,0.0033103828318415685
1676104296.075427,774,1676104296,71437184,base_link,-0.9310826988486474,0.6104398090479539,0.4711717559858205,0.6189046502113342,0.9532053470611572,0.09567083418369282
1676104296.1082084,775,1676104296,101440000,base_link,-0.8940275506162204,0.5749370496835544,0.39850062155630717,0.48412492871284485,0.6898077130317688,0.07500670850276939
1676104296.1411173,776,1676104296,131440000,base_link,-0.845702756595588,0.5706627011513605,0.37336065217235925,0.49102625250816345,0.6339070796966553,0.01570314355194561
1676104296.1743495,777,1676104296,171440000,base_link,-0.7465257623674809,0.530773081551926,0.30270067518874416,0.29451480507850647,0.4056369662284851,0.08029317110776896
1676104296.207721,778,1676104296,201442816,base_link,-0.6931071029026958,0.4995626477448978,0.2771634711907243,0.2480195015668869,0.17258000373840332,0.005801740568131188
1676104296.245518,779,1676104296,231442816,base_link,-0.643019364357489,0.473621098387647,0.3133102158214013,0.1514662802219391,-0.16006425023078918,0.027495719492435476
1676104296.2766953,780,1676104296,271442816,base_link,-0.5508945768823832,0.4212585726447473,0.3204001996560367,0.14159148931503296,-0.20110775530338287,0.023815196007490182
1676104296.310414,781,1676104296,301445632,base_link,-0.4626026772059325,0.3660592898746082,0.34803303195609203,-0.05546911805868149,-0.3103983402252197,0.042011562734842335
1676104296.3426962,782,1676104296,331445632,base_link,-0.38876337676738765,0.32746298231653165,0.3115101392607709,-0.09786833077669144,-0.4993205666542053,0.07550035417079931
1676104296.375403,783,1676104296,371445632,base_link,-0.3198844120578971,0.28489674386632036,0.3462113038756431,-0.12110911309719086,-0.74955153465271,0.10181563347578058
1676104296.4088411,784,1676104296,401447680,base_link,-0.250291065923277,0.2447669337943003,0.3118650019159462,-0.4930933713912964,-0.6968487501144409,0.013578600250184621
1676104296.4419703,785,1676104296,431447680,base_link,-0.20799408188826077,0.18579502043031282,0.33697801305163266,-0.3909001350402832,-0.7875897884368896,-0.00949327647685995
1676104296.4747224,786,1676104296,471447680,base_link,-0.14111529205046344,0.12458471676401994,0.3452745316730951,-0.26785510778427124,-0.7776932716369629,0.03512890636920939
1676104296.5083156,787,1676104296,501450496,base_link,-0.1131505150526506,0.10071984395177204,0.359327016452561,-0.5386285185813904,-0.7498500943183899,0.04177603870630273
1676104296.5412934,788,1676104296,532450496,base_link,-0.08787582974321313,0.07387308252546039,0.39215176252062445,-0.5431604385375977,-0.8195733428001404,0.04115800186991701
1676104296.5748122,789,1676104296,571450496,base_link,-0.016330403047038748,0.013225002940543391,0.34568957337322914,-0.44664233922958374,-0.6397829651832581,0.02447967417538174
1676104296.6080766,790,1676104296,602453056,base_link,-0.01038154978159641,-0.014832177670799671,0.32690381844782035,-0.5185540318489075,-0.5707066059112549,0.0471314229071141
1676104296.643496,791,1676104296,631453056,base_link,-0.01292974773762744,-0.014991967487984346,0.3221368956446258,-0.535538911819458,-0.6327270269393921,0.03161128237843521
1676104296.676819,792,1676104296,671453056,base_link,0.03653899116206949,-0.049882118404434225,0.286435621426106,-0.5050950050354004,-0.42608243227005005,0.003604493336752109
1676104296.710966,793,1676104296,702455360,base_link,0.026357598962686562,-0.06261134952830692,0.28110419498127737,-0.38859519362449646,-0.4187442660331726,0.03147376701235776
1676104296.7423086,794,1676104296,732455360,base_link,0.011586052996406247,-0.061122659562180645,0.2717185387083516,-0.44276800751686096,-0.3475990891456604,0.0016569090075791307
1676104296.7758977,795,1676104296,772455360,base_link,0.022126173905419946,-0.05616783832690329,0.25987727748069706,-0.3635517656803131,-0.24930672347545624,-0.03169795498251912
1676104296.8082867,796,1676104296,802457920,base_link,0.023605886629434945,-0.07199219774213589,0.25756517110476584,-0.28342509269714355,-0.006513832602649924,0.025671064853668213
1676104296.841686,797,1676104296,832457920,base_link,0.01086826752902101,-0.07678358113652901,0.2653271292075117,-0.2125743180513382,-0.11488086730241776,0.01260616630315782
1676104296.8775377,798,1676104296,862457920,base_link,-0.007289980614886124,-0.06907752739139413,0.24441368638461286,-0.336504727602005,0.0779218226671219,0.07469023764133452
1676104296.9076734,799,1676104296,902460480,base_link,-0.01121970433617104,-0.05561284154646454,0.2200927177963355,-0.15896575152873993,0.0711551308631897,0.024778101593255986
1676104296.9472759,800,1676104296,932460480,base_link,-0.023327209408691298,-0.04866397784628777,0.23027814601470728,-0.1636020541191101,0.15575841069221497,-0.034063905477523825
1676104296.9760592,801,1676104296,972460480,base_link,-0.04342862650776605,-0.03031577458447312,0.16819492487757648,-0.028535114601254463,0.20080478489398956,-0.004141652956604982
1676104297.009677,802,1676104297,2463040,base_link,-0.05147217152033559,-0.03039725171072871,0.1933181133545965,-0.1588137447834015,0.39790698885917664,0.06135428696870799
1676104297.0427406,803,1676104297,32463040,base_link,-0.05302433819725183,-0.014509727726419437,0.18923526169639682,0.14669835567474365,0.1038455218076706,-0.02111563272774221
1676104297.075576,804,1676104297,72463040,base_link,-0.06523991231577338,0.0010837509556770267,0.14097920154423574,0.038849975913763046,0.36236637830734253,-0.025603068992495582
1676104297.1098013,805,1676104297,102465088,base_link,-0.06144342580166732,0.010512253391844254,0.12949144381928063,0.018950067460536957,0.38515299558639526,0.04967283457517619
1676104297.1416075,806,1676104297,132465088,base_link,-0.05039514196416617,0.011950394416840988,0.1299985941035953,0.27242064476013184,0.157337948679924,-0.027713201940059683
1676104297.1745045,807,1676104297,162465088,base_link,-0.04857738128576273,0.012913268035791377,0.14117558928433582,0.1522810012102127,0.23269681632518768,0.01532552205026147
1676104297.2095764,808,1676104297,202467136,base_link,-0.05343079248801134,0.010877107647517517,0.13980716203838423,0.07042068988084793,0.10164871811866759,-0.06079340353608133
1676104297.241345,809,1676104297,232467136,base_link,-0.07211864194007718,0.029602161644068113,0.15910179274559672,0.0771375298500061,0.17939811944961548,0.004704397637397029
1676104297.2763247,810,1676104297,272467136,base_link,-0.05761972818741102,0.04344751441531049,0.17374267239208935,0.20734183490276337,0.1181488037109375,-0.025132700800895705
1676104297.309404,811,1676104297,302469440,base_link,-0.05611854172728052,0.056306282367985766,0.1363055665289126,0.12229209393262863,0.3966562747955322,0.06405053287744517
1676104297.3428175,812,1676104297,332469440,base_link,-0.04852986646211838,0.0657365066039622,0.09647635451343607,0.26683536171913147,0.23131373524665833,0.020949121564626666
1676104297.3762567,813,1676104297,372469440,base_link,-0.03445043290641257,0.06372389100684399,0.0941411362324487,0.17307227849960327,0.22753868997097015,0.03458574041724202
1676104297.408522,814,1676104297,402472000,base_link,-0.03501109844934587,0.07432632472229508,0.08110823098270807,0.15744803845882416,0.2385847270488739,-0.02981411851942542
1676104297.4451587,815,1676104297,432472000,base_link,-0.029851606241547694,0.07749899540951384,0.12102538774190588,0.18474812805652618,0.17041555047035217,-0.02034042403101923
1676104297.4756224,816,1676104297,472472000,base_link,0.004536324998824604,0.05669986803588968,0.07857204268938016,0.22206497192382812,0.14245910942554474,0.03424917906522749
1676104297.5087564,817,1676104297,502474560,base_link,0.0042720302225923625,0.06412126945823936,0.07747231500428714,0.23707301914691925,0.07081294804811478,-0.015269536525011071
1676104297.5415945,818,1676104297,533474560,base_link,0.01220267400288669,0.06550438386277395,0.09893666256686975,0.20199428498744965,-0.07389745861291885,-0.02141072414815425
1676104297.575213,819,1676104297,563474560,base_link,0.03689563600275057,0.058279262052006564,0.09981055894695993,0.11626646667718887,0.09673576056957246,0.07286889851093291
1676104297.6079082,820,1676104297,603477120,base_link,0.031982254020074055,0.07587955036697959,0.06439659593673193,0.14529487490653992,-0.012540871277451517,-0.0074871252290904505
1676104297.6411812,821,1676104297,633477120,base_link,0.061165519280976736,0.048138847918088604,0.06906752319691911,0.19853650033473969,-0.08901940286159515,-0.017565783113241185
1676104297.6747386,822,1676104297,663477120,base_link,0.07969547267299935,0.023562242071870344,0.0458614401548775,0.18730482459068298,0.005989501252770427,0.0268501378595829
1676104297.7080207,823,1676104297,703479680,base_link,0.06780637251042367,0.028834183391386436,0.0767344772381175,-0.032121967524290085,0.041855812072753906,0.027279427275061604
1676104297.7432313,824,1676104297,733479680,base_link,0.07957776003531142,0.02701793002159449,0.037769797493413436,0.014256865717470646,-0.15648521482944489,-0.003784670028835516
1676104297.7760339,825,1676104297,773479680,base_link,0.08317238591732846,-0.005767528697826176,0.05729114146617536,0.17647799849510193,-0.15060608088970184,-0.0357210151851177
1676104297.809928,826,1676104297,803482240,base_link,0.10050079035733264,-0.005352189745303051,0.054507272878090915,0.026978062465786934,-0.051309097558259964,0.001828432083129889
1676104297.8442907,827,1676104297,833482240,base_link,0.1157084906708054,-0.01437651986178326,0.011551921052483158,-0.057250846177339554,0.0043415129184722874,-0.023337097838521004
1676104297.8772058,828,1676104297,873482240,base_link,0.12668054936133255,-0.04871404822892101,0.02690249465306641,-0.028492501005530357,-0.12440470606088637,0.06102195754647256
1676104297.9090447,829,1676104297,903484800,base_link,0.13007855990936923,-0.04977751017603468,-0.010842945350723826,-0.11020131409168243,-0.11885803192853928,0.015774235129356398
1676104297.9461148,830,1676104297,933484800,base_link,0.13464766802291694,-0.07210578763076972,0.007006085956171292,-0.15178243815898895,-0.20196940004825592,-0.01602081954479215
1676104297.9786696,831,1676104297,973484800,base_link,0.15113638983221636,-0.08296730700518994,0.024175175985633,-0.18040212988853455,-0.07729720324277878,0.02893701009452344
1676104298.0088694,832,1676104298,3487360,base_link,0.12199930494193889,-0.08057496744237652,0.013535472449878332,-0.10925378650426865,-0.21988490223884583,0.013450030237436322
1676104298.0410988,833,1676104298,33487360,base_link,0.11545447975962174,-0.07371575091480251,0.03912400524023933,-0.11410322785377502,-0.29909461736679077,-0.026831243187189064
1676104298.0743175,834,1676104298,63487360,base_link,0.12595153301282966,-0.09057614894396533,0.0521675440457708,-0.16692285239696503,0.039531975984573364,0.017297705635428425
1676104298.1072736,835,1676104298,103490176,base_link,0.1176092079665492,-0.09739467677112648,0.024618807535038697,0.08221406489610672,-0.1053311750292778,0.025477942079305663
1676104298.1401064,836,1676104298,133490176,base_link,0.12143542841275684,-0.10103129547576428,0.0032655164485100923,-0.13742020726203918,0.07254043221473694,-0.020330632105469714
1676104298.1777444,837,1676104298,173490176,base_link,0.12163458853600963,-0.09239835616260611,-0.019114468702033188,-0.12794934213161469,-0.11225097626447679,-0.07494889944791792
1676104298.2081027,838,1676104298,203492736,base_link,0.12183373605480384,-0.09729484021408658,-0.0047750484308677265,-0.1542009860277176,0.1330036073923111,0.01248753629624842
1676104298.2462215,839,1676104298,233492736,base_link,0.12665131962656076,-0.10055273664428535,-0.031702391393412334,-0.08004064112901688,-0.001688623335212465,0.03426649048924446
1676104298.2768426,840,1676104298,273492736,base_link,0.11512415833775098,-0.10172535891374775,-0.027897879202551264,0.009526874870061874,-0.16778564453125,-0.05734289437532423
1676104298.3071077,841,1676104298,304495552,base_link,0.12320897179976897,-0.09947404846524739,-0.016037188770402028,-0.12562374770641327,0.007735434919595717,-0.01607932522892952
1676104298.341079,842,1676104298,334495552,base_link,0.12939296618858503,-0.10787923634886963,-0.020335821452168668,-0.12776289880275726,0.0868619754910469,-0.0043070157989859685
1676104298.3751593,843,1676104298,364495552,base_link,0.11245442484865008,-0.10051560960947642,-0.04946144154306624,-0.05572819709777832,-0.09195225685834886,-0.05796006321907042
1676104298.4069963,844,1676104298,404498112,base_link,0.12629193085327556,-0.09799976852677643,-0.04223544582200077,-0.12109137326478958,0.0017388937994837707,-0.04513160139322281
1676104298.4401813,845,1676104298,434498112,base_link,0.12212216352245404,-0.09460279435658682,-0.06165265423890047,-0.056508902460336685,0.09558925777673721,0.034689456224441514
1676104298.4763744,846,1676104298,464498112,base_link,0.10495616487197607,-0.09147347535685443,-0.048494379957560785,0.008333124220371246,-0.1205461323261261,-0.018366541713476167
1676104298.5098002,847,1676104298,504500928,base_link,0.10310844910970482,-0.0897940660066467,0.013535578526790711,0.12678566575050354,-0.10085993260145187,-0.04624262824654578
1676104298.5422206,848,1676104298,534500928,base_link,0.07987786733659712,-0.07118605024881373,0.006886327686015897,-0.10430034250020981,0.15147417783737183,0.057491399347782114
1676104298.575246,849,1676104298,564500928,base_link,0.083060530589383,-0.052135263971224914,-0.0163041823401184,0.035778481513261795,0.007131651509553198,0.03324279561638832
1676104298.6100633,850,1676104298,604503488,base_link,0.09848454092949345,-0.059089854127123906,-0.040955059809335545,0.06036379933357239,0.2262028008699417,-0.0028259265236556808
1676104298.6402369,851,1676104298,634503488,base_link,0.09382582835548092,-0.041513796852279836,-0.041015898137845605,0.15942828357219696,-0.006436328403651718,-0.03115924820303917
1676104298.6765578,852,1676104298,664503488,base_link,0.09496973295070778,-0.05671851954636815,-0.022972834150705505,0.12595365941524506,-0.01195620093494654,-0.03466867282986641
1676104298.7099903,853,1676104298,704506048,base_link,0.10020740112550937,-0.05214965710000395,-0.02853109884274707,-0.02463296614587307,0.07508833706378937,-0.0371898002922535
1676104298.7428493,854,1676104298,734506048,base_link,0.09185240130583902,-0.05072028346410916,-0.03868558692522385,-0.012999293394386768,-0.06172413751482963,0.03871985152363778
1676104298.7768383,855,1676104298,764506048,base_link,0.08273380269193675,-0.03399245578656032,-0.0701382431041585,0.009602771140635014,0.028808038681745533,0.036352436989545815
1676104298.8092673,856,1676104298,804508608,base_link,0.08334418313294974,-0.02613018398587055,-0.0446626344675744,0.031706009060144424,-0.07187958061695099,-0.044327918440103524
1676104298.842742,857,1676104298,834508608,base_link,0.10371058886233014,-0.038367783334151105,-0.07397006554012758,0.16976703703403473,-0.013965621590614319,0.0007847654633224028
1676104298.8753693,858,1676104298,864508608,base_link,0.09295458120960781,-0.04597017160775699,-0.07398550660487334,0.01059375423938036,0.2109447717666626,0.017475962638854956
1676104298.9088407,859,1676104298,904511168,base_link,0.08261161392915055,-0.049112921364058364,-0.040327365804643425,0.06143137812614441,-0.11522841453552246,-0.04180756583809851
1676104298.941397,860,1676104298,934511168,base_link,0.06998546315183982,-0.036914614138984,-0.03221838177472626,0.0446564257144928,-0.14705151319503784,-0.010217051953077299
1676104298.9751222,861,1676104298,964511168,base_link,0.061362810115758816,-0.03071521331669132,0.0016687009219767198,0.004767720587551594,-0.004972688853740695,-0.019623970612883568
1676104299.009413,862,1676104299,5513472,base_link,0.08516299614970753,-0.03963355997831562,-0.03498073731074866,0.10641290992498398,0.02459023147821426,-0.02779587917029858
1676104299.0413678,863,1676104299,34513472,base_link,0.07888226819480611,-0.03424294951713634,-0.06248501516611342,0.13559064269065857,0.048149473965168,0.016392411664128297
1676104299.0747068,864,1676104299,64513472,base_link,0.07738245545844193,-0.045547200174857395,-0.02416859712063208,0.09571295976638794,-0.0454840324819088,-0.01633298955857753
1676104299.10785,865,1676104299,104515520,base_link,0.0625544650212494,-0.004796025551028832,-0.03400898614623808,-0.13050703704357147,0.06847938150167465,0.009865845553576938
1676104299.1403074,866,1676104299,135515520,base_link,0.07539510962088351,-0.018154366797383796,-0.012627355236281406,0.07942896336317062,-0.11191855370998383,0.024780029430985465
1676104299.1781676,867,1676104299,164515520,base_link,0.08426597389647413,-0.03609377411289397,-0.04690751598637236,0.09483896195888519,0.04229352995753288,-0.011285113170742994
1676104299.2093704,868,1676104299,204518080,base_link,0.05311354773893938,-0.0337196996648325,-0.004583776367734948,0.1620287448167801,-0.22323626279830933,-0.05404659360647199
1676104299.242762,869,1676104299,235518080,base_link,0.05010596510009208,-0.026520579977995732,-0.057353016159990444,-0.06238178163766861,-0.025491157546639442,0.012639351189136509
1676104299.2760832,870,1676104299,265518080,base_link,0.05477799796463372,-0.02676487615778505,-0.10184997338980295,-0.08981078863143921,0.14933082461357117,-0.06163186579942705
1676104299.3092074,871,1676104299,305520640,base_link,0.06543685084109642,-0.04600769108627467,-0.09072487550154339,-0.01270630769431591,0.09886965900659563,0.06184459477663039
1676104299.3413603,872,1676104299,335520640,base_link,0.05183124642132689,-0.04189604673949226,-0.09160986199376818,0.11781134456396103,0.020592682063579563,0.01850948669016361
