Time,header.seq,header.stamp.secs,header.stamp.nsecs,header.frame_id,twist.linear.x,twist.linear.y,twist.linear.z,twist.angular.x,twist.angular.y,twist.angular.z
1676104288.873072,548,1676104288,532254400,base_link,-0.001137042068876326,-0.007824089378118515,0.0008198416908271611,0.0015884547991121243,-0.0011249451284985645,0.000999887050838601
1676104288.874017,549,1676104288,562254400,base_link,-0.0010643481509760022,-0.007960821501910686,0.0006935054552741349,0.0012317635887678985,-0.00046284908592870836,0.001487819560975894
1676104288.874495,550,1676104288,602256960,base_link,-0.001262649311684072,-0.008082862012088299,0.0005832310416735709,0.0018192715572858862,-0.00037967948697943183,8.883807870993722e-06
1676104288.8746376,551,1676104288,632256960,base_link,-0.001300702104344964,-0.008329483680427074,0.00040779527626000345,0.0016625778820028427,0.0011862223623077225,-0.0020200161681592746
1676104288.8747568,552,1676104288,662256960,base_link,-0.0013980960939079523,-0.008146279491484165,0.0004903554799966514,0.00047156072275493326,0.0003814307143958305,-0.002452141116494585
1676104288.8748868,553,1676104288,702259008,base_link,-0.0014387642731890082,-0.007869790308177471,0.0007850948022678494,-0.0001029234690013965,-7.393307131167729e-05,0.0015430711305256858
1676104288.8750894,554,1676104288,732259008,base_link,-0.0017799149500206113,-0.00794933270663023,0.0005048828315921128,0.0012499739648368252,0.00047317694466662385,0.00011371288804140064
1676104288.875468,555,1676104288,762259008,base_link,-0.0017589449416846037,-0.008124517276883125,0.0005937844980508089,-0.00032825030354485986,-0.0004949012830953604,-0.0013480898131426268
1676104288.8756845,556,1676104288,802259520,base_link,-0.0017027856083586812,-0.007823588326573372,0.0006522233015857637,0.0014107537925086534,0.0003304918428345062,-0.002511539680182564
1676104288.8759484,557,1676104288,832259520,base_link,-0.001630179351195693,-0.007658987771719694,0.0007420304464176297,-0.0003521504342722601,-0.0007628650385922192,-0.0008390020011560442
1676104288.8793254,558,1676104288,872259520,base_link,-0.0013959924690425396,-0.0071863881312310696,0.0007363299373537302,0.0015099326382139384,9.681524869048975e-05,0.0010358069775834445
1676104288.9131975,559,1676104288,902261824,base_link,-0.0013026153901591897,-0.0072437734343111515,0.000698465621098876,0.000954209378059844,0.0013425225778331096,-0.0007315141198501641
1676104288.9489498,560,1676104288,932261824,base_link,-0.001483618514612317,-0.007378853857517242,0.0007594841299578547,0.001451346814839191,0.0011241222095249666,-0.0019851024914219295
1676104288.976098,561,1676104288,972261824,base_link,-0.0015425164019688964,-0.007428289856761694,0.0007368474616669118,0.0013140926024716954,-0.0003324887179144796,0.00022851876924240833
1676104289.0097399,562,1676104289,2264384,base_link,-0.0016774543328210711,-0.00760347256436944,0.0006419210694730282,0.000785407547103109,0.0008272609626717134,-2.811727605555583e-05
1676104289.045897,563,1676104289,32264384,base_link,-0.0016381674213334918,-0.00739137502387166,0.0006431253277696669,0.0019674503816591166,-0.0007992909915412716,-0.0015291900950385906
1676104289.0756702,564,1676104289,72264384,base_link,-0.002114642644301057,-0.007403093855828047,0.0008854001644067466,0.0017540613249341713,0.0004441882919425525,0.0008822454272392631
1676104289.1084244,565,1676104289,102266944,base_link,-0.002451516455039382,-0.0073181944899261,0.0009186473325826228,0.00019029733277714237,0.0004008168182208287,-0.00025419110054719234
1676104289.1410153,566,1676104289,132266944,base_link,-0.002381327096372843,-0.0073111820966005325,0.0011995109962299466,0.001116984218031252,0.0013027346402550769,0.0013180795815324784
1676104289.1762662,567,1676104289,172266944,base_link,-0.0021802037954330444,-0.007244516629725695,0.001181630534119904,-2.189070046430711e-05,0.00012696738284506852,0.0015394905339790332
1676104289.2082534,568,1676104289,203269504,base_link,-0.0023207308258861303,-0.007210641633719206,0.0011469015153124928,-0.0001921514049603167,-0.0013105403049436725,0.000738051269571888
1676104289.2410452,569,1676104289,233269504,base_link,-0.002585356356576085,-0.007216109894216061,0.001207107212394476,0.0009514109364956996,-0.0003163431135800656,0.0006155070225393862
1676104289.2748218,570,1676104289,263269504,base_link,-0.0027362213004380465,-0.0071600875817239285,0.0011385377729311585,0.00012960709057753918,-0.00042092675245686566,-2.4715338586102758e-05
1676104289.3072305,571,1676104289,303272064,base_link,-0.0028372607193887234,-0.007407712284475565,0.0011000949889421463,-0.00020723153054603185,-0.0016510188185745113,5.470075196276688e-06
1676104289.3445237,572,1676104289,333272064,base_link,-0.0028173360042274,-0.007222360465675592,0.0010695141972973943,0.0004333762960763064,0.001763570564034789,0.0009456209990612064
1676104289.3769813,573,1676104289,373272064,base_link,-0.002823640126734972,-0.0071115349419415,0.0013456600718200207,0.0008480154214401562,-0.0013550484433151662,-0.0003140384307654155
1676104289.4092143,574,1676104289,403274624,base_link,-0.0028693145141005516,-0.007046137936413288,0.001484102220274508,0.0031588157104813185,0.0009730514111263665,-0.0002075608661673637
1676104289.4442642,575,1676104289,433274624,base_link,-0.002783884759992361,-0.007139073684811592,0.001452226541005075,-0.0005861437977670731,-0.0008442269833389564,-0.0017645437821494385
1676104289.47769,576,1676104289,473274624,base_link,-0.0028000150341540575,-0.007010537665337324,0.0011318287579342723,-0.0014013654496433773,0.00018825861688558348,0.0005948364736891011
1676104289.5113223,577,1676104289,503277440,base_link,-0.0030909490305930376,-0.006724640727043152,0.0010805666679516435,0.0007876045016081454,0.0009378391625771838,0.0006203505181307059
1676104289.5403168,578,1676104289,533277440,base_link,-0.0032910339068621397,-0.006424757186323404,0.0008762456709519029,0.0012722654435684865,0.0012824486464608198,-0.0006460340002238673
1676104289.5749903,579,1676104289,563277440,base_link,-0.003067111363634467,-0.006004617549479008,0.0008496363298036158,0.0026121677371933,0.0001621863749073181,-0.0007001631830202981
1676104289.607737,580,1676104289,603280000,base_link,-0.0030966317281126976,-0.0057615963742136955,0.0011416533961892128,0.0007354200420397386,-9.215188365031529e-05,0.0007865715059777532
1676104289.6406355,581,1676104289,633280000,base_link,-0.003242898965254426,-0.005677400156855583,0.0010384692577645183,0.0018121434323477737,-0.0005723573085842954,-0.0004888068654659073
1676104289.6765468,582,1676104289,673280000,base_link,-0.003171001560986042,-0.005334554240107536,0.0015905327163636684,0.00032697487469280474,0.0006661151213113409,-2.4366371521843255e-05
1676104289.7078867,583,1676104289,703282304,base_link,-0.003210680093616247,-0.005310275591909885,0.0013746438780799508,-0.0012547191029360946,-0.0012425914723023456,-0.0006341404258013168
1676104289.7403965,584,1676104289,733282304,base_link,-0.00308586354367435,-0.004932847805321217,0.0012634119484573603,0.001991558316274156,0.00035670326309646144,-0.001204013165261059
1676104289.7745264,585,1676104289,763282304,base_link,-0.002987600862979889,-0.0046715815551579,0.0011916446965187788,-0.0006509203734014233,-0.00041645849598896916,6.910287772011091e-05
1676104289.813413,586,1676104289,803286656,base_link,-0.0027572722174227238,-0.004472529515624046,0.0010615907376632094,0.0017582594575377315,-0.00015116884107364834,-0.0014763946132440792
1676104289.841277,587,1676104289,833286656,base_link,-0.0029606956522911787,-0.0041995057836174965,0.0009826989844441414,-0.0005923667759348509,0.0010049834197916828,0.00044907427779019383
1676104289.875208,588,1676104289,864286656,base_link,-0.0028400940354913473,-0.004181352909654379,0.001305708079598844,-0.0009200076902786435,0.0015273537810796484,0.0005469527107639071
1676104289.908041,589,1676104289,904288960,base_link,-0.002804175950586796,-0.004068570211529732,0.001539620803669095,0.0005798138310818789,0.0016291757393042832,0.000900720232568766
1676104289.9464715,590,1676104289,934288960,base_link,-0.0026736753061413765,-0.004133811220526695,0.0016735945828258991,0.00047526608501633903,8.154282654397126e-05,-0.0011700520133841603
1676104289.9757767,591,1676104289,963288960,base_link,-0.0025084675289690495,-0.00374505459330976,0.0015178420580923557,0.0023654936552568624,-0.0005690929017325466,0.0005533263607811564
1676104290.010184,592,1676104290,3292032,base_link,-0.002096933778375387,-0.0035516503266990185,0.0017612915253266692,1.906972672243272e-07,-0.0006473007906115418,-0.00015094335849081606
1676104290.0412874,593,1676104290,34292032,base_link,-0.002088085515424609,-0.003374882275238633,0.0018352515762671828,-6.902814816615037e-05,-0.0003519231866413338,-0.0020154582721041044
1676104290.0758805,594,1676104290,63292032,base_link,-0.001829308457672596,-0.0036320360377430916,0.0015459774294868112,0.0020582178391934988,0.0012160248345693494,0.0002563084782784545
1676104290.1098769,595,1676104290,104294592,base_link,-0.0015295909252017736,-0.0037612842861562967,0.0017622970044612885,0.00036789404117412906,-0.0003319019884516661,0.0013554921470323622
1676104290.1422644,596,1676104290,134294592,base_link,-0.0013454871950671077,-0.0035579781979322433,0.0014828392304480076,-1.4233848337798597e-05,0.0003026704682215641,0.0004090484635494071
1676104290.176115,597,1676104290,164294592,base_link,-0.0010810390813276172,-0.0032113471534103155,0.0016004430362954736,0.0007388294615987389,-0.00015737735607008238,0.0009852724280673358
1676104290.210106,598,1676104290,204296896,base_link,-0.0008715170552022755,-0.0033331119921058416,0.0015229746932163835,0.001361724976878186,-0.0006039389326958155,-0.000929076943587848
1676104290.2423933,599,1676104290,234296896,base_link,-0.0006756444345228374,-0.003292648820206523,0.0012104904744774103,0.0002531969675588793,0.0007822476846393728,0.0003090914296479022
1676104290.2759595,600,1676104290,264296896,base_link,-0.0007617643568664789,-0.0031832230743020773,0.0012430984061211348,-8.810164222234281e-05,0.0007741159513595534,-0.0006617163365792002
1676104290.309715,601,1676104290,304299456,base_link,-0.0004939474747516215,-0.0032519977539777756,0.001299553900025785,0.0004003440399912185,-0.000849268767774858,0.0006558542148240108
1676104290.342374,602,1676104290,334299456,base_link,-0.00038002865039743483,-0.003365646582096815,0.0013121210504323244,-0.00020639065248566704,0.0012461208044589431,0.001226651659240981
1676104290.3752005,603,1676104290,364299456,base_link,-0.000263413559878245,-0.0034498078748583794,0.0014642964815720916,0.00045238496712928373,0.0003371811646814978,0.0007452769384006135
1676104290.40919,604,1676104290,404302016,base_link,-3.643311356427148e-05,-0.0033200487960129976,0.0012467943597584963,0.0027378465305348196,-0.0003361409733199494,5.580492763486705e-05
1676104290.4411604,605,1676104290,434302016,base_link,-3.2844458473846316e-05,-0.003348603146150708,0.0015170015394687653,-0.0003444846101510994,-8.472024902807938e-05,-0.0006638780876769667
1676104290.4754524,606,1676104290,464302016,base_link,7.322430610656738e-05,-0.0032650763168931007,0.0017306701047345996,-0.00012533393718046633,-0.0008016567365786032,-3.6724621483707524e-05
1676104290.5085783,607,1676104290,504304576,base_link,5.684389907401055e-05,-0.003153410507366061,0.0019238031236454844,0.001381697746757442,-0.0003878474858996406,0.0010226957715991432
1676104290.540894,608,1676104290,534304576,base_link,-0.00029174680821597576,-0.0035138502717018127,0.0016343987081199884,-0.0003956188181011816,-0.0005083614382249674,0.0015543758361401521
1676104290.5742705,609,1676104290,565304576,base_link,-0.00010239281255053356,-0.003617700655013323,0.0017072079936042428,0.0019079185648677311,0.0006580415855319297,-0.0015826454165420159
1676104290.6074717,610,1676104290,604307136,base_link,-6.742215191479772e-05,-0.0035434719175100327,0.0018576175207272172,0.0006938485799749725,-0.0014371030224419729,0.00016745316754626134
1676104290.646662,611,1676104290,634307136,base_link,-0.00016402061737608165,-0.0035717948339879513,0.0017168198246508837,0.0012846097237256679,-0.0023656133305201064,-0.0004675590302363921
1676104290.6759639,612,1676104290,664307136,base_link,-0.00012745494314003736,-0.003410413395613432,0.0016663233982399106,0.0002240469710983332,0.00010975413703895507,-0.00037192417239844284
1676104290.7099118,613,1676104290,704309696,base_link,9.33642077143304e-05,-0.003675667103379965,0.0015616074670106173,-0.000946720484709995,-0.000496075499054925,0.0009180383142073592
1676104290.7469418,614,1676104290,734309696,base_link,-9.36745636863634e-05,-0.0037335797678679228,0.0014134375378489494,0.0013671704399712604,-6.747369503228691e-05,0.0005569260822708481
1676104290.7751405,615,1676104290,764309696,base_link,-0.00031241209944710135,-0.0037400429137051105,0.0011962827993556857,-0.00015693082339530252,0.0005383958459191588,0.0009018502009985421
1676104290.809098,616,1676104290,804312256,base_link,-0.0002514091902412474,-0.003678662935271859,0.0010920916683971882,-0.0003721264649054535,0.00031195923490470886,0.002219970998753102
1676104290.8432646,617,1676104290,834312256,base_link,-0.00011447280121501535,-0.0036493781954050064,0.0011340640485286713,0.0005076090811201048,0.0011621270693433056,1.3852265286298146e-05
1676104290.8751476,618,1676104290,864312256,base_link,-0.00016622939438093454,-0.004063177853822708,0.0011018303921446204,0.0027126924284221767,-0.0009978378006991746,-0.0013117193477111206
1676104290.9085677,619,1676104290,905314304,base_link,-0.00010217537055723369,-0.003943716175854206,0.0010781064629554749,0.0012615678204409247,0.0005782843529037801,-0.001051426959918731
1676104290.9404404,620,1676104290,935314304,base_link,-6.501768075395375e-05,-0.0036920439451932907,0.0008653872064314783,0.0025794913257553512,-0.00035632131567195634,-0.0009090134617692948
1676104290.9761791,621,1676104290,965314304,base_link,2.759945891739335e-05,-0.003954639192670584,0.000939131889026612,6.903551603500682e-05,0.0014167806263528338,-0.0006636534333477042
1676104291.0078962,622,1676104290,995315072,base_link,-0.00034101243363693357,-0.0039665233343839645,0.0008058090461418033,0.0007061380296627128,-0.0007307115391420207,-0.00021238787393962913
1676104291.0450552,623,1676104291,35315072,base_link,-0.0005253315321169794,-0.003925629425793886,0.0007270239293575287,-0.0006014650513084082,0.00046152020982909847,0.0004089132810921838
1676104291.076865,624,1676104291,65315072,base_link,-0.0007243314757943153,-0.0035780619364231825,0.0005754576995968819,0.001048290344596223,0.0008873702960885896,0.0014595558170920869
1676104291.107388,625,1676104291,95317632,base_link,-0.000604814849793911,-0.0033010346814990044,0.0005385182448662817,0.0020470533122491303,-0.0012331174406392113,-0.0013897745078413823
1676104291.1411257,626,1676104291,135317632,base_link,-0.0003791484341491014,-0.003178683575242758,0.0005846911808475852,0.0002811990871824078,2.7596115040715833e-05,0.0008493493760825861
1676104291.1749141,627,1676104291,165317632,base_link,-0.0002694590366445482,-0.0031368278432637453,0.0001543971593491733,0.0013345896704129161,-0.0014755203796008116,-0.00023458513301956836
1676104291.2074752,628,1676104291,195319168,base_link,-0.0006461873417720199,-0.0032346858642995358,-0.0001559925585752353,0.0005628620578117357,-0.00025489403688446074,0.0003947098880153301
1676104291.2405353,629,1676104291,235319168,base_link,-0.0009968288941308856,-0.0030815228819847107,-9.273244359064847e-05,0.0008411036905438333,-0.0004977024927198599,0.0008832654587112674
1676104291.279001,630,1676104291,266319168,base_link,-0.0008789962739683688,-0.003188069211319089,0.0002440897369524464,0.0012847639065689002,0.0006050111491746427,-7.026833235550538e-05
1676104291.3098276,631,1676104291,305321728,base_link,-0.0009981283219531178,-0.0031392360106110573,0.0003071083046961576,0.0009323951636195369,0.0028030308598257247,0.0008222004897802134
1676104291.3429856,632,1676104291,335321728,base_link,-0.0009662530501373112,-0.0032605112064629793,0.0004404370847623795,0.00023715383405300433,0.001149445176190941,-0.0008691166115735105
1676104291.3754592,633,1676104291,365321728,base_link,-0.0007519504288211465,-0.0030426133889704943,0.0005068507161922753,0.00019253632628832013,-0.00051519966932814,-0.00025524633164553877
1676104291.4088836,634,1676104291,405324544,base_link,-0.0010081102373078465,-0.0026775922160595655,0.0004847079690080136,0.0005333886352955383,-0.002021041728163583,0.0005205379082503644
1676104291.4413345,635,1676104291,435324544,base_link,-0.0011366463731974363,-0.0029519780073314905,0.0007338497089222074,0.0008595688641731332,-5.076647882481321e-05,0.00022884883037897958
1676104291.4742882,636,1676104291,465324544,base_link,-0.0011295985896140337,-0.0031302478164434433,0.0006338811945170164,0.0007561405081583113,7.46196806937674e-05,0.00015151460827101784
1676104291.5088935,637,1676104291,495327104,base_link,-0.0011442065006121993,-0.003383446717634797,0.0005334735615178943,0.0006018098806790008,0.0010510186949705654,-0.0010771400326013963
1676104291.5400603,638,1676104291,535327104,base_link,-0.0011839814251288772,-0.00343406293541193,0.0005649208906106651,-0.0005259656084084956,-0.00020924628482595962,7.485733109082817e-06
1676104291.5744135,639,1676104291,566327104,base_link,-0.0011973227374255657,-0.00352762290276587,0.00020525364379864186,0.000964993279045503,0.0009602459364189929,-0.001683502053067612
1676104291.6078904,640,1676104291,596329664,base_link,-0.0011969772167503834,-0.0033702754881232977,0.00012700980005320162,-0.0003769464746481512,0.0009409663173070956,-0.001307947244650888
1676104291.6431165,641,1676104291,636329664,base_link,-0.0010010272962972522,-0.0035353072453290224,4.1044215322472155e-05,-0.00017346608167843384,0.0001833005370906147,0.000793442325483699
1676104291.676035,642,1676104291,665329664,base_link,-0.0011412905296310782,-0.0036487486213445663,-0.00014206134073901922,0.0012030927970017508,-0.0008267147776231968,-0.00016818128522104757
1676104291.710209,643,1676104291,705332224,base_link,-0.0010983492247760296,-0.003480074228718877,-9.802772547118366e-05,0.00216943875457765,-0.0005630889580671595,-0.0011359889499273227
1676104291.7431526,644,1676104291,736332224,base_link,-0.0008407197892665863,-0.003726835362613201,0.0001256719115190208,0.0013032163973292665,0.0005400686342066193,-0.0020592237931425783
1676104291.7760105,645,1676104291,766332224,base_link,-0.0005039324751123786,-0.003869205480441451,9.154831786872819e-06,-0.00018611116734743835,-0.000278872518672574,-0.00011591750699328104
1676104291.810092,646,1676104291,806335040,base_link,-0.0004065818211529404,-0.004067420493811369,5.3599320381181315e-05,0.0009937264788744545,8.338720171666626e-05,-0.001108395914397706
1676104291.8427024,647,1676104291,836335040,base_link,-0.000567096343729645,-0.0042409747838974,1.2764694474753924e-05,-0.0006172736543370833,0.0008558267231874331,-0.0014832687509276478
1676104291.8756804,648,1676104291,866335040,base_link,-0.00031819252762943506,-0.004306368995457888,3.663309689727612e-05,0.0015512619423051753,-0.0001844478570269072,0.00012086288453280796
1676104291.909999,649,1676104291,906337600,base_link,-3.147606548736803e-05,-0.0043699913658201694,0.0003343661373946816,0.00025156102861320943,-5.5359160584755505e-05,0.00026117102819114607
1676104291.9412615,650,1676104291,936337600,base_link,8.136826181726065e-06,-0.00458860257640481,0.0002701063349377364,0.002690090792465061,6.093161253274397e-05,0.00034189640404704816
1676104291.9751246,651,1676104291,966337600,base_link,-0.0002794354222714901,-0.00458008237183094,0.0002194363041780889,0.0017521094938963407,0.0010730235869189514,-0.0009532127830172611
1676104292.007982,652,1676104291,996339904,base_link,-0.0004247588512953371,-0.004452785477042198,0.00013408345694188029,-0.0004928916207491882,0.0004218251618651991,-0.00030898545912162197
1676104292.0410304,653,1676104292,36339904,base_link,-0.0002991032670252025,-0.004484033677726984,0.0002088323381030932,-0.0004978026100699162,-0.0010255234036492895,-0.0010673552795545877
1676104292.0762744,654,1676104292,66339904,base_link,3.390026176930405e-05,-0.004244324751198292,0.00021166416991036385,0.0009426018662091121,-0.0005860327533813965,0.0006314166784516009
1676104292.1106243,655,1676104292,106341952,base_link,0.00018980215827468783,-0.0040572225116193295,0.00015199022891465575,0.0011945263257498665,0.00014984121935305856,-0.0007474028998727322
1676104292.140263,656,1676104292,136341952,base_link,2.2019254174665548e-05,-0.004224858246743679,0.00011971003550570458,0.00015944779848464462,0.0005449627048119931,2.2521858022553266e-05
1676104292.174369,657,1676104292,166341952,base_link,-5.552727452595718e-05,-0.004249590449035168,0.00010182234109379351,0.0007557139531106369,-0.0004646669744379804,0.0006564741963216005
1676104292.2100024,658,1676104292,206344256,base_link,0.00020118220709264278,-0.0041862060315907,-0.00011076543887611479,0.0024097869545148453,-0.0007598549273646171,0.00010483337534624647
1676104292.2424576,659,1676104292,236344256,base_link,0.00027513771783560514,-0.0039258734323084354,-0.0001422245695721358,0.0023403844383937406,0.00030245742305513434,0.00042216720849659633
1676104292.2761633,660,1676104292,266344256,base_link,0.00048705886001698673,-0.003907186444848776,-0.00017150379426311702,-0.00034644269625813017,0.0007758977390855936,-0.0007761064458863154
1676104292.307496,661,1676104292,296346560,base_link,0.0006613330915570259,-0.0033176320139318705,-0.00031343233422376215,0.003356548540587927,-0.000895838522086438,0.0011216541636004274
1676104292.3432367,662,1676104292,336346560,base_link,0.0008100705454126,-0.003230432514101267,-0.00030877761309966445,0.002530247660973911,4.296138490933464e-05,0.0003260074110612446
1676104292.375139,663,1676104292,366346560,base_link,0.0008046677685342729,-0.0033522495068609715,-0.0003474460681900382,0.0004788540003830156,-0.001229505871642294,-0.00043750426160071913
1676104292.4088063,664,1676104292,396348608,base_link,0.0007134106126613915,-0.003432542784139514,-0.0005335049936547875,0.00020760133533967966,0.0002581794934164821,0.0011299181476944488
1676104292.4439125,665,1676104292,436348608,base_link,0.0008008310687728226,-0.0032242301385849714,-0.0006884518079459667,0.00044769418831417626,0.0008407959639674754,0.0006463518540099383
1676104292.4755554,666,1676104292,466348608,base_link,0.0009071316453628242,-0.003275772789493203,-0.0003249027067795396,0.00047030717705741695,0.0015016779626200673,-0.001542086038165483
1676104292.5106363,667,1676104292,497351168,base_link,0.0008352054283022881,-0.0032567197922617197,-0.0003750586765818298,0.0015901609054890101,-0.0003680384524735908,0.0003104198226933892
1676104292.5419703,668,1676104292,537351168,base_link,0.000898274127393961,-0.003414550796151161,-0.00012768773012794554,0.002720386882749557,-0.0007247568533860468,0.00028430423547796274
1676104292.5743396,669,1676104292,566351168,base_link,0.0010434133000671864,-0.0033236746676266193,-0.000562384317163378,0.00034397455494950604,0.0006748710129663819,0.0012275368017252346
1676104292.6075034,670,1676104292,597353728,base_link,0.0007839335012249649,-0.0031340739224106073,-0.0005907985032536089,-0.0008354913421634043,-0.0004813080014567319,-0.0007527305438068396
1676104292.646034,671,1676104292,637353728,base_link,0.0005394392646849155,-0.0028839793521910906,-0.0007677692919969559,-5.3499495935443554e-05,0.0005585352510718563,0.001054344220158644
1676104292.6760237,672,1676104292,667353728,base_link,0.0003651142178568989,-0.0027364385314285755,-0.0006857351399958134,-0.0005328779346859499,-0.00034319678430899474,0.0007264774258245743
1676104292.7101974,673,1676104292,697356032,base_link,0.00031203488470055163,-0.0027510947547852993,-0.00039127160562202334,0.0008441637120263324,0.000647989917551907,0.0012884626970720288
1676104292.7424061,674,1676104292,737356032,base_link,0.0001417604653397575,-0.0028199278749525547,-0.00037671320023946464,8.43299983881729e-05,-0.0003944839430288873,0.0002002496876587524
1676104292.7769191,675,1676104292,767356032,base_link,-0.0001739560393616557,-0.0026816977187991142,-0.0003404987510293722,0.0009016140193188635,-0.0017189248899571016,-0.0004619438346454745
1676104292.8092747,676,1676104292,797358336,base_link,-0.00011759708286263049,-0.0024400788825005293,-0.00042580257286317647,0.0006115699310320933,0.0003557117065710066,-3.720734424400767e-05
1676104292.8423219,677,1676104292,837358336,base_link,-0.0003310970787424594,-0.00268377922475338,-0.0004596663056872785,-0.0007809694935412842,0.0017625395107644642,-0.0002712470319557035
1676104292.8765814,678,1676104292,867358336,base_link,-0.00043806657777167857,-0.0025169753935188055,-0.0003543526981957257,-0.0008200684885343974,0.0025045842043102213,-0.0018652637521160112
1676104292.9082417,679,1676104292,897359616,base_link,-0.000740697723813355,-0.0026078850496560335,-0.00018503463070373982,0.0021089449560789215,0.0013120668007266813,-0.00044376099892858717
1676104292.9411573,680,1676104292,937359616,base_link,-0.0009744127164594829,-0.0028084043879061937,3.4329994377912953e-05,0.0016140704017018257,0.00021656683637820138,-0.00045015221734449976
1676104292.9777431,681,1676104292,967359616,base_link,-0.0013430218677967787,-0.0029932684265077114,0.0003388520854059607,0.0001485576767134573,-8.266134462234085e-05,-2.883424111700689e-05
1676104293.0075016,682,1676104292,997361920,base_link,-0.0016260793199762702,-0.0031960054766386747,0.0005142436129972339,0.00038715612991985324,5.6762025663654934e-05,-0.0006035758451556474
1676104293.041079,683,1676104293,38361920,base_link,-0.001285238889977336,-0.003273405134677887,0.00047406976227648556,0.0013073595515583863,0.0010862676743343329,-0.0005652860618211215
1676104293.075092,684,1676104293,67361920,base_link,-0.001295933616347611,-0.0031107724644243717,0.00024157745065167546,-2.8903986861771705e-05,0.001081508999283154,-0.0014184898630402647
1676104293.110394,685,1676104293,97363712,base_link,-0.001522932667285204,-0.0031323230359703302,0.00015321210958063602,-0.00021870307889956816,-0.0007407303903497688,-0.000589204514992763
1676104293.1406598,686,1676104293,137363712,base_link,-0.001261344412341714,-0.0034730257466435432,0.0005070841871201992,-0.001268328571788249,0.0009075288316807876,0.0003878222175964046
1676104293.1762419,687,1676104293,167363712,base_link,-0.0012113186530768871,-0.0033797232899814844,0.0006367723108269274,-0.00022923126466991482,-0.0006080148161720485,-5.710816423264121e-05
1676104293.2100887,688,1676104293,197367040,base_link,-0.001288144150748849,-0.0034554239828139544,0.0007966753328219056,-0.0005561934865638946,-0.0013273517100401656,0.000843859122345053
1676104293.2427027,689,1676104293,237367040,base_link,-0.0010764552280306816,-0.0038174057845026255,0.0008331725839525461,0.0005709284131776286,0.0007947102136001916,-0.0007121137969651667
1676104293.2756045,690,1676104293,267367040,base_link,-0.0012840505223721266,-0.0038325998466461897,0.0008426036220043898,-0.0003872387616566064,-0.0005391576159831553,6.718881166185084e-05
1676104293.3100026,691,1676104293,298369600,base_link,-0.0013411345425993204,-0.0041303918696939945,0.0005302596837282181,-0.0019195534111866698,0.000575752452926131,0.00021692536296992343
1676104293.3464413,692,1676104293,338369600,base_link,-0.0011829426512122154,-0.004162020515650511,0.0007692945073358715,0.0006991843890190439,0.00039007368825026017,-0.0013560003612660063
1676104293.3751879,693,1676104293,368369600,base_link,-0.0013280782150104642,-0.0041059167124331,0.0007882025092840195,0.001385766520727851,-0.0007804802880365167,-0.00045231047331131666
1676104293.4087644,694,1676104293,397372160,base_link,-0.001152929849922657,-0.004112460184842348,0.0008687323424965143,0.0005644624366381218,-0.0005706657540600347,0.0014885880549705935
1676104293.441055,695,1676104293,438372160,base_link,-0.0011147696059197187,-0.0041895038448274136,0.0009695967892184854,0.0007366077310262595,-0.00015938179484419014,-0.00041215884199694226
1676104293.4756634,696,1676104293,468372160,base_link,-0.001061044167727232,-0.004578960593789816,0.0010208952007815242,0.001186442321059698,-3.216754054512554e-05,0.0006960312331902182
1676104293.5076077,697,1676104293,498374720,base_link,-0.0010466359090059996,-0.00473630940541625,0.0008411637390963733,-2.157178084411043e-05,-0.0006665788821950652,-0.0008363909296659832
1676104293.5451307,698,1676104293,538374720,base_link,-0.0009086008067242801,-0.0050543248653411865,0.0009991159895434976,0.0004417928610073057,-0.00023535859618567891,-0.00012133978358580495
1676104293.5775657,699,1676104293,568374720,base_link,-0.001018186449073255,-0.005080086644738913,0.0010366312926635146,0.0013800831071905863,0.0003344003795549972,0.0019809656655405856
1676104293.608377,700,1676104293,598377280,base_link,-0.001054767519235611,-0.00517252879217267,0.0012333639897406101,0.0015059378895456764,-0.0016960649370399749,0.00047856934509135564
1676104293.646652,701,1676104293,638377280,base_link,-0.001220171106979251,-0.005496049765497446,0.001454962301068008,0.0012253322377325498,0.0009568875601725991,-0.0010081649446470823
1676104293.6761782,702,1676104293,668377280,base_link,-0.001178839593194425,-0.00572172412648797,0.001580438343808055,0.0017245365452831227,-0.0009012877823503935,-0.0014033331948393253
1676104293.7096906,703,1676104293,698379328,base_link,-0.0011735432781279087,-0.0058531491085886955,0.0017237846041098237,0.00019006896984229675,1.6080100544456717e-05,0.0003250275758800528
1676104293.7424057,704,1676104293,738379328,base_link,-0.0011241291649639606,-0.005917181260883808,0.0015698965871706605,0.0005943691833487601,0.0003831284474292456,-0.0004373517460683201
1676104293.7751956,705,1676104293,768379328,base_link,-0.0012483064783737063,-0.0058977664448320866,0.0015547220828011632,0.002075111601086092,0.0007361442813569357,-4.2888730037362315e-05
1676104293.8098056,706,1676104293,798381888,base_link,-0.0010688203619793057,-0.005834823474287987,0.0018137721344828606,0.0005865381467903992,-0.0002449358547577524,-0.0005177922265886909
1676104293.8452034,707,1676104293,838381888,base_link,-0.0011360128410160542,-0.006066509988158941,0.0020721862092614174,0.0032706372152918094,0.0002114339728086489,-0.0014684338394168012
1676104293.8758469,708,1676104293,868381888,base_link,-0.0013779483269900084,-0.006556615699082613,0.001977099571377039,0.00030351011239385686,0.001137316163221676,-0.00012148171152094665
1676104293.911128,709,1676104293,898383936,base_link,-0.0016514441231265664,-0.006627168506383896,0.001786613604053855,0.001587343557086865,-0.0007944567232961046,-0.0005729651638253196
1676104293.9456785,710,1676104293,938383936,base_link,0.0007818830781616271,-0.007437028922140598,0.0002526339376345277,0.001587343557086865,-0.0007944567232961046,-0.0005729651638253196
1676104293.977711,711,1676104293,968383936,base_link,0.0023026056587696075,-0.011035234667360783,0.0013166866265237331,0.024381007648506835,0.04439625408770086,0.02575871821602809
1676104294.0104313,712,1676104293,998386496,base_link,0.007320873439311981,-0.017459267750382423,0.004264869261533022,0.08551200997981459,0.089760414919596,0.061803363168018564
1676104294.0443697,713,1676104294,38386496,base_link,-0.0023939169477671385,-0.06107006222009659,0.005554378032684326,0.3349994899244446,0.04270281712127588,0.06206381455753882
1676104294.0751991,714,1676104294,68386496,base_link,-0.0312234815210104,-0.07754354923963547,0.009240084327757359,0.7533941495696286,-0.18774525436854897,0.026105925748513743
1676104294.1084805,715,1676104294,98389056,base_link,-0.03436379134654999,-0.07569785416126251,0.007350594270974398,0.7067898222335104,-0.33429053482904025,0.061818806022820395
1676104294.1431391,716,1676104294,138389056,base_link,-0.027719777077436447,-0.05299823731184006,0.006107182241976261,0.6179372914747597,-0.3333171993175113,0.05558745328634786
1676104294.1755095,717,1676104294,169389056,base_link,-0.02227202244102955,-0.038644734770059586,0.0031682869885116816,0.34921480779275954,-0.24124076517217374,-0.007577339219920101
1676104294.2094266,718,1676104294,198391360,base_link,-0.006092913914471865,-0.022142844274640083,0.002760570961982012,0.17207903854634876,-0.08060736561974007,0.09824217371572373
1676104294.2421646,719,1676104294,238391360,base_link,-0.0032813455909490585,-0.017123015597462654,5.061534102424048e-05,0.02050783125391563,0.01709616036651172,-0.06802946146680497
1676104294.2751281,720,1676104294,269391360,base_link,-0.004916883539408445,-0.011155386455357075,0.002937471494078636,0.04409181948808521,-0.016036660296318467,0.02528182151208548
1676104294.3090787,721,1676104294,299393920,base_link,-0.00479865912348032,-0.017475102096796036,0.0002519931585993618,-0.0030202594971545254,-0.017366686066121146,-0.07919587475113206
1676104294.3412414,722,1676104294,329393920,base_link,-0.007438933476805687,-0.013079887256026268,0.0014767511747777462,0.009446251806225218,-0.017110617101866756,-0.018256330077290328
1676104294.3746629,723,1676104294,369393920,base_link,-0.004689719062298536,-0.019922539591789246,0.00039900591946206987,-0.01150459685125178,0.03490448293892054,0.0016636292369611163
1676104294.4082153,724,1676104294,399396480,base_link,-0.00811496376991272,-0.014827458187937737,0.0033332468010485172,0.020805487628844335,-0.05628696189060307,0.10279687839470283
1676104294.4414432,725,1676104294,429396480,base_link,-0.0021667671389877796,-0.0184627715498209,0.00014527096936944872,0.036355737517137644,-0.036589163380141766,0.046853208379526785
1676104294.4758453,726,1676104294,469396480,base_link,-0.010261350311338902,-0.014121063984930515,0.0010967475827783346,0.018833008057830693,-0.02393000469852099,0.04137260068298949
1676104294.5089862,727,1676104294,499399296,base_link,-0.0071258582174777985,-0.017855782061815262,0.0007343512843362987,-0.04488783664738773,0.024854317063190343,0.06262905869848268
1676104294.5412023,728,1676104294,529399296,base_link,-0.007920388132333755,-0.013674384914338589,0.0012836843961849809,0.04012334346063382,-0.07173404491759723,-0.03320850634972453
1676104294.5747995,729,1676104294,569399296,base_link,-0.01307679619640112,-0.011825199238955975,0.0012636900646612048,-0.024860770923026618,0.030572729150829932,-0.017669551663323957
1676104294.6107101,730,1676104294,599401856,base_link,-0.004336447920650244,-0.016085540875792503,0.0006510135135613382,-0.028087212935624092,0.04265188408857727,0.06554352267927385
1676104294.646258,731,1676104294,639401856,base_link,-0.007376829627901316,-0.0078844353556633,0.001639215974137187,0.019955674232302868,-0.029014403674022093,-0.02702498250399716
1676104294.676034,732,1676104294,669401856,base_link,-0.007495363708585501,-0.010210392996668816,0.0012116428697481751,-0.029516725885420356,0.0364561245691631,-0.04891027717671824
1676104294.709606,733,1676104294,699404416,base_link,-0.00703922426328063,-0.010900627821683884,0.0019685267470777035,0.011033230085030874,-0.036573587929350136,0.11130989753440948
1676104294.7447171,734,1676104294,739404416,base_link,-0.006120367906987667,-0.006580336019396782,0.0018026232719421387,0.004409318677674416,0.06093129208768256,-0.05074660962497873
1676104294.7759717,735,1676104294,769404416,base_link,-0.000812813697848469,-0.010761651210486889,0.0003019034047611058,-0.016830296985590975,0.025718475579030956,0.05530973934551746
1676104294.809421,736,1676104294,799406976,base_link,-0.006252955179661512,-0.0046935551799833775,0.0011245189234614372,0.038539418039034636,-0.03834411804199851,0.03787614079234853
1676104294.8453732,737,1676104294,839406976,base_link,-0.0073450724594295025,-0.0036352775059640408,0.0023375339806079865,0.011666320816970962,0.030929156716505965,0.0587066883571467
1676104294.8751266,738,1676104294,869406976,base_link,-0.001370368292555213,-0.003991253674030304,2.265476723550819e-05,0.024006113522198433,-0.0824533950671731,0.14426235705459373
1676104294.9088414,739,1676104294,899409792,base_link,-0.004036718979477882,0.00026031030574813485,0.001577635994181037,-0.023960744035017946,0.020979897608307336,0.018186570288371614
1676104294.941574,740,1676104294,930409792,base_link,0.003122948808595538,-0.005092352628707886,-0.0006547113298438489,0.024363464885866118,-0.02879316347659509,0.08743462562942822
1676104294.9740584,741,1676104294,969409792,base_link,-0.0025003482587635517,0.0011329796398058534,0.0012184369843453169,0.006225329538068385,-0.01155695636834374,-0.040166046853621996
1676104295.0092816,742,1676104295,412352,base_link,3.279498196206987e-05,-0.0005503896973095834,0.0014712160918861628,-0.02157997905460163,-0.0007297155042792256,0.003707331984086946
1676104295.0429237,743,1676104295,30412352,base_link,-0.0017520006513223052,0.002968146465718746,0.0010963333770632744,0.02176431465664414,-0.03212163432550885,0.11564034657895032
1676104295.0767903,744,1676104295,70412352,base_link,-0.0044623506255447865,0.007314507849514484,0.0015264680841937661,0.015159044931743889,0.018874779893630237,0.010884130898695454
1676104295.1098068,745,1676104295,100414656,base_link,0.0014171759830787778,0.00035623196163214743,-0.00010548117279540747,-0.016120853133844655,0.024465608114336894,0.02382393490874273
1676104295.1426342,746,1676104295,130414656,base_link,-0.002499031601473689,0.0064824772998690605,0.0013108006678521633,-0.008449892476762774,-0.021822372540480386,0.07628810519559269
1676104295.1751232,747,1676104295,170414656,base_link,-0.0034731230698525906,0.005757289472967386,0.001815208001062274,-0.05577815317406242,0.043337034313755435,-0.018364076402999092
1676104295.2090049,748,1676104295,200417472,base_link,0.0003936176944989711,0.0026504071429371834,0.00010516378824831918,0.012352209014188549,0.0375302348729786,0.04307009783144135
1676104295.2410264,749,1676104295,230417472,base_link,-0.00352967856451869,0.006074669770896435,0.002423584461212158,-0.007970122623042917,0.05307235445770038,-0.07431378580229178
1676104295.274821,750,1676104295,270417472,base_link,0.003910676576197147,0.0029082223773002625,-0.00036365416599437594,-0.032497380344723666,0.049942540955733666,-0.01217502775943501
1676104295.30695,751,1676104295,300420032,base_link,-0.0010362477041780949,0.00864060502499342,0.0005470702308230102,0.010922017911983575,-0.046308497381680226,0.13136660998495148
1676104295.340168,752,1676104295,330420032,base_link,0.004723933059722185,0.006156239192932844,-4.4926473492523655e-06,-0.01326513624873433,0.07259340141640522,-0.04835009610656075
1676104295.3759778,753,1676104295,370420032,base_link,0.0033761453814804554,0.005759675055742264,-0.0005136461113579571,0.02761983111053915,-0.0473425836888832,0.11332512684113474
1676104295.4093857,754,1676104295,400422336,base_link,0.0003627291298471391,0.009292783215641975,0.0013199058594182134,-0.0052339851720311385,0.04210429689089173,-0.011805742936864374
1676104295.4426076,755,1676104295,430422336,base_link,0.004953613970428705,0.004682397935539484,-0.0010723507730290294,-0.02285212174710471,-0.027946575839571216,0.18849523506040924
1676104295.476112,756,1676104295,470422336,base_link,-0.02048419788479805,0.023557251319289207,0.03275382146239281,-0.014854974395199772,-0.02237961935602146,0.06421490112609139
1676104295.509108,757,1676104295,500424896,base_link,-0.1355014592409134,0.13068893551826477,0.314376562833786,-3.71768665976893,-3.5459672077344564,-0.5760564681628635
1676104295.5415761,758,1676104295,530424896,base_link,-0.21203580498695374,0.16213279962539673,0.8238498568534851,-3.4429437451517617,-3.531735096410105,-0.3941724391527094
1676104295.5756176,759,1676104295,570424896,base_link,-0.43037697672843933,0.2670397460460663,1.3944095373153687,-1.6843501361111497,-2.8050797061217048,0.020999041935088232
1676104295.6084816,760,1676104295,600427456,base_link,-0.5798245668411255,0.3726893961429596,1.5825331211090088,-0.9008919696637141,-1.5788614196231558,0.17024586070567346
1676104295.646647,761,1676104295,640427456,base_link,-0.6441676020622253,0.44175970554351807,1.5255582332611084,-0.4537086830100787,-0.7654801063439722,0.08859837458658552
1676104295.6777785,762,1676104295,670427456,base_link,-0.6872639656066895,0.4853575825691223,1.3769481182098389,0.2913279623456205,0.6802510942100245,0.09953282881167409
1676104295.711276,763,1676104295,700429504,base_link,-0.7109221816062927,0.4926621615886688,1.1984257698059082,0.8162460741125867,1.2986878148889025,0.10886822452310009
1676104295.7410028,764,1676104295,730429504,base_link,-0.7450732588768005,0.5117157697677612,1.0158568620681763,0.9433628543534981,1.4270762861502602,0.10180303446765335
1676104295.7744489,765,1676104295,770429504,base_link,-0.7970128059387207,0.5613824129104614,0.8149804472923279,0.893534157385109,1.4460675798291187,0.08328084951287038
1676104295.8107817,766,1676104295,800432064,base_link,-0.8311598896980286,0.5698105096817017,0.7201834917068481,0.8597379643296217,1.501598104335933,0.07408610727717752
1676104295.8406045,767,1676104295,831432064,base_link,-0.8610262870788574,0.6044830083847046,0.6651654839515686,0.9949083449038354,1.4798241852474585,0.0008128707534976515
1676104295.877322,768,1676104295,871432064,base_link,-0.9152226448059082,0.6329803466796875,0.7068148255348206,0.9066249213499927,1.2410964070741504,0.1240187285898546
1676104295.910042,769,1676104295,900434624,base_link,-0.931108832359314,0.6294363737106323,0.6961413621902466,0.882016097681959,1.427052765540845,0.03579937880333867
1676104295.9427476,770,1676104295,931434624,base_link,-0.9388524889945984,0.6656487584114075,0.7397205829620361,0.8870132615206192,1.4810867071678275,0.04654774911036553
1676104295.9758265,771,1676104295,971434624,base_link,-0.9251641035079956,0.6569700837135315,0.7760729789733887,0.8675207919077323,1.366729451021899,0.0068348867353442855
1676104296.0093105,772,1676104296,1437184,base_link,-0.8972774147987366,0.655107319355011,0.707965075969696,0.779882344782506,1.220961616818197,-0.016262673571682238
1676104296.043199,773,1676104296,31437184,base_link,-0.8757649064064026,0.6255963444709778,0.7098979949951172,0.717935969874694,1.1191985319217064,-0.0743160637183569
1676104296.075355,774,1676104296,71437184,base_link,-0.8384948372840881,0.6137158274650574,0.617927074432373,0.6470440858812883,0.9388110628114974,0.02764141642815388
1676104296.1081257,775,1676104296,101440000,base_link,-0.7922611236572266,0.5652109980583191,0.5843795537948608,0.5057057061875769,0.6780412178688616,0.018959956246921435
1676104296.1410837,776,1676104296,131440000,base_link,-0.7438282370567322,0.5578014850616455,0.5620002746582031,0.500162952553592,0.6254061602846851,-0.04353976293359333
1676104296.174334,777,1676104296,171440000,base_link,-0.6500238180160522,0.5133141875267029,0.4945968687534332,0.3152930463231654,0.3954668511349298,0.0438586012101173
1676104296.207679,778,1676104296,201442816,base_link,-0.5989924073219299,0.47838205099105835,0.4681224226951599,0.24754767218622808,0.16954746190310716,-0.036124777185400074
1676104296.2454991,779,1676104296,231442816,base_link,-0.5431725382804871,0.4471437633037567,0.4908973276615143,0.1492835966227362,-0.1629861287678307,-0.021645839424574626
1676104296.2763324,780,1676104296,271442816,base_link,-0.45787012577056885,0.3922450840473175,0.469146728515625,0.13783940303453449,-0.2034350028301831,-0.025964234829200485
1676104296.310352,781,1676104296,301445632,base_link,-0.37226393818855286,0.33286476135253906,0.46877312660217285,-0.053986384352505926,-0.3126654005764032,0.02268791932294436
1676104296.3425293,782,1676104296,331445632,base_link,-0.3132181763648987,0.29842016100883484,0.41017961502075195,-0.09414565974314167,-0.5036096571860877,0.04597227306469948
1676104296.375179,783,1676104296,371445632,base_link,-0.24891117215156555,0.25441694259643555,0.42032095789909363,-0.1190741117147496,-0.7548042275225068,0.05434406944284893
1676104296.408883,784,1676104296,401447680,base_link,-0.19994260370731354,0.2208947241306305,0.3620010018348694,-0.4996420011912632,-0.6917512930689803,0.02759802577791839
1676104296.441874,785,1676104296,431447680,base_link,-0.16043326258659363,0.16159076988697052,0.373477041721344,-0.40292012033990027,-0.7813663450346757,-0.017684010189166516
1676104296.475083,786,1676104296,471447680,base_link,-0.10720838606357574,0.10442293435335159,0.3636641204357147,-0.2745441414140054,-0.7760475263028643,0.012766165403763633
1676104296.5082607,787,1676104296,501450496,base_link,-0.09007389843463898,0.08607610315084457,0.3695145845413208,-0.5435690016909446,-0.7462356206904114,0.04249966126488728
1676104296.541213,788,1676104296,532450496,base_link,-0.06977599114179611,0.061998169869184494,0.39780640602111816,-0.5489824040763659,-0.8157810260678547,0.039208989617936583
1676104296.57476,789,1676104296,571450496,base_link,-0.0108352554962039,0.009794982150197029,0.34601953625679016,-0.4514581993072282,-0.6363751728767313,0.024960164376820602
1676104296.6079924,790,1676104296,602453056,base_link,-0.012986607849597931,-0.012086405418813229,0.32692375779151917,-0.5227425999053774,-0.5668193400461689,0.047767091189979426
1676104296.6433997,791,1676104296,631453056,base_link,-0.019687741994857788,-0.008836198598146439,0.322022408246994,-0.5402442552138806,-0.6286790915614606,0.03230223535507973
1676104296.6767714,792,1676104296,671453056,base_link,0.02375638112425804,-0.03837950900197029,0.28953641653060913,-0.5077251441232926,-0.4229586152585527,-0.0011761713901387355
1676104296.710893,793,1676104296,702455360,base_link,0.010161640122532845,-0.04698175564408302,0.2851735055446625,-0.39263396289583063,-0.41486580773978904,0.03268815692828026
1676104296.7422361,794,1676104296,732455360,base_link,-0.006062213331460953,-0.043698422610759735,0.275236040353775,-0.4445462686098722,-0.3452975971895397,-0.004423239500352236
1676104296.7758558,795,1676104296,772455360,base_link,0.0015969234518706799,-0.03527167811989784,0.2644502818584442,-0.3620942218573718,-0.25026286307138157,-0.039809080832765256
1676104296.808263,796,1676104296,802457920,base_link,0.0016075053717941046,-0.048106830567121506,0.2641270160675049,-0.2846244240888422,-0.0037046599915129016,0.002535643604479824
1676104296.84108,797,1676104296,832457920,base_link,-0.012085802853107452,-0.05096333101391792,0.27142032980918884,-0.2139356469133611,-0.11289239640366908,0.0055870935937528555
1676104296.8772137,798,1676104296,862457920,base_link,-0.028696337714791298,-0.04300956428050995,0.24877619743347168,-0.34088678638808656,0.08548915574761716,0.03706314915079664
1676104296.907621,799,1676104296,902460480,base_link,-0.030322276055812836,-0.030795685946941376,0.22314044833183289,-0.1597911319414896,0.07351266253086688,0.003130454719478301
1676104296.9471588,800,1676104296,932460480,base_link,-0.04229192063212395,-0.02186254784464836,0.23167604207992554,-0.1587990662327077,0.15087592126233598,-0.0648535061868531
1676104296.976624,801,1676104296,972460480,base_link,-0.05596960708498955,-0.010360974818468094,0.16689720749855042,-0.026273400944147676,0.19895369413290095,-0.02968339159099996
1676104297.00966,802,1676104297,2463040,base_link,-0.06426367163658142,-0.007439520210027695,0.19172924757003784,-0.15901775901489237,0.40251155329098864,0.003731989066431613
1676104297.0423522,803,1676104297,32463040,base_link,-0.06431977450847626,0.007843371480703354,0.18610090017318726,0.14853295097708802,0.10049541270550395,-0.024265292127964265
1676104297.07555,804,1676104297,72463040,base_link,-0.07197370380163193,0.017470549792051315,0.13655446469783783,0.04272369201424297,0.3569169381276091,-0.06526266531970139
1676104297.109783,805,1676104297,102465088,base_link,-0.06617537140846252,0.025091838091611862,0.1250801980495453,0.019506206827133162,0.3882537215951309,0.006919616622352
1676104297.1415837,806,1676104297,132465088,base_link,-0.054309990257024765,0.02626396343111992,0.12626458704471588,0.2740371842986548,0.15272380801088686,-0.03626733307704597
1676104297.1744807,807,1676104297,162465088,base_link,-0.05116908624768257,0.027493372559547424,0.13814087212085724,0.15307972943909504,0.23260692199744384,-0.005727089556721725
1676104297.209478,808,1676104297,202467136,base_link,-0.055098436772823334,0.024720093235373497,0.13737642765045166,0.07155778716513223,0.09498631998110597,-0.06960212272045943
1676104297.2413294,809,1676104297,232467136,base_link,-0.07356958091259003,0.04494554549455643,0.15478430688381195,0.07776663500956006,0.1788022463371111,-0.011752545425873482
1676104297.276267,810,1676104297,272467136,base_link,-0.057858508080244064,0.05898181349039078,0.16902004182338715,0.20775581198309032,0.11483370963653089,-0.03510228905041939
1676104297.3093424,811,1676104297,302469440,base_link,-0.05492740496993065,0.06739287078380585,0.13168172538280487,0.1235683862222337,0.4002436440877916,0.03049437333592012
1676104297.3428028,812,1676104297,332469440,base_link,-0.047390442341566086,0.07313156872987747,0.09159717708826065,0.26745567661849196,0.23154575902613386,0.00020639788976895018
1676104297.3762047,813,1676104297,372469440,base_link,-0.0326000452041626,0.06997840851545334,0.09027945250272751,0.17403099331480504,0.22886442979222513,0.016072605208090764
1676104297.408295,814,1676104297,402472000,base_link,-0.03272682800889015,0.07890649139881134,0.0776623785495758,0.15694477335424578,0.23604343615365575,-0.04746865130339771
1676104297.4450865,815,1676104297,432472000,base_link,-0.026351014152169228,0.08389358222484589,0.11752381920814514,0.18430561534929468,0.16860145370936605,-0.034526127529553016
1676104297.4754567,816,1676104297,472472000,base_link,0.00719485804438591,0.06020790711045265,0.0757116973400116,0.22325792915601578,0.14324814467444352,0.02040397061272364
1676104297.5086987,817,1676104297,502474560,base_link,0.007238212041556835,0.0668698102235794,0.07488513737916946,0.23640110961320931,0.06966418051382613,-0.026695806830684555
1676104297.5412242,818,1676104297,533474560,base_link,0.016022903844714165,0.06885159015655518,0.09607766568660736,0.20096931021169595,-0.07502408369906549,-0.02652673904206716
1676104297.5751336,819,1676104297,563474560,base_link,0.04059343412518501,0.060953568667173386,0.09673026204109192,0.11897944943657002,0.09845560651914016,0.06584800057540521
1676104297.6078467,820,1676104297,603477120,base_link,0.03439440205693245,0.07717600464820862,0.0615498311817646,0.1449113213371369,-0.012989594260782784,-0.012486415047768932
1676104297.6411264,821,1676104297,633477120,base_link,0.06362216174602509,0.04931194707751274,0.06595031917095184,0.19767907966878392,-0.08972420093228908,-0.022853927804905052
1676104297.674521,822,1676104297,663477120,base_link,0.08120248466730118,0.023899823427200317,0.0429508350789547,0.18809838932574274,0.005925089314423033,0.02058617487901476
1676104297.707958,823,1676104297,703479680,base_link,0.07010520249605179,0.029195472598075867,0.07449952512979507,-0.031221717214750692,0.04209793248059671,0.027943969105486844
1676104297.743212,824,1676104297,733479680,base_link,0.08061669766902924,0.02708495780825615,0.0354471318423748,0.0138354515262814,-0.15653696094142655,-0.003156667212120345
1676104297.7765763,825,1676104297,773479680,base_link,0.08447451144456863,-0.005577576346695423,0.05537267029285431,0.17526681015839277,-0.1512548444981697,-0.038809583257292744
1676104297.8097768,826,1676104297,803482240,base_link,0.1015888974070549,-0.005309998523443937,0.05245567113161087,0.026890970717063357,-0.05136411315601255,0.0015446954817759464
1676104297.844185,827,1676104297,833482240,base_link,0.11587763577699661,-0.014617405831813812,0.009342964738607407,-0.05768894504398603,0.00437118899877904,-0.02222625889365334
1676104297.877144,828,1676104297,873482240,base_link,0.1269432008266449,-0.04890644550323486,0.025265542790293694,-0.027897497561716885,-0.12386624391063111,0.06237720782569729
1676104297.9093096,829,1676104297,903484800,base_link,0.1298282891511917,-0.0502636693418026,-0.011574999429285526,-0.1103860846653529,-0.11837328232554661,0.017974042945754134
1676104297.9451942,830,1676104297,933484800,base_link,0.13448619842529297,-0.07239898294210434,0.007083364762365818,-0.1524511988195309,-0.20171945341428238,-0.012414017951752697
1676104297.978566,831,1676104297,973484800,base_link,0.1508771926164627,-0.08298909664154053,0.025673022493720055,-0.1806413196331037,-0.07618950322742678,0.030348144751950044
1676104298.0087953,832,1676104298,3487360,base_link,0.12170886993408203,-0.08056895434856415,0.01596744731068611,-0.10996252927043573,-0.21915775459975378,0.018568364672760216
1676104298.0410829,833,1676104298,33487360,base_link,0.11495376378297806,-0.07290611416101456,0.0420091338455677,-0.11485490188342083,-0.29940280633247335,-0.0190620941823374
1676104298.0742474,834,1676104298,63487360,base_link,0.12515269219875336,-0.08902161568403244,0.05657946318387985,-0.16698031912940145,0.040517139361929744,0.014183118109118285
1676104298.1072583,835,1676104298,103490176,base_link,0.1171460971236229,-0.096635602414608,0.029361315071582794,0.08172513311924508,-0.1044572319634774,0.030209663045290363
1676104298.1400907,836,1676104298,133490176,base_link,0.12117194384336472,-0.10105609893798828,0.008341128937900066,-0.137066627646774,0.07194644337336656,-0.02441743525969202
1676104298.1776803,837,1676104298,173490176,base_link,0.1216321662068367,-0.09334336221218109,-0.013799461536109447,-0.12745817128884065,-0.11531882530800373,-0.07102560421589041
1676104298.2080822,838,1676104298,203492736,base_link,0.12169622629880905,-0.09757459163665771,0.0013318537967279553,-0.1540725968685261,0.13366890159780367,0.004254630146711877
1676104298.2461574,839,1676104298,233492736,base_link,0.12677784264087677,-0.10220078378915787,-0.025275079533457756,-0.08035768547585041,0.00017636113101991927,0.03355829754261229
1676104298.2768261,840,1676104298,273492736,base_link,0.11523686349391937,-0.10320384055376053,-0.02119775302708149,0.009825526742125756,-0.17068916599888154,-0.047954760268603285
1676104298.3070269,841,1676104298,304495552,base_link,0.12321918457746506,-0.10035309940576553,-0.008889121003448963,-0.12542098650271696,0.0069221748974722585,-0.017926719748247152
1676104298.3409233,842,1676104298,334495552,base_link,0.12943725287914276,-0.10902243852615356,-0.012414525263011456,-0.12756667801005858,0.08657132746854367,-0.010911434664569715
1676104298.3750923,843,1676104298,364495552,base_link,0.11286317557096481,-0.10351536422967911,-0.0417407788336277,-0.055200226576290486,-0.09538601573215463,-0.052675054949296654
1676104298.4068608,844,1676104298,404498112,base_link,0.12666283547878265,-0.10071676969528198,-0.03391309082508087,-0.12046779008955708,-0.0011409143657984113,-0.04678905578445714
1676104298.440156,845,1676104298,434498112,base_link,0.1227646917104721,-0.09870990365743637,-0.05338301882147789,-0.05678371509896897,0.09778849694175525,0.027330206838591383
1676104298.4762971,846,1676104298,464498112,base_link,0.10542216897010803,-0.09469906985759735,-0.04065895453095436,0.008372152093829448,-0.12153708209525785,-0.009837966126243552
1676104298.5092628,847,1676104298,504500928,base_link,0.10274386405944824,-0.08873545378446579,0.021148430183529854,0.12724653542567343,-0.10390630713049229,-0.03738328878314221
1676104298.5421512,848,1676104298,534500928,base_link,0.07965084165334702,-0.07061178237199783,0.012847901321947575,-0.10484804715667048,0.15510823552769643,0.04556941185142457
1676104298.5751743,849,1676104298,564500928,base_link,0.08316080272197723,-0.05320887267589569,-0.011664502322673798,0.035392644955034726,0.009382955982290803,0.03309629093566837
1676104298.610043,850,1676104298,604503488,base_link,0.0987127348780632,-0.06178218498826027,-0.03615093603730202,0.060666617869692976,0.2254562981955908,-0.017564177235784004
1676104298.6402369,851,1676104298,634503488,base_link,0.09399624913930893,-0.04415113478899002,-0.0377407968044281,0.15958182690668946,-0.008551738923300727,-0.029836403239718926
1676104298.6764436,852,1676104298,664503488,base_link,0.09499901533126831,-0.05811887979507446,-0.01900985650718212,0.12609108418768408,-0.014192031652075334,-0.03329889883063543
1676104298.7098813,853,1676104298,704506048,base_link,0.10027925670146942,-0.05381419137120247,-0.024964716285467148,-0.02431897118946498,0.07287417574603496,-0.04154593576905942
1676104298.7427754,854,1676104298,734506048,base_link,0.09197622537612915,-0.052966222167015076,-0.035226959735155106,-0.013313235605588138,-0.05940135544837185,0.04209886474128361
1676104298.7768185,855,1676104298,764506048,base_link,0.08313865214586258,-0.03812709078192711,-0.0674835667014122,0.009409500264245758,0.030868889253886953,0.034672596718330076
1676104298.8092546,856,1676104298,804508608,base_link,0.08360662311315536,-0.028786808252334595,-0.0424857921898365,0.031886495820178926,-0.07436956311765726,-0.03986638861813109
1676104298.8425198,857,1676104298,834508608,base_link,0.10411325842142105,-0.04267001152038574,-0.07098762691020966,0.16973337140191547,-0.014138357034375089,0.0026815666183253417
1676104298.8752975,858,1676104298,864508608,base_link,0.09321191906929016,-0.04999367520213127,-0.07099180668592453,0.010832827475600972,0.2115653089702996,0.006172805292074524
1676104298.9088383,859,1676104298,904511168,base_link,0.08279992640018463,-0.05126171559095383,-0.03714112192392349,0.061510655718194744,-0.11733402799043242,-0.035333262077039906
1676104298.9412084,860,1676104298,934511168,base_link,0.07018675655126572,-0.038641996681690216,-0.029652878642082214,0.044440189372680294,-0.14745467740043927,-0.002218045791325164
1676104298.974995,861,1676104298,964511168,base_link,0.06128394231200218,-0.030675310641527176,0.00386097002774477,0.0049457216443002504,-0.005996354888279835,-0.01929099744140243
1676104299.0093932,862,1676104299,5513472,base_link,0.08539427071809769,-0.04150786250829697,-0.032126668840646744,0.10668561163423064,0.022979034215686995,-0.02812724725927239
1676104299.0411706,863,1676104299,34513472,base_link,0.07929212599992752,-0.03742692247033119,-0.06009453535079956,0.13553278154736303,0.04877754560255897,0.014950637444590152
1676104299.0745919,864,1676104299,64513472,base_link,0.07745231688022614,-0.04673580080270767,-0.021531755104660988,0.09574019944603245,-0.04631597830173303,-0.013608041419380533
1676104299.1077843,865,1676104299,104515520,base_link,0.06276851892471313,-0.006429008673876524,-0.03333849087357521,-0.13050151152307854,0.06895409985455397,0.0057909345279284425
1676104299.140284,866,1676104299,135515520,base_link,0.07546473294496536,-0.018767910078167915,-0.011238030157983303,0.07917290809614107,-0.11065049490648031,0.030608680912509463
1676104299.1780994,867,1676104299,164515520,base_link,0.08457206189632416,-0.03815136104822159,-0.04467516019940376,0.09492086541618376,0.0417551769060517,-0.012532344995904734
1676104299.2093484,868,1676104299,204518080,base_link,0.05313722416758537,-0.033884767442941666,-0.0027085139881819487,0.1624002750781559,-0.22530524364016194,-0.043272107715376706
1676104299.2424982,869,1676104299,235518080,base_link,0.05066526308655739,-0.02887546457350254,-0.05570059269666672,-0.06251867833923241,-0.024940112120530045,0.013055445531805395
1676104299.276068,870,1676104299,265518080,base_link,0.05574259161949158,-0.03107718750834465,-0.10008684545755386,-0.08911801962376269,0.14659828302700215,-0.0687828598669938
1676104299.3092015,871,1676104299,305520640,base_link,0.06602047383785248,-0.04986737295985222,-0.08822830766439438,-0.013090185958552372,0.10144017447718892,0.05744520578631666
1676104299.341298,872,1676104299,335520640,base_link,0.05230302736163139,-0.04572942480444908,-0.08948372304439545,0.11771682481674094,0.021357631468457226,0.018242074806548284
