Time,header.seq,header.stamp.secs,header.stamp.nsecs,header.frame_id,airspeed,groundspeed,heading,throttle,altitude,climb
1676104288.9491696,2683,1676104288,929357386,,0.0,0.007443483453243971,94,0.0,1.9764550924301147,0.0007846009102649987
1676104288.9823062,2684,1676104288,981251816,,0.0,0.007586754392832518,94,0.0,2.22747540473938,0.0007368474616669118
1676104289.0302098,2685,1676104289,29492299,,0.0,0.007527868263423443,94,0.0,2.22747540473938,0.0006373304058797657
1676104289.0812845,2686,1676104289,80895157,,0.0,0.007699188776314259,94,0.0,2.1032862663269043,0.0008854001644067466
1676104289.1319127,2687,1676104289,131373283,,0.0,0.007833347655832767,94,0.0,1.894543170928955,0.0009975511347875
1676104289.1808517,2688,1676104289,180408598,,0.0,0.007565468084067106,94,0.0,1.9764550924301147,0.001181630534119904
1676104289.2319126,2689,1676104289,231391839,,0.0,0.0077766794711351395,94,0.0,2.1851983070373535,0.0011973883956670761
1676104289.2799935,2690,1676104289,279536680,,0.0,0.007771124131977558,94,0.0,1.8099889755249023,0.0011686821235343814
1676104289.3316233,2691,1676104289,330502884,,0.0,0.007885911501944065,94,0.0,1.9975935220718384,0.0011411563027650118
1676104289.3825014,2692,1676104289,381828745,,0.0,0.007651593070477247,94,0.0,1.9156817197799683,0.0013456600718200207
1676104289.4308565,2693,1676104289,430402703,,0.0,0.007650792133063078,94,0.0,1.8311275243759155,0.0016002580523490906
1676104289.4823442,2694,1676104289,481864134,,0.0,0.007549021393060684,94,0.0,2.22747540473938,0.0011318287579342723
1676104289.5310504,2695,1676104289,530384390,,0.0,0.0073121460154652596,94,0.0,2.22747540473938,0.0009948164224624634
1676104289.5809352,2696,1676104289,579655939,,0.0,0.0066607678309082985,94,0.0,2.061009407043457,0.0009156267042271793
1676104289.6341913,2697,1676104289,630867821,,0.0,0.006706284824758768,94,0.0,1.957958698272705,0.0009930755477398634
1676104289.6826253,2698,1676104289,681704881,,0.0,0.006205861922353506,94,0.0,1.9764550924301147,0.0015905327163636684
1676104289.730945,2699,1676104289,730429539,,0.0,0.00592490378767252,94,0.0,2.1217825412750244,0.0013564317487180233
1676104289.7800038,2700,1676104289,779438614,,0.0,0.005615066736936569,94,0.0,2.0187320709228516,0.0011706688674166799
1676104289.8316743,2701,1676104289,830983098,,0.0,0.005099961068481207,94,0.0,2.0398707389831543,0.0009048781939782202
1676104289.8802826,2702,1676104289,879508354,,0.0,0.004870268516242504,94,0.0,2.0398707389831543,0.0014116793172433972
1676104289.9302626,2703,1676104289,929435607,,0.0,0.0049237036146223545,94,0.0,1.894543170928955,0.0016169025329872966
1676104289.9813557,2704,1676104289,980739412,,0.0,0.004355521872639656,94,0.0,2.061009407043457,0.0015392553759738803
1676104290.0322144,2705,1676104290,31370704,,0.0,0.0040393490344285965,94,0.0,1.9975935220718384,0.0017773015424609184
1676104290.0820184,2706,1676104290,81377312,,0.0,0.004085132386535406,94,0.0,1.9975935220718384,0.001567741041071713
1676104290.1302598,2707,1676104290,129340035,,0.0,0.0038890307769179344,94,0.0,1.9975935220718384,0.001444038120098412
1676104290.1813335,2708,1676104290,180826527,,0.0,0.0033264439553022385,94,0.0,2.1032862663269043,0.0016208803281188011
1676104290.2320693,2709,1676104290,231325085,,0.0,0.003491692477837205,94,0.0,1.894543170928955,0.0014883977128192782
1676104290.2825003,2710,1676104290,281357785,,0.0,0.0032943799160420895,94,0.0,1.8099889755249023,0.001310930703766644
1676104290.3311353,2711,1676104290,330626378,,0.0,0.003340024035423994,94,0.0,2.0821478366851807,0.0013914552982896566
1676104290.3807974,2712,1676104290,380360031,,0.0,0.0034383139573037624,94,0.0,2.0398707389831543,0.0014154133386909962
1676104290.4319339,2713,1676104290,431417110,,0.0,0.0032915708143264055,94,0.0,2.142921209335327,0.0013944809325039387
1676104290.479953,2714,1676104290,479317242,,0.0,0.0033401967957615852,94,0.0,2.0398707389831543,0.001864943653345108
1676104290.5309014,2715,1676104290,530467095,,0.0,0.0034435393754392862,94,0.0,2.1032862663269043,0.0017042637336999178
1676104290.580404,2716,1676104290,579510917,,0.0,0.003645008895546198,94,0.0,1.9764550924301147,0.001877948991023004
1676104290.6307225,2717,1676104290,630291948,,0.0,0.0034782174043357372,94,0.0,1.9764550924301147,0.0016973281744867563
1676104290.6823936,2718,1676104290,681854271,,0.0,0.0035650753416121006,94,0.0,1.9764550924301147,0.0016880360199138522
1676104290.7302175,2719,1676104290,729302934,,0.0,0.0036497279070317745,94,0.0,1.9975935220718384,0.0015018030535429716
1676104290.7807515,2720,1676104290,780302385,,0.0,0.0037372733931988478,94,0.0,2.164059638977051,0.001332480227574706
1676104290.8303287,2721,1676104290,829394131,,0.0,0.003670863341540098,94,0.0,2.0821478366851807,0.001198353013023734
1676104290.8814063,2722,1676104290,880912955,,0.0,0.004224701318889856,94,0.0,2.1217825412750244,0.00112377037294209
1676104290.930856,2723,1676104290,930361135,,0.0,0.0038279565051198006,94,0.0,2.1851983070373535,0.0009388524340465665
1676104290.9818442,2724,1676104290,981294180,,0.0,0.003972959239035845,94,0.0,2.0821478366851807,0.0009740654495544732
1676104291.0310402,2725,1676104291,30462927,,0.0,0.003919252194464207,94,0.0,1.9975935220718384,0.0006496566929854453
1676104291.0807972,2726,1676104291,80421284,,0.0,0.0036654097493737936,94,0.0,2.142921209335327,0.0006386157474480569
1676104291.13082,2727,1676104291,130343957,,0.0,0.0032926700077950954,94,0.0,2.061009407043457,0.000597351579926908
1676104291.1801417,2728,1676104291,179337804,,0.0,0.003295877482742071,94,0.0,2.061009407043457,-2.0747702365042642e-05
1676104291.2310855,2729,1676104291,230321891,,0.0,0.0032245831098407507,94,0.0,2.1851983070373535,-0.000224472169065848
1676104291.2825763,2730,1676104291,281255646,,0.0,0.0032264385372400284,94,0.0,2.0821478366851807,0.0003193469310645014
1676104291.3308742,2731,1676104291,330436711,,0.0,0.003326175734400749,94,0.0,1.9975935220718384,0.0004608517629094422
1676104291.381409,2732,1676104291,380972347,,0.0,0.0030753479804843664,94,0.0,1.9553165435791016,0.000601372157689184
1676104291.4322066,2733,1676104291,431590278,,0.0,0.0030890738125890493,94,0.0,2.0187320709228516,0.000700137868989259
1676104291.4800563,2734,1676104291,479422010,,0.0,0.0035074688494205475,94,0.0,1.8522659540176392,0.0006437573465518653
1676104291.5310144,2735,1676104291,530470651,,0.0,0.003570455824956298,94,0.0,2.2063369750976562,0.0006390638882294297
1676104291.580813,2736,1676104291,579505886,,0.0,0.003589217085391283,94,0.0,2.0398707389831543,0.00026277071447111666
1676104291.632183,2737,1676104291,631638366,,0.0,0.0036168452352285385,94,0.0,2.164059638977051,5.994564162392635e-06
1676104291.681987,2738,1676104291,681365359,,0.0,0.003740055253729224,94,0.0,2.22747540473938,-0.00021939694124739617
1676104291.7305512,2739,1676104291,729404826,,0.0,0.0036716957110911608,94,0.0,2.22747540473938,5.1381535740802065e-05
1676104291.781919,2740,1676104291,781270555,,0.0,0.003956150729209185,94,0.0,1.8734045028686523,-4.0794649976305664e-05
1676104291.8304408,2741,1676104291,829539330,,0.0,0.004237916320562363,94,0.0,1.9975935220718384,2.141376353392843e-05
1676104291.880939,2742,1676104291,880403069,,0.0,0.004409316927194595,94,0.0,2.0398707389831543,0.0001801555190468207
1676104291.932159,2743,1676104291,931638667,,0.0,0.004518483299762011,94,0.0,1.894543170928955,0.00035819457843899727
1676104291.9799347,2744,1676104291,979470770,,0.0,0.004513520747423172,94,0.0,1.9764550924301147,0.00014636642299592495
1676104292.0303767,2745,1676104292,29138249,,0.0,0.004559457302093506,94,0.0,2.1032862663269043,0.00016078146290965378
1676104292.083121,2746,1676104292,81868589,,0.0,0.004210323560982943,94,0.0,2.061009407043457,0.00017811731959227473
1676104292.1312203,2747,1676104292,130518304,,0.0,0.0040824804455041885,94,0.0,2.1217825412750244,0.0001291513763135299
1676104292.1799767,2748,1676104292,179464658,,0.0,0.004225589334964752,94,0.0,2.061009407043457,3.070609091082588e-05
1676104292.2300975,2749,1676104292,229426910,,0.0,0.00406775064766407,94,0.0,1.9156817197799683,-0.00019037061429116875
1676104292.2823749,2750,1676104292,281393161,,0.0,0.003691001795232296,94,0.0,2.142921209335327,-0.00019106334366369992
1676104292.330264,2751,1676104292,329512576,,0.0,0.003470245748758316,94,0.0,2.142921209335327,-0.00021313305478543043
1676104292.3808959,2752,1676104292,380375413,,0.0,0.0034696476068347692,94,0.0,2.164059638977051,-0.00035976359504275024
1676104292.4340966,2753,1676104292,432647210,,0.0,0.00334201380610466,94,0.0,2.0821478366851807,-0.0007260583806782961
1676104292.4808671,2754,1676104292,480291583,,0.0,0.003456536680459976,94,0.0,2.061009407043457,-0.00038423907244578004
1676104292.530435,2755,1676104292,529747534,,0.0,0.0035087293945252895,94,0.0,1.9764550924301147,-0.00032545957947149873
1676104292.587264,2756,1676104292,584458263,,0.0,0.003465672256425023,94,0.0,2.0821478366851807,-0.00045508117182180285
1676104292.6307774,2757,1676104292,630309057,,0.0,0.0030031960923224688,94,0.0,2.2063369750976562,-0.0006111996481195092
1676104292.682034,2758,1676104292,681269947,,0.0,0.002796428045257926,94,0.0,2.1032862663269043,-0.0006185164675116539
1676104292.7305505,2759,1676104292,729525358,,0.0,0.0027375854551792145,94,0.0,2.1217825412750244,-0.0004515902837738395
1676104292.78275,2760,1676104292,781413055,,0.0,0.0025470724795013666,94,0.0,2.22747540473938,-0.0004321425803937018
1676104292.8304372,2761,1676104292,829431084,,0.0,0.002619863720610738,94,0.0,2.22747540473938,-0.0004261942522134632
1676104292.8809144,2762,1676104292,880477287,,0.0,0.002595250029116869,94,0.0,2.0398707389831543,-0.0002283882349729538
1676104292.93418,2763,1676104292,931614727,,0.0,0.00298526743426919,94,0.0,1.9156817197799683,-0.00010735877731349319
1676104292.9813192,2764,1676104292,980163500,,0.0,0.0034527957905083895,94,0.0,1.9975935220718384,0.00047424144577234983
1676104293.0309093,2765,1676104293,30392099,,0.0,0.003613196313381195,94,0.0,2.0187320709228516,0.0005056692170910537
1676104293.0813472,2766,1676104293,80633275,,0.0,0.003475666046142578,94,0.0,1.8311275243759155,0.00021017069229856133
1676104293.1309435,2767,1676104293,130427167,,0.0,0.0036192662082612514,94,0.0,2.2063369750976562,0.00039811438182368875
1676104293.1821039,2768,1676104293,181355971,,0.0,0.003733383258804679,94,0.0,2.0821478366851807,0.000629646994639188
1676104293.2308583,2769,1676104293,229940323,,0.0,0.003995174076408148,94,0.0,1.9764550924301147,0.0008054307545535266
1676104293.2809372,2770,1676104293,280424418,,0.0,0.004225451499223709,94,0.0,2.1217825412750244,0.0006467061466537416
1676104293.3315518,2771,1676104293,330438507,,0.0,0.00434620026499033,94,0.0,1.894543170928955,0.0008114869124256074
1676104293.3806193,2772,1676104293,380220473,,0.0,0.004286685958504677,94,0.0,1.9156817197799683,0.0007883264916017652
1676104293.4353435,2773,1676104293,432012068,,0.0,0.004297543782740831,94,0.0,2.061009407043457,0.0010289873462170362
1676104293.480456,2774,1676104293,479344307,,0.0,0.004700286779552698,94,0.0,2.061009407043457,0.0010208952007815242
1676104293.5310907,2775,1676104293,530386627,,0.0,0.004901469219475985,94,0.0,2.1217825412750244,0.000999069889076054
1676104293.582067,2776,1676104293,581386966,,0.0,0.00511897262185812,94,0.0,2.164059638977051,0.0010564376134425402
1676104293.6308296,2777,1676104293,630271939,,0.0,0.0054389480501413345,94,0.0,2.0187320709228516,0.0014306934317573905
1676104293.6817896,2778,1676104293,681281426,,0.0,0.005925577599555254,94,0.0,2.2486138343811035,0.0015093185938894749
1676104293.7300563,2779,1676104293,729324405,,0.0,0.006031814031302929,94,0.0,2.1032862663269043,0.0016351515660062432
1676104293.7808986,2780,1676104293,780343781,,0.0,0.006075637880712748,94,0.0,2.0821478366851807,0.001635502208955586
1676104293.830512,2781,1676104293,829397286,,0.0,0.006060287822037935,94,0.0,2.061009407043457,0.0020328336395323277
1676104293.881251,2782,1676104293,880660803,,0.0,0.0068423571065068245,94,0.0,2.061009407043457,0.001863024546764791
1676104293.9466276,2783,1676104293,943387737,,0.0,0.007478016894310713,94,0.05000000074505806,2.1217825412750244,0.0002526339376345277
1676104293.9820962,2784,1676104293,981327667,,0.0,0.009625152684748173,94,0.05000000074505806,2.1217825412750244,0.002397221978753805
1676104294.0325515,2785,1676104294,29917818,,0.0,0.03602869063615799,94,0.05000000074505806,2.061009407043457,0.004392668604850769
1676104294.0826304,2786,1676104294,81210896,,0.0,0.08654697239398956,94,0.05000000074505806,2.705735206604004,0.010056735947728157
1676104294.1299193,2787,1676104294,129321155,,0.0,0.07343357056379318,94,0.05000000074505806,2.7268736362457275,0.007071251980960369
1676104294.1813617,2788,1676104294,180840615,,0.0,0.03626231476664543,94,0.05000000074505806,2.914478302001953,0.0018712123855948448
1676104294.230065,2789,1676104294,229667411,,0.0,0.019109537824988365,94,0.05000000074505806,3.0386674404144287,0.001222128514200449
1676104294.2814972,2790,1676104294,281045560,,0.0,0.013745540753006935,94,0.05000000074505806,2.7268736362457275,0.002649892121553421
1676104294.331944,2791,1676104294,331444848,,0.0,0.015047297812998295,94,0.05000000074505806,2.705735206604004,0.0014767511747777462
1676104294.380787,2792,1676104294,379640272,,0.0,0.02046707272529602,94,0.05000000074505806,2.7268736362457275,0.00039900591946206987
1676104294.4313035,2793,1676104294,430500509,,0.0,0.018769610673189163,94,0.05000000074505806,2.4969921112060547,-0.0001344051561318338
1676104294.4811342,2794,1676104294,480708043,,0.0,0.017455650493502617,94,0.05000000074505806,2.4969921112060547,0.0010967475827783346
1676104294.5322025,2795,1676104294,531657520,,0.0,0.015802573412656784,93,0.05000000074505806,2.539269208908081,0.0012836843961849809
1676104294.580672,2796,1676104294,580233507,,0.0,0.017630595713853836,93,0.05000000074505806,2.6634581089019775,0.0012636900646612048
1676104294.6307101,2797,1676104294,630292415,,0.0,0.013765184208750725,93,0.05000000074505806,2.6449620723724365,0.0013978257775306702
1676104294.6819031,2798,1676104294,681377703,,0.0,0.010217084549367428,93,0.05000000074505806,2.3516645431518555,0.002796897431835532
1676104294.7301598,2799,1676104294,729426056,,0.0,0.011631066910922527,93,0.05000000074505806,2.436218500137329,0.0012613870203495026
1676104294.7858655,2800,1676104294,783730383,,0.0,0.009910043329000473,93,0.05000000074505806,2.539269208908081,0.0018016449175775051
1676104294.8313715,2801,1676104294,830214484,,0.0,0.011435195803642273,93,0.05000000074505806,2.7480123043060303,0.0014739269390702248
1676104294.8816838,2802,1676104294,880315225,,0.0,0.004219954367727041,93,0.05000000074505806,2.6634581089019775,2.265476723550819e-05
1676104294.933941,2803,1676104294,932047346,,0.0,0.005973680876195431,93,0.05000000074505806,2.4969921112060547,-0.0006547113298438489
1676104294.9801335,2804,1676104294,979554919,,0.0,0.0027450656052678823,93,0.05000000074505806,2.5815460681915283,0.0012184369843453169
1676104295.0300725,2805,1676104295,29766918,,0.0,0.008814448490738869,92,0.05000000074505806,2.372802972793579,0.0018700197106227279
1676104295.0828865,2806,1676104295,81610838,,0.0,0.00856823194772005,92,0.05000000074505806,2.1851983070373535,0.0015264680841937661
1676104295.130491,2807,1676104295,129862988,,0.0,0.006316163577139378,92,0.05000000074505806,2.1851983070373535,0.0007467100513167679
1676104295.1808999,2808,1676104295,180506404,,0.0,0.0067237610928714275,92,0.05000000074505806,2.30938720703125,0.001815208001062274
1676104295.2319226,2809,1676104295,231431627,,0.0,0.00227933912537992,92,0.05000000074505806,2.436218500137329,0.0011339079355821013
1676104295.280956,2810,1676104295,279542373,,0.0,0.004873515106737614,92,0.05000000074505806,2.539269208908081,-0.00036365416599437594
1676104295.331015,2811,1676104295,330429894,,0.0,0.007183815818279982,92,0.05000000074505806,2.3516645431518555,-0.0020350601989775896
1676104295.38205,2812,1676104295,381354746,,0.0,0.006676242686808109,92,0.05000000074505806,2.539269208908081,-0.0005136461113579571
1676104295.429986,2813,1676104295,429432401,,0.0,0.00921759195625782,91,0.05000000074505806,2.4969921112060547,-0.00048204814083874226
1676104295.4817576,2814,1676104295,480747558,,0.0,0.031217725947499275,91,0.41999998688697815,3.102083206176758,0.03275382146239281
1676104295.5319154,2815,1676104295,531456824,,0.0,0.24328847229480743,92,0.36000001430511475,8.537334442138672,0.6297641396522522
1676104295.5806763,2816,1676104295,579510813,,0.0,0.5064924359321594,91,0.25,5.8923726081848145,1.3944095373153687
1676104295.6307712,2817,1676104295,630327094,,0.0,0.7694939374923706,90,0.07000000029802322,5.8923726081848145,1.5817770957946777
1676104295.6820538,2818,1676104295,681374129,,0.0,0.841370165348053,90,0.05999999865889549,3.080944776535034,1.3769481182098389
1676104295.7309499,2819,1676104295,730490847,,0.0,0.8849045038223267,90,0.10999999940395355,3.017528772354126,1.0754384994506836
1676104295.7820597,2820,1676104295,781376571,,0.0,0.9748741388320923,91,0.14000000059604645,3.2896878719329834,0.8149804472923279
1676104295.831252,2821,1676104295,830175206,,0.0,1.0482745170593262,91,0.1899999976158142,3.3927383422851562,0.7024754881858826
1676104295.8818502,2822,1676104295,881300127,,0.0,1.1127877235412598,91,0.1899999976158142,3.559204339981079,0.7068148255348206
1676104295.9300313,2823,1676104295,929337227,,0.0,1.1372096538543701,91,0.17000000178813934,4.4760894775390625,0.7442761063575745
1676104295.9815824,2824,1676104295,980506166,,0.0,1.134697437286377,91,0.1599999964237213,4.600278377532959,0.7760729789733887
1676104296.0300965,2825,1676104296,29539481,,0.0,1.0992857217788696,91,0.15000000596046448,4.830160140991211,0.657426655292511
1676104296.0818503,2826,1676104296,80792404,,0.0,1.0390961170196533,90,0.15000000596046448,4.830160140991211,0.617927074432373
1676104296.133365,2827,1676104296,132022495,,0.0,0.9461660385131836,90,0.1599999964237213,4.246207237243652,0.5619347095489502
1676104296.180643,2828,1676104296,180078285,,0.0,0.8282647132873535,90,0.1599999964237213,4.246207237243652,0.4945968687534332
1676104296.2309797,2829,1676104296,230510508,,0.0,0.7401026487350464,90,0.18000000715255737,4.182791709899902,0.4850156605243683
1676104296.2817996,2830,1676104296,281329332,,0.0,0.6029106378555298,90,0.17000000178813934,4.058602809906006,0.469146728515625
1676104296.330438,2831,1676104296,329595061,,0.0,0.45319822430610657,90,0.1599999964237213,4.122018814086914,0.4424014389514923
1676104296.3808305,2832,1676104296,380345776,,0.0,0.3559280335903168,90,0.17000000178813934,4.079741477966309,0.42032095789909363
1676104296.4328277,2833,1676104296,431338428,,0.0,0.2737922668457031,90,0.18000000715255737,3.9132754802703857,0.4004075825214386
1676104296.4802163,2834,1676104296,479487734,,0.0,0.1496589034795761,90,0.17000000178813934,3.41387677192688,0.3636641204357147
1676104296.5312161,2835,1676104296,530529126,,0.0,0.08793429285287857,90,0.17000000178813934,3.580343008041382,0.3739943206310272
1676104296.5811074,2836,1676104296,579761328,,0.0,0.014606314711272717,90,0.1599999964237213,3.8313634395599365,0.34601953625679016
1676104296.6314466,2837,1676104296,630400342,,0.0,0.01889650896191597,90,0.17000000178813934,3.41387677192688,0.33184754848480225
1676104296.68192,2838,1676104296,681401828,,0.0,0.04513704031705856,90,0.1599999964237213,3.35046124458313,0.28953641653060913
1676104296.72987,2839,1676104296,729312844,,0.0,0.04172211512923241,90,0.17000000178813934,3.5195696353912354,0.31293922662734985
1676104296.7812161,2840,1676104296,780738836,,0.0,0.035307809710502625,90,0.1599999964237213,3.5195696353912354,0.2644502818584442
1676104296.831973,2841,1676104296,831452052,,0.0,0.04973533749580383,90,0.1599999964237213,3.3319649696350098,0.25320670008659363
1676104296.8800933,2842,1676104296,879515601,,0.0,0.030944421887397766,90,0.1599999964237213,3.2051336765289307,0.21392691135406494
1676104296.9308558,2843,1676104296,930396146,,0.0,0.050600260496139526,90,0.1599999964237213,3.41387677192688,0.16416870057582855
1676104296.986026,2844,1676104296,983596700,,0.0,0.056920528411865234,90,0.1599999964237213,3.580343008041382,0.16689720749855042
1676104297.0305948,2845,1676104297,29544162,,0.0,0.05350234732031822,90,0.17000000178813934,3.6226203441619873,0.12182988971471786
1676104297.081745,2846,1676104297,81210542,,0.0,0.07406371831893921,90,0.17000000178813934,3.4561538696289062,0.13655446469783783
1676104297.132221,2847,1676104297,131687362,,0.0,0.0696038007736206,90,0.18000000715255737,3.6226203441619873,0.1123729944229126
1676104297.1802387,2848,1676104297,179512404,,0.0,0.06479495018720627,90,0.17000000178813934,3.9132754802703857,0.13892129063606262
1676104297.232357,2849,1676104297,231787285,,0.0,0.08666247874498367,90,0.17000000178813934,3.643758773803711,0.16043172776699066
1676104297.2811954,2850,1676104297,280484674,,0.0,0.08262240141630173,90,0.1599999964237213,3.643758773803711,0.16902004182338715
1676104297.332052,2851,1676104297,331457554,,0.0,0.09019917249679565,90,0.17000000178813934,4.037464141845703,0.1648523509502411
1676104297.3839371,2852,1676104297,380282550,,0.0,0.07719935476779938,90,0.17000000178813934,3.955552339553833,0.09027945250272751
1676104297.4319403,2853,1676104297,431406463,,0.0,0.0752214714884758,90,0.17000000178813934,4.164295673370361,0.09903271496295929
1676104297.4808784,2854,1676104297,480340715,,0.0,0.06063627824187279,90,0.1599999964237213,3.7468090057373047,0.0757116973400116
1676104297.5320716,2855,1676104297,531350187,,0.0,0.08537068963050842,90,0.17000000178813934,3.9766910076141357,0.04676877334713936
1676104297.5802808,2856,1676104297,579641827,,0.0,0.07173480093479156,90,0.1599999964237213,4.037464141845703,0.0733502209186554
1676104297.6322176,2857,1676104297,631331151,,0.0,0.08156386762857437,90,0.17000000178813934,3.8313634395599365,0.034087345004081726
1676104297.6802602,2858,1676104297,679439222,,0.0,0.07304250448942184,90,0.17000000178813934,4.330761909484863,0.053413085639476776
1676104297.7309275,2859,1676104297,730373715,,0.0,0.0923246219754219,90,0.1599999964237213,4.079741477966309,0.03523281216621399
1676104297.782013,2860,1676104297,781400094,,0.0,0.08465844392776489,90,0.17000000178813934,4.079741477966309,0.05537267029285431
1676104297.8301933,2861,1676104297,829424575,,0.0,0.13032902777194977,90,0.17000000178813934,4.079741477966309,0.016123702749609947
1676104297.8863373,2862,1676104297,882335772,,0.0,0.13603828847408295,90,0.17000000178813934,4.182791709899902,0.025265542790293694
1676104297.9308782,2863,1676104297,930338365,,0.0,0.1431591957807541,90,0.18000000715255737,4.079741477966309,0.00724759791046381
1676104297.9810805,2864,1676104297,980608968,,0.0,0.17219500243663788,90,0.17000000178813934,3.540708303451538,0.025673022493720055
1676104298.0330038,2865,1676104298,31580444,,0.0,0.15052556991577148,90,0.17000000178813934,3.9132754802703857,0.07383059710264206
1676104298.0806646,2866,1676104298,79550376,,0.0,0.1696193963289261,90,0.1599999964237213,3.516927480697632,0.05762176215648651
1676104298.1315985,2867,1676104298,130976582,,0.0,0.15301892161369324,90,0.1599999964237213,4.122018814086914,0.033114608377218246
1676104298.1797628,2868,1676104298,179324651,,0.0,0.15332113206386566,90,0.17000000178813934,3.6833934783935547,-0.013799461536109447
1676104298.2314377,2869,1676104298,230923946,,0.0,0.15157049894332886,90,0.17000000178813934,3.643758773803711,-0.020721301436424255
1676104298.281928,2870,1676104298,281296366,,0.0,0.1546950787305832,90,0.17000000178813934,3.41387677192688,-0.02119775302708149
1676104298.33352,2871,1676104298,331396961,,0.0,0.1584874391555786,90,0.17000000178813934,4.079741477966309,-0.038258686661720276
1676104298.3809943,2872,1676104298,379465927,,0.0,0.14539505541324615,90,0.17000000178813934,4.037464141845703,-0.029026666656136513
1676104298.430999,2873,1676104298,430502033,,0.0,0.12308719009160995,90,0.17000000178813934,4.037464141845703,-0.005003966391086578
1676104298.4818807,2874,1676104298,481333515,,0.0,0.12778016924858093,90,0.17000000178813934,4.203930377960205,-0.0035185436718165874
1676104298.5304928,2875,1676104298,529834636,,0.0,0.1121935322880745,90,0.1599999964237213,3.6648972034454346,0.033089689910411835
1676104298.581179,2876,1676104298,580561899,,0.0,0.12821242213249207,90,0.1599999964237213,4.143157005310059,-0.013182497583329678
1676104298.6301382,2877,1676104298,629471267,,0.0,0.11953891068696976,90,0.17000000178813934,3.8313634395599365,-0.0319000668823719
1676104298.6820874,2878,1676104298,681622898,,0.0,0.0963970199227333,90,0.17000000178813934,3.892136573791504,-0.05707754194736481
1676104298.7308583,2879,1676104298,730233664,,0.0,0.09415820240974426,90,0.17000000178813934,4.040106773376465,-0.0646909847855568
1676104298.7818935,2880,1676104298,781339564,,0.0,0.07694404572248459,90,0.17000000178813934,3.8498594760894775,-0.015099059790372849
1676104298.8305905,2881,1676104298,829656042,,0.0,0.10140188783407211,90,0.17000000178813934,4.100879669189453,-0.023354990407824516
1676104298.8808208,2882,1676104298,880335917,,0.0,0.0927455797791481,90,0.17000000178813934,3.7468090057373047,-0.001685145078226924
1676104298.931972,2883,1676104298,931415485,,0.0,0.08467018604278564,90,0.17000000178813934,3.7468090057373047,0.0067795212380588055
1676104298.9801958,2884,1676104298,979427804,,0.0,0.0965702161192894,90,0.17000000178813934,4.016325950622559,-0.007064813282340765
1676104299.032845,2885,1676104299,31923613,,0.0,0.07014871388673782,90,0.17000000178813934,3.8709981441497803,0.016530722379684448
1676104299.0802379,2886,1676104299,79414952,,0.0,0.06449642777442932,90,0.17000000178813934,3.892136573791504,-0.029984276741743088
1676104299.130824,2887,1676104299,130381916,,0.0,0.07526713609695435,90,0.17000000178813934,3.78908634185791,-0.04826603829860687
1676104299.184657,2888,1676104299,182051769,,0.0,0.05945200473070145,90,0.1599999964237213,4.349257946014404,-0.028180090710520744
1676104299.230121,2889,1676104299,229360390,,0.0,0.07280275970697403,89,0.1599999964237213,4.246207237243652,-0.03713920712471008
1676104299.2811012,2890,1676104299,280611829,,0.0,0.08914926648139954,89,0.17000000178813934,3.7679479122161865,-0.06829599291086197
1676104299.3329666,2891,1676104299,332198776,,0.0,0.07309603691101074,89,0.18000000715255737,3.6014814376831055,-0.050952594727277756
1676104299.3800254,2892,1676104299,379463750,,0.0,0.07540581375360489,89,0.18000000715255737,4.040106773376465,-0.025854036211967468
1676104299.4309342,2893,1676104299,430468862,,0.0,0.0764835923910141,89,0.1599999964237213,3.6648972034454346,-0.012884574942290783
1676104299.48302,2894,1676104299,481711023,,0.0,0.06252970546483994,89,0.1599999964237213,4.203930377960205,-0.008862735703587532
1676104299.5309541,2895,1676104299,530463623,,0.0,0.06222008541226387,89,0.17000000178813934,4.203930377960205,-0.001443268614821136
1676104299.580596,2896,1676104299,579971832,,0.0,0.053363244980573654,89,0.18000000715255737,4.018968105316162,-0.03142492473125458
1676104299.6309774,2897,1676104299,630444125,,0.0,0.0759672150015831,89,0.17000000178813934,3.810224771499634,-0.0403745211660862
1676104299.682032,2898,1676104299,681361961,,0.0,0.05913335829973221,89,0.17000000178813934,3.9766910076141357,-0.01867092028260231
1676104299.7323046,2899,1676104299,731538633,,0.0,0.06456883251667023,89,0.17000000178813934,3.9132754802703857,-0.028569942340254784
1676104299.7805252,2900,1676104299,779878929,,0.0,0.04342681169509888,89,0.17000000178813934,4.100879669189453,-0.0048615531995892525
1676104299.8463292,2901,1676104299,833511265,,0.0,0.06765483319759369,89,0.17000000178813934,3.9766910076141357,-0.05262726545333862
1676104299.8818822,2902,1676104299,881328743,,0.0,0.0419943667948246,89,0.1599999964237213,4.203930377960205,-0.03078216314315796
1676104299.931255,2903,1676104299,930471072,,0.0,0.0472637303173542,89,0.1599999964237213,4.288484573364258,-0.06884341686964035
1676104299.9835649,2904,1676104299,981375502,,0.0,0.044362593442201614,90,0.1599999964237213,3.9951870441436768,-0.08528779447078705
1676104300.035226,2905,1676104300,30582203,,0.0,0.0455542616546154,90,0.18000000715255737,4.391534805297852,-0.07269547134637833
1676104300.084765,2906,1676104300,83144239,,0.0,0.023616528138518333,90,0.18000000715255737,4.391534805297852,-0.04769602790474892
1676104300.131093,2907,1676104300,130446847,,0.0,0.015454639680683613,90,0.17000000178813934,3.955552339553833,0.014540953561663628
1676104300.1865106,2908,1676104300,184617747,,0.0,0.03760883957147598,90,0.17000000178813934,3.725670576095581,-0.02176295593380928
1676104300.230118,2909,1676104300,229658453,,0.0,0.010930822230875492,90,0.1599999964237213,3.955552339553833,-0.013671294786036015
1676104300.282201,2910,1676104300,281355588,,0.0,0.02191603183746338,90,0.1599999964237213,4.100879669189453,-0.04236973077058792
1676104300.3326838,2911,1676104300,331619206,,0.0,0.040421679615974426,90,0.18000000715255737,3.7045319080352783,-0.05022115260362625
1676104300.3798902,2912,1676104300,379410559,,0.0,0.019936908036470413,90,0.17000000178813934,4.203930377960205,-0.016058191657066345
1676104300.4307325,2913,1676104300,430301586,,0.0,0.013098442927002907,90,0.17000000178813934,3.7679479122161865,0.005893908441066742
1676104300.482303,2914,1676104300,481380830,,0.0,0.0237673781812191,90,0.17000000178813934,3.9132754802703857,0.018019691109657288
1676104300.5299928,2915,1676104300,529609801,,0.0,0.015780009329319,90,0.1599999964237213,3.8498594760894775,0.042688917368650436
1676104300.5814211,2916,1676104300,580484977,,0.0,0.03302666172385216,90,0.1599999964237213,3.8498594760894775,0.0077164978720247746
1676104300.6325774,2917,1676104300,631447261,,0.0,0.024218885228037834,90,0.17000000178813934,3.7468090057373047,-0.003122120164334774
1676104300.6803737,2918,1676104300,679742304,,0.0,0.012111274525523186,90,0.18000000715255737,3.78908634185791,-0.01259924191981554
1676104300.7311873,2919,1676104300,730521742,,0.0,0.026858096942305565,90,0.17000000178813934,3.9978294372558594,-0.02029128186404705
1676104300.7799435,2920,1676104300,779482840,,0.0,0.014881922863423824,90,0.17000000178813934,3.892136573791504,-0.03472519293427467
1676104300.8312807,2921,1676104300,830551214,,0.0,0.02744065783917904,90,0.17000000178813934,3.9344139099121094,-0.03642202541232109
1676104300.8820605,2922,1676104300,881559183,,0.0,0.014761154539883137,90,0.17000000178813934,3.9344139099121094,-0.033569805324077606
1676104300.9297678,2923,1676104300,929342129,,0.0,0.007772525306791067,90,0.18000000715255737,3.78908634185791,-0.05242575705051422
1676104300.980639,2924,1676104300,980259192,,0.0,0.03760964795947075,90,0.1599999964237213,3.8313634395599365,-0.013077239505946636
1676104301.032213,2925,1676104301,31387178,,0.0,0.027555864304304123,90,0.17000000178813934,4.018968105316162,-0.006475064903497696
1676104301.0806146,2926,1676104301,79586950,,0.0,0.02325408346951008,90,0.17000000178813934,4.4760894775390625,-0.030038198456168175
1676104301.1310177,2927,1676104301,130306709,,0.0,0.015909133478999138,90,0.17000000178813934,4.143157005310059,-0.00604869332164526
1676104301.1825871,2928,1676104301,181942979,,0.0,0.014163106679916382,90,0.1599999964237213,4.079741477966309,-0.01779237575829029
1676104301.2298555,2929,1676104301,229330181,,0.0,0.026114027947187424,90,0.17000000178813934,4.079741477966309,0.006559146102517843
1676104301.281186,2930,1676104301,280458262,,0.0,0.008973821997642517,90,0.17000000178813934,3.9766910076141357,-0.02277550846338272
1676104301.3340187,2931,1676104301,331549269,,0.0,0.015613661147654057,90,0.17000000178813934,3.810224771499634,-0.008591306395828724
1676104301.3804448,2932,1676104301,379905944,,0.0,0.0060205403715372086,90,0.17000000178813934,4.079741477966309,-0.024056529626250267
1676104301.4331844,2933,1676104301,430435634,,0.0,0.014293086715042591,90,0.1599999964237213,4.164295673370361,0.00785068143159151
1676104301.4826415,2934,1676104301,480451653,,0.0,0.01671156845986843,90,0.17000000178813934,3.8313634395599365,-0.013204950839281082
1676104301.5339434,2935,1676104301,531976038,,0.0,0.0057832966558635235,90,0.17000000178813934,3.7468090057373047,0.0319451205432415
1676104301.58044,2936,1676104301,579892151,,0.0,0.0195224117487669,90,0.18000000715255737,3.559204339981079,0.017674284055829048
1676104301.6310773,2937,1676104301,630433970,,0.0,0.01288288552314043,90,0.1599999964237213,4.433812141418457,0.027190228924155235
1676104301.6826208,2938,1676104301,681785156,,0.0,0.009710516780614853,90,0.1599999964237213,4.225069046020508,-0.022590771317481995
1676104301.7304418,2939,1676104301,729954595,,0.0,0.019568631425499916,90,0.17000000178813934,4.225069046020508,0.019162537530064583
1676104301.780947,2940,1676104301,780479452,,0.0,0.004975249990820885,90,0.18000000715255737,3.9766910076141357,-0.0233292393386364
1676104301.8350375,2941,1676104301,832351623,,0.0,0.017331751063466072,90,0.17000000178813934,4.100879669189453,-0.008647964335978031
1676104301.8802946,2942,1676104301,879799508,,0.0,0.029410047456622124,90,0.1599999964237213,4.016325950622559,0.03702395409345627
1676104301.9322495,2943,1676104301,931086289,,0.0,0.013277567923069,90,0.17000000178813934,3.78908634185791,-0.012026149779558182
1676104301.9844155,2944,1676104301,982579878,,0.0,0.007637822534888983,90,0.17000000178813934,4.016325950622559,-0.024813223630189896
1676104302.0324256,2945,1676104302,31502151,,0.0,0.02965117245912552,90,0.17000000178813934,3.6014814376831055,0.018111951649188995
1676104302.0803766,2946,1676104302,79629948,,0.0,0.01845504716038704,90,0.18000000715255737,4.016325950622559,-0.02018338069319725
1676104302.1314902,2947,1676104302,130918547,,0.0,0.003386404598131776,90,0.17000000178813934,4.164295673370361,0.00029726081993430853
1676104302.1801586,2948,1676104302,179338706,,0.0,0.025031803175807,90,0.17000000178813934,4.246207237243652,-0.008055097423493862
1676104302.2311096,2949,1676104302,230802727,,0.0,0.01734214276075363,90,0.15000000596046448,4.246207237243652,0.0026360591873526573
1676104302.2826285,2950,1676104302,281759057,,0.0,0.04081615433096886,90,0.14000000059604645,3.810224771499634,-0.08478658646345139
1676104302.3300064,2951,1676104302,329388294,,0.0,0.11146258562803268,90,0.3100000023841858,3.78908634185791,-0.1382025182247162
1676104302.381498,2952,1676104302,380912257,,0.0,0.443318247795105,89,0.33000001311302185,3.7679479122161865,0.043251268565654755
1676104302.433235,2953,1676104302,431526727,,0.0,0.898332417011261,86,0.20999999344348907,5.060041904449463,0.2998213469982147
1676104302.4803789,2954,1676104302,479876536,,0.0,1.2410569190979004,83,0.3100000023841858,5.266142845153809,0.33298370242118835
1676104302.5308957,2955,1676104302,530373120,,0.0,1.8572551012039185,83,0.30000001192092896,5.974284648895264,0.37243297696113586
1676104302.5822287,2956,1676104302,581723032,,0.0,2.593177556991577,84,0.20999999344348907,5.64135217666626,0.32107579708099365
1676104302.6300962,2957,1676104302,629573355,,0.0,2.9423229694366455,86,0.23000000417232513,4.642555236816406,0.2622169256210327
1676104302.6809812,2958,1676104302,680508057,,0.0,3.424302101135254,88,0.23999999463558197,4.45495080947876,0.16919098794460297
1676104302.7323549,2959,1676104302,731668271,,0.0,3.857989549636841,92,0.23999999463558197,4.766744613647461,0.2216431349515915
1676104302.7799907,2960,1676104302,779431504,,0.0,4.078563690185547,94,0.25,4.164295673370361,0.3090020716190338
1676104302.830994,2961,1676104302,830438092,,0.0,4.185944080352783,94,0.23999999463558197,3.892136573791504,0.4629306495189667
1676104302.8847969,2962,1676104302,883379572,,0.0,4.008842945098877,90,0.23999999463558197,3.892136573791504,0.6276365518569946
1676104302.9311218,2963,1676104302,930652503,,0.0,3.7817418575286865,87,0.1899999976158142,4.143157005310059,0.6763525605201721
1676104302.9810038,2964,1676104302,980338795,,0.0,3.3487610816955566,84,0.1899999976158142,5.287281513214111,0.6467431783676147
1676104303.030758,2965,1676104303,29341866,,0.0,2.9775476455688477,84,0.20000000298023224,5.287281513214111,0.4903152585029602
1676104303.0811384,2966,1676104303,80396161,,0.0,2.5705385208129883,84,0.23000000417232513,4.97548770904541,0.2828163206577301
1676104303.133756,2967,1676104303,132250694,,0.0,2.017835855484009,87,0.25999999046325684,5.5594401359558105,0.023489922285079956
1676104303.1801221,2968,1676104303,179764252,,0.0,1.727746844291687,89,0.28999999165534973,5.683629035949707,-0.1278557926416397
1676104303.2347372,2969,1676104303,232784198,,0.0,1.7165535688400269,94,0.27000001072883606,5.453747272491455,-0.1565423607826233
1676104303.283051,2970,1676104303,282084652,,0.0,1.975620985031128,97,0.25999999046325684,5.205369472503662,-0.1429165005683899
1676104303.3299663,2971,1676104303,329396123,,0.0,2.193101406097412,99,0.18000000715255737,4.996626377105713,-0.1435316503047943
1676104303.3808467,2972,1676104303,380368809,,0.0,2.4132471084594727,99,0.27000001072883606,4.996626377105713,-0.17740106582641602
1676104303.4329875,2973,1676104303,431429549,,0.0,2.6047170162200928,97,0.27000001072883606,5.64135217666626,-0.08045795559883118
1676104303.4802105,2974,1676104303,479552350,,0.0,2.6782379150390625,94,0.30000001192092896,7.411706447601318,0.11733774095773697
1676104303.5313902,2975,1676104303,530686013,,0.0,2.648707628250122,93,0.30000001192092896,7.889966011047363,0.39363330602645874
1676104303.57994,2976,1676104303,579414150,,0.0,2.391200304031372,92,0.28999999165534973,7.9533820152282715,0.6789593696594238
1676104303.6306658,2977,1676104303,629530878,,0.0,2.058795213699341,93,0.25,8.431641578674316,0.7758192420005798
1676104303.6812708,2978,1676104303,680573266,,0.0,1.8190776109695435,95,0.25999999046325684,7.142189979553223,0.714917778968811
1676104303.731898,2979,1676104303,731402419,,0.0,1.7242443561553955,99,0.27000001072883606,6.766980171203613,0.5835714936256409
1676104303.7802546,2980,1676104303,779432186,,0.0,1.7972173690795898,98,0.3199999928474426,7.12105131149292,0.44262200593948364
1676104303.8312857,2981,1676104303,830350077,,0.0,2.1552741527557373,95,0.23999999463558197,7.329794406890869,0.3339703381061554
1676104303.8823953,2982,1676104303,881436520,,0.0,2.6441612243652344,91,0.23999999463558197,6.6190104484558105,0.29916220903396606
1676104303.931258,2983,1676104303,930363818,,0.0,3.1221232414245605,86,0.17000000178813934,6.6190104484558105,0.23347662389278412
1676104303.9812748,2984,1676104303,980729946,,0.0,3.4482131004333496,84,0.17000000178813934,6.82775354385376,0.1685265749692917
1676104304.0302098,2985,1676104304,29370272,,0.0,3.6825830936431885,83,0.20999999344348907,6.685068607330322,0.1113075315952301
1676104304.0846312,2986,1676104304,81984159,,0.0,3.7440836429595947,82,0.1599999964237213,6.122254848480225,0.06317851692438126
1676104304.1303554,2987,1676104304,129538202,,0.0,3.702895164489746,84,0.1599999964237213,7.432845115661621,-0.005533153656870127
1676104304.182023,2988,1676104304,181370036,,0.0,3.5208704471588135,91,0.20000000298023224,7.099913120269775,-0.22983218729496002
1676104304.230408,2989,1676104304,229631855,,0.0,3.2569806575775146,101,0.23999999463558197,7.12105131149292,-0.36400291323661804
1676104304.2800212,2990,1676104304,279373061,,0.0,2.7478842735290527,107,0.25999999046325684,7.599310874938965,-0.5331114530563354
1676104304.3309858,2991,1676104304,330463526,,0.0,2.1522092819213867,106,0.25,5.5805792808532715,-0.6976580619812012
1676104304.3822303,2992,1676104304,381339312,,0.0,1.5330835580825806,99,0.25,5.3480544090271,-0.876258909702301
1676104304.4302723,2993,1676104304,429792422,,0.0,0.9617407321929932,91,0.1899999976158142,5.247646331787109,-0.919181764125824
1676104304.481849,2994,1676104304,481226897,,0.0,0.5437052249908447,85,0.3100000023841858,4.7878828048706055,-0.9221072793006897
1676104304.5320494,2995,1676104304,531517939,,0.0,0.1450563669204712,82,0.3100000023841858,4.7878828048706055,-0.689441978931427
1676104304.5802133,2996,1676104304,579362048,,0.0,0.06548602133989334,82,0.1599999964237213,4.766744613647461,-0.3458729684352875
1676104304.6311274,2997,1676104304,630444624,,0.0,0.07736926525831223,82,0.1599999964237213,4.581782341003418,-0.33966097235679626
1676104304.6832244,2998,1676104304,681849507,,0.0,0.0632588118314743,83,0.20000000298023224,4.246207237243652,-0.3598748445510864
1676104304.7302482,2999,1676104304,729798761,,0.0,0.13083042204380035,85,0.20000000298023224,4.267346382141113,-0.30539947748184204
1676104304.7821586,3000,1676104304,781516579,,0.0,0.26962459087371826,86,0.1899999976158142,4.079741477966309,-0.29427570104599
1676104304.8302119,3001,1676104304,829354911,,0.0,0.4064796566963196,86,0.1899999976158142,3.662255048751831,-0.3132636249065399
1676104304.8810616,3002,1676104304,880619204,,0.0,0.5563310980796814,87,0.20000000298023224,4.225069046020508,-0.26144757866859436
1676104304.9322762,3003,1676104304,931404382,,0.0,0.6366076469421387,87,0.20000000298023224,4.330761909484863,-0.2298818826675415
1676104304.980329,3004,1676104304,979407875,,0.0,0.7015635967254639,87,0.20000000298023224,3.78908634185791,-0.1763191521167755
1676104305.0328605,3005,1676104305,31786066,,0.0,0.7122535109519958,87,0.18000000715255737,3.78908634185791,-0.14528392255306244
1676104305.081136,3006,1676104305,80652485,,0.0,0.7334502339363098,87,0.17000000178813934,4.203930377960205,-0.13917505741119385
1676104305.1300218,3007,1676104305,129415258,,0.0,0.7283589839935303,88,0.17000000178813934,3.8709981441497803,-0.1419144570827484
1676104305.180983,3008,1676104305,180390674,,0.0,0.7226033210754395,88,0.17000000178813934,4.164295673370361,-0.12459301203489304
1676104305.232259,3009,1676104305,231660842,,0.0,0.7015767693519592,88,0.17000000178813934,4.203930377960205,-0.1314069926738739
1676104305.2813284,3010,1676104305,280601944,,0.0,0.6794119477272034,89,0.17000000178813934,4.288484573364258,-0.10770955681800842
1676104305.3300018,3011,1676104305,329507343,,0.0,0.6464341282844543,89,0.17000000178813934,3.9344139099121094,-0.10706629604101181
1676104305.3801262,3012,1676104305,379523637,,0.0,0.6111264824867249,89,0.17000000178813934,4.391534805297852,-0.1385972797870636
1676104305.431129,3013,1676104305,430466740,,0.0,0.5525204539299011,89,0.17000000178813934,4.4126739501953125,-0.13017483055591583
1676104305.4801176,3014,1676104305,479413489,,0.0,0.5141350626945496,89,0.17000000178813934,4.5395050048828125,-0.13900965452194214
1676104305.5309844,3015,1676104305,530477718,,0.0,0.4664035141468048,89,0.17000000178813934,4.246207237243652,-0.17709897458553314
1676104305.5805016,3016,1676104305,579517558,,0.0,0.41526177525520325,89,0.17000000178813934,4.246207237243652,-0.16747288405895233
1676104305.6309679,3017,1676104305,630386681,,0.0,0.3785027265548706,89,0.18000000715255737,4.5395050048828125,-0.13384442031383514
1676104305.6826215,3018,1676104305,681538260,,0.0,0.3391530215740204,90,0.18000000715255737,4.600278377532959,-0.12041611224412918
1676104305.731039,3019,1676104305,730537693,,0.0,0.2987435460090637,90,0.17000000178813934,4.164295673370361,-0.10316916555166245
1676104305.781046,3020,1676104305,780518841,,0.0,0.28183335065841675,90,0.17000000178813934,3.477292776107788,-0.09509249776601791
1676104305.8319347,3021,1676104305,831403889,,0.0,0.2534138560295105,90,0.17000000178813934,4.143157005310059,-0.11230503767728806
1676104305.8819358,3022,1676104305,880839459,,0.0,0.2447487860918045,90,0.17000000178813934,3.8313634395599365,-0.0774034634232521
1676104305.9299731,3023,1676104305,929577825,,0.0,0.19758328795433044,90,0.17000000178813934,3.8498594760894775,-0.1113319918513298
1676104305.9838953,3024,1676104305,981877428,,0.0,0.22207142412662506,90,0.17000000178813934,4.267346382141113,-0.060972556471824646
1676104306.0305355,3025,1676104306,29916574,,0.0,0.16863995790481567,90,0.17000000178813934,4.037464141845703,-0.09841100126504898
1676104306.0852551,3026,1676104306,82637281,,0.0,0.16808933019638062,90,0.17000000178813934,4.164295673370361,-0.08420393615961075
1676104306.1305509,3027,1676104306,129513887,,0.0,0.14864370226860046,90,0.18000000715255737,4.058602809906006,-0.1299448013305664
1676104306.1818163,3028,1676104306,180444012,,0.0,0.16005603969097137,90,0.18000000715255737,4.058602809906006,-0.08031723648309708
1676104306.229956,3029,1676104306,229442190,,0.0,0.14308598637580872,90,0.17000000178813934,3.9978294372558594,-0.051627714186906815
1676104306.2821383,3030,1676104306,281392918,,0.0,0.13467273116111755,90,0.17000000178813934,3.9132754802703857,-0.04355745017528534
1676104306.3309116,3031,1676104306,330410428,,0.0,0.12561389803886414,90,0.1599999964237213,4.349257946014404,-0.03963545337319374
1676104306.3799183,3032,1676104306,379443420,,0.0,0.11618893593549728,90,0.17000000178813934,3.707174301147461,-0.03644101694226265
1676104306.4309115,3033,1676104306,430451488,,0.0,0.11317317187786102,90,0.17000000178813934,3.3319649696350098,-0.06676959991455078
1676104306.4800973,3034,1676104306,479496368,,0.0,0.10999853163957596,90,0.17000000178813934,3.6226203441619873,-0.0673794373869896
1676104306.5315316,3035,1676104306,531063162,,0.0,0.11792030185461044,89,0.17000000178813934,3.725670576095581,-0.09898567944765091
1676104306.580326,3036,1676104306,579609111,,0.0,0.12250369787216187,89,0.17000000178813934,3.78908634185791,-0.06545917689800262
1676104306.6333573,3037,1676104306,632298115,,0.0,0.08059132844209671,89,0.18000000715255737,3.643758773803711,-0.07302767783403397
1676104306.6801112,3038,1676104306,679441565,,0.0,0.0985332801938057,89,0.18000000715255737,3.643758773803711,-0.061476267874240875
1676104306.7303913,3039,1676104306,729575656,,0.0,0.1090693548321724,89,0.18000000715255737,3.7045319080352783,-0.00479196896776557
1676104306.7829998,3040,1676104306,781382592,,0.0,0.0862213596701622,89,0.17000000178813934,3.810224771499634,-0.022894473746418953
1676104306.8304439,3041,1676104306,829510052,,0.0,0.08601530641317368,89,0.1599999964237213,4.433812141418457,-0.03185754641890526
1676104306.8815687,3042,1676104306,880715633,,0.0,0.08026598393917084,89,0.1599999964237213,3.6014814376831055,-0.06496043503284454
1676104306.9319112,3043,1676104306,931419006,,0.0,0.08749477565288544,90,0.17000000178813934,3.78908634185791,-0.06850011646747589
1676104306.9803352,3044,1676104306,979463357,,0.0,0.09122257679700851,90,0.18000000715255737,3.6648972034454346,-0.08498052507638931
1676104307.0309875,3045,1676104307,30397040,,0.0,0.11889296770095825,90,0.18000000715255737,4.100879669189453,-0.06386273354291916
1676104307.0827303,3046,1676104307,81401556,,0.0,0.11764268577098846,90,0.17000000178813934,4.330761909484863,-0.02696327120065689
1676104307.1313279,3047,1676104307,129807976,,0.0,0.10662337392568588,90,0.18000000715255737,4.288484573364258,-0.01937105506658554
1676104307.1807022,3048,1676104307,179277978,,0.0,0.10820081830024719,90,0.17000000178813934,3.643758773803711,-0.027337074279785156
1676104307.2313054,3049,1676104307,230867775,,0.0,0.11894436925649643,90,0.17000000178813934,3.6014814376831055,-0.030439021065831184
1676104307.2802458,3050,1676104307,279441875,,0.0,0.11818596720695496,90,0.17000000178813934,3.6014814376831055,-0.02244340255856514
1676104307.3312595,3051,1676104307,330803826,,0.0,0.12426477670669556,90,0.17000000178813934,3.7045319080352783,-0.07189815491437912
1676104307.3827133,3052,1676104307,381673550,,0.0,0.13096530735492706,90,0.17000000178813934,3.8709981441497803,-0.035928722470998764
1676104307.4302044,3053,1676104307,429598112,,0.0,0.11133838444948196,90,0.18000000715255737,3.9766910076141357,-0.014548693783581257
1676104307.4809825,3054,1676104307,480347376,,0.0,0.11393575370311737,90,0.18000000715255737,4.079741477966309,-0.01607942394912243
1676104307.533081,3055,1676104307,531457741,,0.0,0.12410307675600052,90,0.17000000178813934,4.061244964599609,0.015788346529006958
1676104307.5803633,3056,1676104307,579473227,,0.0,0.1061084121465683,90,0.1599999964237213,4.225069046020508,0.03377527371048927
1676104307.6313758,3057,1676104307,630484484,,0.0,0.11456581950187683,90,0.1599999964237213,3.725670576095581,0.024576988071203232
1676104307.6825705,3058,1676104307,681509999,,0.0,0.09903178364038467,90,0.18000000715255737,4.122018814086914,-0.02674645185470581
1676104307.7312438,3059,1676104307,730719101,,0.0,0.09578929841518402,90,0.18000000715255737,4.016325950622559,0.0039056618697941303
1676104307.7820134,3060,1676104307,781409459,,0.0,0.07991054654121399,90,0.18000000715255737,3.955552339553833,0.002327181166037917
1676104307.8300138,3061,1676104307,829500276,,0.0,0.09663040190935135,90,0.1599999964237213,3.955552339553833,-0.00866750255227089
1676104307.880927,3062,1676104307,880470052,,0.0,0.0905492976307869,90,0.1599999964237213,4.164295673370361,0.010235675610601902
1676104307.9322886,3063,1676104307,931704007,,0.0,0.09140448272228241,90,0.17000000178813934,4.079741477966309,-0.031539298593997955
1676104307.9800675,3064,1676104307,979552478,,0.0,0.09003318101167679,90,0.18000000715255737,4.122018814086914,0.003950364422053099
1676104308.0331836,3065,1676104308,31790667,,0.0,0.07415881752967834,90,0.18000000715255737,4.246207237243652,0.006501042749732733
1676104308.0813704,3066,1676104308,80407325,,0.0,0.08119911700487137,90,0.18000000715255737,4.122018814086914,-0.02404167875647545
1676104308.132923,3067,1676104308,132176751,,0.0,0.08423712104558945,90,0.17000000178813934,3.9766910076141357,-0.001956117572262883
1676104308.1816163,3068,1676104308,180357661,,0.0,0.06286635994911194,90,0.17000000178813934,4.182791709899902,0.0019531069556251168
1676104308.2333102,3069,1676104308,231414235,,0.0,0.0650499016046524,90,0.17000000178813934,4.040106773376465,-0.012168790213763714
1676104308.280506,3070,1676104308,279728605,,0.0,0.05292448401451111,90,0.17000000178813934,4.100879669189453,-0.03710096329450607
1676104308.330177,3071,1676104308,329610248,,0.0,0.05113370344042778,90,0.18000000715255737,4.100879669189453,-0.010616272687911987
1676104308.3808968,3072,1676104308,380515826,,0.0,0.04218502342700958,90,0.18000000715255737,4.370396614074707,-0.016853492707014084
1676104308.4321232,3073,1676104308,431553234,,0.0,0.04664459452033043,90,0.18000000715255737,4.164295673370361,-0.034767258912324905
1676104308.4863982,3074,1676104308,480420237,,0.0,0.04693662375211716,90,0.17000000178813934,3.78908634185791,0.0039678397588431835
1676104308.5312185,3075,1676104308,530663963,,0.0,0.014581171795725822,89,0.18000000715255737,3.662255048751831,-0.005211884155869484
1676104308.582424,3076,1676104308,581759110,,0.0,0.043028734624385834,89,0.17000000178813934,3.6648972034454346,-0.0028458016458898783
1676104308.6304626,3077,1676104308,629512365,,0.0,0.021318772807717323,89,0.17000000178813934,3.707174301147461,0.02692299336194992
1676104308.682545,3078,1676104308,681648874,,0.0,0.029575111344456673,89,0.17000000178813934,4.288484573364258,0.0027797729708254337
1676104308.7300453,3079,1676104308,729501108,,0.0,0.023440642282366753,89,0.17000000178813934,4.203930377960205,0.020792311057448387
1676104308.7823753,3080,1676104308,781899535,,0.0,0.01075111422687769,89,0.17000000178813934,3.707174301147461,-0.01550004631280899
1676104308.8301365,3081,1676104308,829540145,,0.0,0.009223668836057186,89,0.17000000178813934,3.580343008041382,0.03322141245007515
1676104308.8807926,3082,1676104308,879881442,,0.0,0.019924284890294075,90,0.17000000178813934,3.3927383422851562,-0.0007827546214684844
1676104308.9314682,3083,1676104308,930447733,,0.0,0.014334592036902905,90,0.17000000178813934,3.3927383422851562,0.013141344301402569
1676104308.9819183,3084,1676104308,981407476,,0.0,0.02027878724038601,90,0.1599999964237213,3.516927480697632,-0.031000304967164993
1676104309.030743,3085,1676104309,29954175,,0.0,0.019960245117545128,90,0.17000000178813934,3.6833934783935547,-0.03581089898943901
1676104309.0808735,3086,1676104309,80390380,,0.0,0.030927779152989388,90,0.18000000715255737,3.892136573791504,-0.06911567598581314
1676104309.1330073,3087,1676104309,131788875,,0.0,0.027006370946764946,90,0.18000000715255737,3.9344139099121094,-0.02860294282436371
1676104309.1803098,3088,1676104309,179867921,,0.0,0.03298218175768852,90,0.18000000715255737,3.955552339553833,0.0015423643635585904
1676104309.2310786,3089,1676104309,230531306,,0.0,0.06861541420221329,90,0.18000000715255737,4.100879669189453,-0.01706475391983986
1676104309.282303,3090,1676104309,281623420,,0.0,0.05317965894937515,90,0.18000000715255737,3.810224771499634,0.022834552451968193
1676104309.32991,3091,1676104309,329393159,,0.0,0.044731076806783676,90,0.17000000178813934,4.037464141845703,0.031096123158931732
1676104309.3820047,3092,1676104309,380734877,,0.0,0.06369081884622574,89,0.1599999964237213,3.78908634185791,-0.015805376693606377
1676104309.4319346,3093,1676104309,431457983,,0.0,0.04047500342130661,90,0.17000000178813934,3.580343008041382,-0.020996663719415665
1676104309.4806392,3094,1676104309,480178049,,0.0,0.05595431104302406,89,0.18000000715255737,3.580343008041382,-0.04767698794603348
1676104309.532836,3095,1676104309,531957792,,0.0,0.04013696685433388,89,0.18000000715255737,3.9951870441436768,-0.008767638355493546
1676104309.5800583,3096,1676104309,579517278,,0.0,0.05963470786809921,89,0.17000000178813934,4.100879669189453,-0.031204838305711746
1676104309.6337388,3097,1676104309,632122759,,0.0,0.06298646330833435,89,0.17000000178813934,4.040106773376465,-0.02204979583621025
1676104309.6800754,3098,1676104309,679637672,,0.0,0.059248555451631546,89,0.17000000178813934,3.9951870441436768,-0.013219926506280899
1676104309.731605,3099,1676104309,730875560,,0.0,0.06073613092303276,90,0.18000000715255737,4.016325950622559,-0.04803340509533882
1676104309.7823946,3100,1676104309,781840788,,0.0,0.046728938817977905,90,0.18000000715255737,3.78908634185791,0.00429977010935545
1676104309.830439,3101,1676104309,829924131,,0.0,0.03332977741956711,90,0.18000000715255737,4.143157005310059,0.03079100511968136
1676104309.8810205,3102,1676104309,880517554,,0.0,0.038453374058008194,90,0.17000000178813934,3.8498594760894775,0.03862522915005684
1676104309.9306908,3103,1676104309,930191336,,0.0,0.03830277547240257,90,0.17000000178813934,4.037464141845703,0.026195872575044632
1676104309.9834075,3104,1676104309,982749280,,0.0,0.04758744314312935,90,0.17000000178813934,4.037464141845703,0.01166913378983736
1676104310.0310156,3105,1676104310,30487541,,0.0,0.02790493331849575,90,0.17000000178813934,3.955552339553833,-0.027025815099477768
1676104310.0815046,3106,1676104310,80644924,,0.0,0.021491218358278275,90,0.18000000715255737,3.8709981441497803,-0.025291787460446358
1676104310.1320903,3107,1676104310,131644507,,0.0,0.04369058087468147,90,0.18000000715255737,3.725670576095581,-0.055330920964479446
1676104310.1809304,3108,1676104310,179893867,,0.0,0.04295048490166664,90,0.17000000178813934,3.810224771499634,-0.03445650264620781
1676104310.2311265,3109,1676104310,230623105,,0.0,0.013870188035070896,90,0.17000000178813934,4.122018814086914,0.02279749885201454
1676104310.2803266,3110,1676104310,279802625,,0.0,0.012464483268558979,90,0.17000000178813934,3.9344139099121094,0.029882505536079407
1676104310.3324487,3111,1676104310,331716942,,0.0,0.03207654878497124,90,0.17000000178813934,4.225069046020508,-0.009943865239620209
1676104310.3806021,3112,1676104310,379597386,,0.0,0.012395117431879044,90,0.17000000178813934,4.040106773376465,-0.01217006053775549
1676104310.4312813,3113,1676104310,430617857,,0.0,0.040354173630476,90,0.17000000178813934,4.246207237243652,0.010120660997927189
1676104310.4829497,3114,1676104310,481761788,,0.0,0.02013315260410309,90,0.17000000178813934,3.8313634395599365,0.01840699277818203
1676104310.5301578,3115,1676104310,529575974,,0.0,0.014586861245334148,90,0.17000000178813934,3.9344139099121094,0.022435003891587257
1676104310.5811532,3116,1676104310,580661554,,0.0,0.04886194318532944,90,0.17000000178813934,3.725670576095581,-0.010052171535789967
1676104310.6310148,3117,1676104310,630284803,,0.0,0.023551376536488533,90,0.17000000178813934,3.725670576095581,0.030063996091485023
1676104310.682213,3118,1676104310,681046874,,0.0,0.03227435424923897,90,0.1599999964237213,3.7468090057373047,-0.036655571311712265
1676104310.732633,3119,1676104310,731833777,,0.0,0.03794347867369652,90,0.18000000715255737,3.810224771499634,0.010772568173706532
1676104310.7801309,3120,1676104310,779491468,,0.0,0.0241067036986351,90,0.17000000178813934,3.9344139099121094,-0.00607419665902853
1676104310.8312767,3121,1676104310,830569233,,0.0,0.024120211601257324,90,0.17000000178813934,3.6833934783935547,-0.0017919463571161032
1676104310.881958,3122,1676104310,881611259,,0.0,0.026579832658171654,90,0.18000000715255737,4.122018814086914,-0.004487019497901201
1676104310.9300787,3123,1676104310,929571756,,0.0,0.019915280863642693,90,0.18000000715255737,4.143157005310059,0.005357424728572369
1676104310.9802644,3124,1676104310,979609439,,0.0,0.028431711718440056,90,0.17000000178813934,4.3096232414245605,-0.014889651909470558
1676104311.032062,3125,1676104311,31433223,,0.0,0.03734917566180229,90,0.17000000178813934,3.6226203441619873,0.05955064669251442
1676104311.0805626,3126,1676104311,79679531,,0.0,0.056833893060684204,90,0.1599999964237213,3.9951870441436768,0.04401431605219841
1676104311.1332788,3127,1676104311,131506188,,0.0,0.04106368124485016,90,0.17000000178813934,3.9951870441436768,0.011136660352349281
1676104311.180568,3128,1676104311,179662646,,0.0,0.03946484625339508,90,0.17000000178813934,3.9344139099121094,-0.014246280305087566
1676104311.2313035,3129,1676104311,230579975,,0.0,0.018208995461463928,90,0.17000000178813934,4.122018814086914,0.005196700803935528
1676104311.284491,3130,1676104311,282567331,,0.0,0.042048484086990356,90,0.18000000715255737,4.058602809906006,-0.010828730650246143
1676104311.3308616,3131,1676104311,330423037,,0.0,0.019253408536314964,90,0.18000000715255737,3.6014814376831055,-0.008965776301920414
1676104311.3870602,3132,1676104311,382423986,,0.0,0.04047497361898422,90,0.17000000178813934,4.288484573364258,-0.027507377788424492
1676104311.4301534,3133,1676104311,429592525,,0.0,0.0280129536986351,90,0.17000000178813934,4.3096232414245605,-0.0007777589489705861
1676104311.4809546,3134,1676104311,480476429,,0.0,0.01935538277029991,90,0.1599999964237213,4.058602809906006,-0.03156811743974686
1676104311.530294,3135,1676104311,529408515,,0.0,0.01958180032670498,90,0.17000000178813934,3.9978294372558594,0.01860172487795353
1676104311.5809205,3136,1676104311,580458544,,0.0,0.011564747430384159,90,0.17000000178813934,4.225069046020508,0.01602119579911232
1676104311.6332364,3137,1676104311,631984060,,0.0,0.013382517732679844,90,0.17000000178813934,3.8498594760894775,-0.03339723125100136
1676104311.6800745,3138,1676104311,679534887,,0.0,0.02114269509911537,90,0.17000000178813934,3.8498594760894775,-0.0449451319873333
1676104311.7311203,3139,1676104311,730473752,,0.0,0.01980210654437542,90,0.18000000715255737,3.662255048751831,0.0037296097725629807
1676104311.782205,3140,1676104311,781423247,,0.0,0.02163834124803543,90,0.1899999976158142,4.122018814086914,0.031049668788909912
1676104311.8315268,3141,1676104311,830490662,,0.0,0.04938048869371414,90,0.1899999976158142,3.78908634185791,0.06531272083520889
1676104311.881885,3142,1676104311,881395713,,0.0,0.03316345810890198,90,0.1899999976158142,4.288484573364258,0.1335936039686203
1676104311.9304264,3143,1676104311,929878904,,0.0,0.06381089240312576,90,0.17000000178813934,3.892136573791504,0.20666435360908508
1676104311.9809878,3144,1676104311,980416317,,0.0,0.10572482645511627,90,0.17000000178813934,3.810224771499634,0.21959936618804932
