Time,header.seq,header.stamp.secs,header.stamp.nsecs,header.frame_id,pose.position.x,pose.position.y,pose.position.z,pose.orientation.x,pose.orientation.y,pose.orientation.z,pose.orientation.w
1676104288.8730655,548,1676104288,532254400,map,-0.4126903712749481,0.5182854533195496,0.1253667175769806,0.05173712549643613,-0.01829033745646005,0.03942656446745547,-0.9977145700252257
1676104288.8740087,549,1676104288,562254400,map,-0.41272273659706116,0.5182227492332458,0.1253984123468399,0.05175758120594309,-0.018292778022406635,0.03942374062860523,-0.99771360064771
1676104288.8745048,550,1676104288,602256960,map,-0.4127643406391144,0.5181493759155273,0.1254294216632843,0.05174900037100408,-0.01829593245059987,0.03941969453114822,-0.9977141064098921
1676104288.8746226,551,1676104288,632256960,map,-0.412797212600708,0.5180962085723877,0.12544550001621246,0.051746853515908055,-0.018297404956119718,0.03942576367733376,-0.9977139378224981
1676104288.8747463,552,1676104288,662256960,map,-0.41283273696899414,0.518051266670227,0.1254613995552063,0.051745037250155036,-0.018314267646791126,0.03944721642322584,-0.9977128841512853
1676104288.8748643,553,1676104288,702259008,map,-0.4128752648830414,0.5180186033248901,0.12548404932022095,0.05175028058152759,-0.018310657505798366,0.03945113608013731,-0.9977125048296487
1676104288.875066,554,1676104288,732259008,map,-0.4129113256931305,0.5180043578147888,0.12549935281276703,0.05174560754969895,-0.018311595273177727,0.03944144230497982,-0.9977131791792249
1676104288.8771565,555,1676104288,762259008,map,-0.4129503071308136,0.5179882049560547,0.1255088448524475,0.05175596382063148,-0.018305553785861493,0.03944224309510153,-0.9977127155638912
1676104288.8781118,556,1676104288,802259520,map,-0.4129992127418518,0.517973005771637,0.12552416324615479,0.05176539022671875,-0.018303181708543743,0.03943722762012872,-0.9977124205359517
1676104288.8785152,557,1676104288,832259520,map,-0.4130282700061798,0.517971932888031,0.12553651630878448,0.051769665497664576,-0.01829820047788536,0.03944776433225643,-0.9977119147737695
1676104288.8793118,558,1676104288,872259520,map,-0.41306519508361816,0.5179834365844727,0.12555506825447083,0.051778051403429226,-0.018292764851516475,0.03945084105219774,-0.997711451158436
1676104288.913167,559,1676104288,902261824,map,-0.41308310627937317,0.5180099606513977,0.1255645453929901,0.051779224929742455,-0.018282961757970645,0.03945176828286498,-0.997711535452133
1676104288.9489148,560,1676104288,932261824,map,-0.4131026864051819,0.5180220603942871,0.12557615339756012,0.05177095756198924,-0.018287604496751923,0.0394583431912327,-0.99771161974583
1676104288.9759226,561,1676104288,972261824,map,-0.413129597902298,0.5180428624153137,0.12558752298355103,0.05177846496938024,-0.018294416481142498,0.039452948394623294,-0.9977112825710418
1676104289.009119,562,1676104289,2264384,map,-0.4131535589694977,0.5180552005767822,0.12559396028518677,0.05176537573873958,-0.018293202125069772,0.03944843868183261,-0.9977121676548606
1676104289.0456555,563,1676104289,32264384,map,-0.41317498683929443,0.5180727243423462,0.12559722363948822,0.05176261775434014,-0.01829620772220421,0.03945463426856373,-0.997712041214315
1676104289.075573,564,1676104289,72264384,map,-0.41320866346359253,0.5180947184562683,0.1256081908941269,0.051751409326814275,-0.018288787242688256,0.03945509788389735,-0.9977127577107398
1676104289.10833,565,1676104289,102266944,map,-0.41324254870414734,0.5181187391281128,0.1256166696548462,0.05174574979531268,-0.018288045721572267,0.03944856512237819,-0.9977133056197705
1676104289.1409783,566,1676104289,132266944,map,-0.41328006982803345,0.5181423425674438,0.1256292313337326,0.05174870929433155,-0.018291908743656098,0.03945138896122838,-0.9977129262981338
1676104289.1762311,567,1676104289,172266944,map,-0.4133234918117523,0.5181769728660583,0.12564915418624878,0.051760017820622624,-0.018291848157561363,0.039444898346557726,-0.9977126734170427
1676104289.2082427,568,1676104289,203269504,map,-0.41335150599479675,0.5182065367698669,0.12566685676574707,0.051775485714026126,-0.01828280239019971,0.03943984072473641,-0.9977121676548606
1676104289.2408712,569,1676104289,233269504,map,-0.4133860766887665,0.5182231664657593,0.12568232417106628,0.051777366517140926,-0.01828384025634429,0.03943769123546234,-0.9977121255080121
1676104289.2746518,570,1676104289,263269504,map,-0.41342759132385254,0.5182420015335083,0.1256975531578064,0.05178048538393073,-0.018271185665078897,0.0394344880749755,-0.9977123783891032
1676104289.3071313,571,1676104289,303272064,map,-0.41348832845687866,0.5182645916938782,0.1257178783416748,0.05178776361783296,-0.01828421694380286,0.0394232348664231,-0.9977121676548606
1676104289.3444607,572,1676104289,333272064,map,-0.4135333001613617,0.5182757377624512,0.1257312297821045,0.051796688213005135,-0.01827563479177483,0.039419230915814604,-0.9977120412143151
1676104289.376769,573,1676104289,373272064,map,-0.4135873019695282,0.5182977318763733,0.1257525235414505,0.051798611162968446,-0.018279875818406233,0.03940936855326302,-0.9977122940954062
1676104289.4091213,574,1676104289,403274624,map,-0.41362878680229187,0.5183081030845642,0.1257726103067398,0.05179674748201085,-0.01827561766961762,0.03941552199314563,-0.9977122098017092
1676104289.4442456,575,1676104289,433274624,map,-0.4136672914028168,0.5183220505714417,0.12579604983329773,0.0517941277919581,-0.01828070295030826,0.03941269815429539,-0.9977123362422546
1676104289.4776516,576,1676104289,473274624,map,-0.4137148857116699,0.5183390974998474,0.12581652402877808,0.0517947217991043,-0.018283796792406763,0.03941257171374986,-0.997712209801709
1676104289.511186,577,1676104289,503277440,map,-0.41374993324279785,0.5183590650558472,0.12582574784755707,0.05180721043715369,-0.01829596406073625,0.03941177092362815,-0.9977114090115874
1676104289.5401766,578,1676104289,533277440,map,-0.4137924313545227,0.5183919072151184,0.1258307248353958,0.051809479781528195,-0.018303240977549463,0.03941274030114391,-0.9977111139836478
1676104289.5748777,579,1676104289,563277440,map,-0.41383183002471924,0.518433690071106,0.12583187222480774,0.051803940105127046,-0.01832320541285347,0.03941750289502566,-0.9977108189557082
1676104289.6076527,580,1676104289,603280000,map,-0.41387519240379333,0.5185020565986633,0.1258375346660614,0.0517881877204961,-0.018315302878757673,0.03941008504968771,-0.9977120833611636
1676104289.6405294,581,1676104289,633280000,map,-0.41390901803970337,0.5185534954071045,0.12584185600280762,0.05179254728513894,-0.01831843491643764,0.03941143374884006,-0.9977117461863755
1676104289.6765108,582,1676104289,673280000,map,-0.4139547049999237,0.5186309218406677,0.12585650384426117,0.05180391903170278,-0.018321034850155155,0.039408357028898756,-0.9977112825710419
1676104289.7076554,583,1676104289,703282304,map,-0.4139825701713562,0.5186971426010132,0.12587189674377441,0.051810171253261574,-0.018316320988567013,0.039415817021085216,-0.9977107346620112
1676104289.7403204,584,1676104289,733282304,map,-0.414009690284729,0.5187675356864929,0.12588275969028473,0.051815126142139636,-0.018312978216644495,0.03941784006981375,-0.9977104817809201
1676104289.7744446,585,1676104289,763282304,map,-0.4140287935733795,0.5188450217247009,0.12588787078857422,0.05180832732863922,-0.01831956629590235,0.03941661781120693,-0.9977106925151628
1676104289.8130934,586,1676104289,803286656,map,-0.4140506982803345,0.5189571976661682,0.12589198350906372,0.051809574611937345,-0.018319325268612432,0.03941467905617542,-0.9977107768088598
1676104289.8412125,587,1676104289,833286656,map,-0.41405990719795227,0.5190504193305969,0.1258888989686966,0.05181636157163661,-0.018321373342032262,0.039413203916477534,-0.9977103974872231
1676104289.8751376,588,1676104289,864286656,map,-0.41407009959220886,0.5191466212272644,0.12588922679424286,0.05181335334032414,-0.01832384946938227,0.03941227668581029,-0.9977105660746172
1676104289.9079556,589,1676104289,904288960,map,-0.4140706956386566,0.5192745327949524,0.12590236961841583,0.051831966442297775,-0.018325013776072385,0.039421253964543095,-0.9977092595223134
1676104289.9463422,590,1676104289,934288960,map,-0.4140658378601074,0.5193720459938049,0.12591399252414703,0.05183877579251031,-0.0183239258605452,0.03941918876896605,-0.9977089644943737
1676104289.975301,591,1676104289,963288960,map,-0.4140557050704956,0.5194690227508545,0.1259254664182663,0.051837002990694825,-0.018320994020395658,0.03942239192945289,-0.9977089644943737
1676104290.0101001,592,1676104290,3292032,map,-0.41403016448020935,0.5196051597595215,0.12594451010227203,0.05183968458393133,-0.018316062839119886,0.03941880944732945,-0.9977090909349193
1676104290.040767,593,1676104290,34292032,map,-0.4140039384365082,0.5197080373764038,0.12596267461776733,0.051849358602753595,-0.01830928114777668,0.039420326733875855,-0.9977086694664342
1676104290.0758624,594,1676104290,63292032,map,-0.4139712452888489,0.5198043584823608,0.12597838044166565,0.05186396511994065,-0.01830895187552269,0.03942829248824445,-0.9977076157952215
1676104290.1097214,595,1676104290,104294592,map,-0.4139174818992615,0.5199201107025146,0.12599343061447144,0.05185578599715151,-0.01831562424847757,0.03943735406067427,-0.9977074893546759
1676104290.1422362,596,1676104290,134294592,map,-0.4138689935207367,0.5200052261352539,0.1260027140378952,0.05185281859559854,-0.018315562345293822,0.03943035768382143,-0.997707995116858
1676104290.175955,597,1676104290,164294592,map,-0.41381168365478516,0.5200913548469543,0.1260106861591339,0.0518456220212153,-0.01830415108605949,0.03942702808278911,-0.9977086273195858
1676104290.2099583,598,1676104290,204296896,map,-0.41372886300086975,0.5202008485794067,0.12602642178535461,0.051837358604729135,-0.01830198315753921,0.03942154899248267,-0.9977093859628589
1676104290.2423484,599,1676104290,234296896,map,-0.4136601984500885,0.5202738046646118,0.12603256106376648,0.051837907830848795,-0.018302324283594348,0.039423192719574604,-0.9977092595223134
1676104290.2758877,600,1676104290,264296896,map,-0.413590669631958,0.5203465819358826,0.1260310262441635,0.051829494266214804,-0.018310226817690144,0.03942066390866394,-0.9977095966971015
1676104290.3096194,601,1676104290,304299456,map,-0.4134930670261383,0.520435631275177,0.12603110074996948,0.05182997895497268,-0.018307092145832145,0.0394281239008504,-0.9977093859628589
1676104290.34234,602,1676104290,334299456,map,-0.4134182929992676,0.5204980969429016,0.12603144347667694,0.05182806917589953,-0.018310329550633386,0.03942201260781629,-0.9977096809907985
1676104290.37516,603,1676104290,364299456,map,-0.41333910822868347,0.5205525755882263,0.12602843344211578,0.05183224171390211,-0.0183125580652484,0.03941210809841625,-0.997709807431344
1676104290.4089513,604,1676104290,404302016,map,-0.413230299949646,0.5206171870231628,0.12602810561656952,0.05183456505892627,-0.018305356222509103,0.039404142344047655,-0.9977101024592836
1676104290.440992,605,1676104290,434302016,map,-0.41314661502838135,0.5206587314605713,0.1260269433259964,0.05183014490818869,-0.01829610498926096,0.03940637612701874,-0.9977104817809201
1676104290.4754279,606,1676104290,464302016,map,-0.41306552290916443,0.5206950306892395,0.12603341042995453,0.051839322384451936,-0.018293665740403395,0.03940979002174814,-0.9977098495781925
1676104290.507869,607,1676104290,504304576,map,-0.41295793652534485,0.5207452178001404,0.12605097889900208,0.05181985317461794,-0.018296644995757505,0.03941311962278051,-0.9977106503683142
1676104290.540732,608,1676104290,534304576,map,-0.4128876030445099,0.5207757949829102,0.12605968117713928,0.051819909809445626,-0.01829591927970971,0.03941151804253709,-0.9977107346620112
1676104290.5741863,609,1676104290,565304576,map,-0.4128223955631256,0.5207960605621338,0.12606516480445862,0.05181955946376738,-0.018284431629312457,0.03940178212053109,-0.9977113668647389
1676104290.607429,610,1676104290,604307136,map,-0.41273969411849976,0.5208113193511963,0.12608064711093903,0.05181155156255031,-0.018283615034122562,0.03940380516925961,-0.997711704039527
1676104290.6465967,611,1676104290,634307136,map,-0.41268107295036316,0.5208162665367126,0.1260911226272583,0.05181449130523394,-0.018284916318070336,0.0393965137644672,-0.9977118304800725
1676104290.6758244,612,1676104290,664307136,map,-0.4126284718513489,0.520828127861023,0.12609784305095673,0.05181298455539968,-0.0182817289626517,0.039397651729377,-0.997711956920618
1676104290.7094145,613,1676104290,704309696,map,-0.4125567376613617,0.5208350419998169,0.12610262632369995,0.051809222949170085,-0.01829359330050752,0.03940039127453022,-0.9977118304800725
1676104290.7468045,614,1676104290,734309696,map,-0.4125058352947235,0.5208279490470886,0.12610559165477753,0.05180415742481468,-0.018290508678032127,0.03940308867283493,-0.9977119990674665
1676104290.7750497,615,1676104290,764309696,map,-0.41246652603149414,0.5208207964897156,0.1260993629693985,0.05179505238844731,-0.018284361823594615,0.03939744099513444,-0.9977128420044368
1676104290.8085585,616,1676104290,804312256,map,-0.41242292523384094,0.520807147026062,0.12609069049358368,0.05179150283354928,-0.018289660472705842,0.039399253309620415,-0.9977127998575882
1676104290.8426495,617,1676104290,834312256,map,-0.4123894274234772,0.5208003520965576,0.12608018517494202,0.05179529341573723,-0.018294762875553695,0.03939529150586038,-0.9977127155638912
1676104290.8750196,618,1676104290,864312256,map,-0.4123576581478119,0.5207859873771667,0.12606678903102875,0.05180096216686195,-0.018300526457087556,0.039408314882050245,-0.9977118304800725
1676104290.9085233,619,1676104290,905314304,map,-0.4123186767101288,0.5207588076591492,0.126046285033226,0.051803891372833456,-0.018304108939210986,0.03940742979823151,-0.99771161974583
1676104290.9402888,620,1676104290,935314304,map,-0.41229063272476196,0.5207422971725464,0.12602882087230682,0.05179546068604226,-0.018304410552595643,0.03941168662993113,-0.9977118304800725
1676104290.9759843,621,1676104290,965314304,map,-0.4122648537158966,0.5207219123840332,0.12600909173488617,0.05179602440014109,-0.018300211672812743,0.03942032673387584,-0.997711535452133
1676104291.0078266,622,1676104290,995315072,map,-0.4122450649738312,0.5206989049911499,0.12598946690559387,0.05178766483615676,-0.018291364785892505,0.03942100108345201,-0.9977121255080121
1676104291.0450025,623,1676104291,35315072,map,-0.4122336506843567,0.5206723213195801,0.12595488131046295,0.05179403032737092,-0.01829391862149446,0.03941720786708608,-0.9977118726269211
1676104291.076788,624,1676104291,65315072,map,-0.41223540902137756,0.5206581354141235,0.1259269118309021,0.051794944387148,-0.01828657716731947,0.03942449927187844,-0.9977117461863755
1676104291.1073728,625,1676104291,95317632,map,-0.4122377932071686,0.5206518769264221,0.1258976310491562,0.051795004973242735,-0.018290325602658905,0.03942719667018314,-0.9977115775989814
1676104291.1410956,626,1676104291,135317632,map,-0.41223689913749695,0.5206605195999146,0.12585435807704926,0.051797679981034156,-0.018292381578612824,0.039426943789092075,-0.9977113247178904
1676104291.1747935,627,1676104291,165317632,map,-0.4122333228588104,0.5206720232963562,0.1258133351802826,0.05179680411683854,-0.018292577824876206,0.0394360053615219,-0.9977110296899508
1676104291.2072964,628,1676104291,195319168,map,-0.41223782300949097,0.520677387714386,0.1257641762495041,0.05179366154244645,-0.01828991467088592,0.03944350750055687,-0.9977109453962538
1676104291.2404733,629,1676104291,235319168,map,-0.4122541546821594,0.5206867456436157,0.1256943643093109,0.05180243203820376,-0.018287834987329717,0.039442748857283674,-0.9977106082214657
1676104291.2789357,630,1676104291,266319168,map,-0.4122733771800995,0.5206977128982544,0.125652015209198,0.05181010803298881,-0.018295795473342213,0.03944746930431686,-0.9977098495781925
1676104291.3095107,631,1676104291,305321728,map,-0.41229939460754395,0.520712673664093,0.12560510635375977,0.05179971488356382,-0.018302669360916533,0.039445109080800296,-0.9977103553403747
1676104291.3420951,632,1676104291,335321728,map,-0.41231992840766907,0.5207242965698242,0.12557493150234222,0.05179864277310483,-0.01830313561042819,0.03944738501061983,-0.9977102710466776
1676104291.3753517,633,1676104291,365321728,map,-0.4123380482196808,0.5207356810569763,0.12554800510406494,0.051803390879007385,-0.018298182038639137,0.039444392584375605,-0.9977103131935261
1676104291.40886,634,1676104291,405324544,map,-0.4123649001121521,0.520760715007782,0.125515416264534,0.05180045113632375,-0.01829652777483509,0.039452990541471805,-0.997710144606132
1676104291.4412138,635,1676104291,435324544,map,-0.41239050030708313,0.5207796692848206,0.12549658119678497,0.05180259140597469,-0.018287838938596764,0.039453285569411384,-0.9977101867529806
1676104291.4741828,636,1676104291,465324544,map,-0.41241925954818726,0.5207909345626831,0.1254824697971344,0.05179813305965565,-0.018281597253750104,0.039450714611652206,-0.9977106503683142
1676104291.508874,637,1676104291,495327104,map,-0.41244760155677795,0.5207971930503845,0.12546561658382416,0.051802819262374455,-0.018289623594213395,0.039448818003469215,-0.9977102710466776
1676104291.5399816,638,1676104291,535327104,map,-0.4124811291694641,0.5207974910736084,0.12544573843479156,0.05179665791995777,-0.018287065807344387,0.03945442353432118,-0.9977104817809201
1676104291.5743673,639,1676104291,566327104,map,-0.4125085771083832,0.5207936763763428,0.12542790174484253,0.05178914787838874,-0.0182946812160347,0.039454634268563736,-0.9977106925151626
1676104291.6077318,640,1676104291,596329664,map,-0.41253483295440674,0.5207886099815369,0.12540633976459503,0.05180525719414301,-0.01828664829012633,0.03946179923281057,-0.9977096809907985
1676104291.6425028,641,1676104291,636329664,map,-0.41256678104400635,0.5207870602607727,0.12537233531475067,0.05181243796345805,-0.0182823809217146,0.039460366239961187,-0.9977095124034044
1676104291.6759956,642,1676104291,665329664,map,-0.4125869572162628,0.5207789540290833,0.12534518539905548,0.05180998027535426,-0.018280882074414435,0.039461293470628434,-0.9977095966971015
1676104291.7101195,643,1676104291,705332224,map,-0.41261017322540283,0.5207681059837341,0.12530508637428284,0.051801877543728045,-0.018289216613707464,0.03946217855444716,-0.997709807431344
1676104291.7431173,644,1676104291,736332224,map,-0.41262689232826233,0.5207512378692627,0.1252848505973816,0.05179562795634728,-0.018294349309602678,0.03946698329517742,-0.997709891725041
1676104291.7759814,645,1676104291,766332224,map,-0.4126317501068115,0.5207312703132629,0.12526600062847137,0.051807269706159405,-0.018295082928184575,0.0394638222815391,-0.9977093438160104
1676104291.8100271,646,1676104291,806335040,map,-0.41262611746788025,0.5206957459449768,0.12523940205574036,0.051813374413748406,-0.018295210685819123,0.039465213127539964,-0.9977089644943737
1676104291.842127,647,1676104291,836335040,map,-0.41262274980545044,0.5206635594367981,0.12522172927856445,0.05180763717399486,-0.018293171832022406,0.03947680351088045,-0.9977088380538283
1676104291.8756166,648,1676104291,866335040,map,-0.41261714696884155,0.5206294655799866,0.12520499527454376,0.051812491964107706,-0.01828639409194625,0.039477014245123,-0.9977087116132827
1676104291.909913,649,1676104291,906337600,map,-0.41259297728538513,0.5205791592597961,0.12519069015979767,0.05180576163923612,-0.018274679902238255,0.03948143966421667,-0.9977090909349193
1676104291.9410982,650,1676104291,936337600,map,-0.4125693738460541,0.5205386281013489,0.12518519163131714,0.05179879818960872,-0.018268461924993876,0.03947945876233664,-0.9977097231376469
1676104291.9749327,651,1676104291,966337600,map,-0.41254958510398865,0.5204967856407166,0.1251780092716217,0.05179336388032884,-0.018277620962010906,0.0394823247480354,-0.9977096388439499
1676104292.007967,652,1676104291,996339904,map,-0.41253671050071716,0.5204556584358215,0.1251683533191681,0.05180793088484542,-0.018285091490909462,0.03948894180325158,-0.9977085008790402
1676104292.0409927,653,1676104292,36339904,map,-0.41251760721206665,0.5204005837440491,0.12515853345394135,0.05181200859243885,-0.018285428665697545,0.039488351747372426,-0.9977083322916461
1676104292.076091,654,1676104292,66339904,map,-0.4124974310398102,0.5203655958175659,0.12515532970428467,0.051804916068087875,-0.018285645985385176,0.039482661922823487,-0.9977088802006768
1676104292.1105468,655,1676104292,106341952,map,-0.4124588966369629,0.5203310251235962,0.12514959275722504,0.0517963800141754,-0.018292190600705516,0.039478025769487265,-0.9977093859628589
1676104292.140179,656,1676104292,136341952,map,-0.4124322235584259,0.5203076004981995,0.1251438409090042,0.05179488248396425,-0.018295595275811784,0.03947794147579024,-0.9977094702565559
1676104292.174227,657,1676104292,166341952,map,-0.4124078154563904,0.5202817320823669,0.12513937056064606,0.05179351534556568,-0.018292752997715326,0.039486160111249904,-0.9977092595223134
1676104292.209796,658,1676104292,206344256,map,-0.41237425804138184,0.5202529430389404,0.12512701749801636,0.05179185844758359,-0.01828212935771255,0.03947692995142598,-0.997709891725041
1676104292.2424417,659,1676104292,236344256,map,-0.41234493255615234,0.5202410817146301,0.12511399388313293,0.05179258416363139,-0.01828281029273381,0.03947427469996978,-0.9977099338718896
1676104292.2758472,660,1676104292,266344256,map,-0.4123103618621826,0.5202338099479675,0.12510229647159576,0.05179114195115891,-0.018277914672861464,0.03946984928087618,-0.9977103131935261
1676104292.3071153,661,1676104292,296346560,map,-0.41227468848228455,0.5202367901802063,0.12508681416511536,0.0517920902552504,-0.018290590337551114,0.039464875952751874,-0.997710144606132
1676104292.34187,662,1676104292,336346560,map,-0.41221702098846436,0.5202466249465942,0.1250682920217514,0.05178383605838735,-0.01828881358446858,0.03947022860251277,-0.9977104396340717
1676104292.3751156,663,1676104292,366346560,map,-0.41217347979545593,0.5202590823173523,0.12505154311656952,0.051786061938824325,-0.018282683852188272,0.03947524407748554,-0.9977102288998291
1676104292.4088109,664,1676104292,396348608,map,-0.4121338129043579,0.5202698707580566,0.12503397464752197,0.05180225027991956,-0.0182867365350904,0.03946146205802248,-0.9977098495781925
1676104292.4438312,665,1676104292,436348608,map,-0.4120835065841675,0.5202866792678833,0.125001460313797,0.05180144817270883,-0.018282976245949815,0.0394548871496548,-0.9977101867529805
1676104292.474974,666,1676104292,466348608,map,-0.4120422601699829,0.5203015804290771,0.12498006224632263,0.05179154234621976,-0.01827802003998274,0.03944544625558838,-0.9977111982773449
1676104292.5103726,667,1676104292,497351168,map,-0.4120042622089386,0.5203152298927307,0.1249651238322258,0.051792340502163435,-0.018273481351233727,0.039439419256251294,-0.9977114933052844
1676104292.5419102,668,1676104292,537351168,map,-0.41195395588874817,0.5203352570533752,0.12494717538356781,0.05177780379069422,-0.01827541088664211,0.03943659541740105,-0.9977123783891032
1676104292.5739322,669,1676104292,566351168,map,-0.41191723942756653,0.520350992679596,0.12493392825126648,0.05177131581020158,-0.018266399363594876,0.03942723881703165,-0.9977132213260733
1676104292.607418,670,1676104292,597353728,map,-0.41188156604766846,0.5203700065612793,0.12491738051176071,0.05178998027864683,-0.018267480693676987,0.03943204355776191,-0.9977120412143151
1676104292.6459649,671,1676104292,637353728,map,-0.41185110807418823,0.5204028487205505,0.12489145249128342,0.05179154498039779,-0.01826956696267827,0.03943103203339765,-0.9977119569206181
1676104292.6758022,672,1676104292,667353728,map,-0.41183388233184814,0.5204344987869263,0.12487209588289261,0.05178593418118978,-0.01827582576968214,0.03943608965521892,-0.9977119569206181
1676104292.7096226,673,1676104292,697356032,map,-0.41182243824005127,0.5204679369926453,0.12485688924789429,0.05179675275036692,-0.018274801074427718,0.039431200620791695,-0.99771161974583
1676104292.7423923,674,1676104292,737356032,map,-0.4118093252182007,0.520501434803009,0.12484189122915268,0.05178937968605554,-0.018275888989954907,0.03943128491448872,-0.9977119569206181
1676104292.7766418,675,1676104292,767356032,map,-0.41181397438049316,0.5205284953117371,0.12483596056699753,0.0517897392513569,-0.018272378947727357,0.03942593226472781,-0.9977121676548606
1676104292.809235,676,1676104292,797358336,map,-0.41182398796081543,0.5205619931221008,0.12482689321041107,0.051777956573020076,-0.018271633475344322,0.039427491698122714,-0.9977127155638912
1676104292.842287,677,1676104292,837358336,map,-0.41184425354003906,0.520606279373169,0.12481775879859924,0.051771213077258335,-0.01827398316214881,0.03942534220884865,-0.9977130948855278
1676104292.8764534,678,1676104292,867358336,map,-0.4118654429912567,0.5206377506256104,0.12481028586626053,0.0517770016834835,-0.018278025308338802,0.03943098988654913,-0.9977125891233457
1676104292.908221,679,1676104292,897359616,map,-0.41189801692962646,0.52066969871521,0.1248101145029068,0.05177594142682565,-0.018278063503920267,0.039435499599339764,-0.9977124626828002
1676104292.9410667,680,1676104292,937359616,map,-0.4119483232498169,0.5207063555717468,0.12481427192687988,0.051775065562630035,-0.018270236043898387,0.03943971428419087,-0.9977124626828001
1676104292.9776807,681,1676104292,967359616,map,-0.41199660301208496,0.5207210183143616,0.12482769042253494,0.051770827170176656,-0.01827582313550411,0.039437185473280206,-0.9977126312701943
1676104293.0074832,682,1676104292,997361920,map,-0.4120558500289917,0.5207276940345764,0.12485068291425705,0.05177672377770113,-0.0182707905383741,0.03943899778776618,-0.9977123362422546
1676104293.0410404,683,1676104293,38361920,map,-0.4121364951133728,0.5207338929176331,0.124883271753788,0.05176964705841835,-0.018270891954228333,0.03943815485079596,-0.9977127577107398
1676104293.074192,684,1676104293,67361920,map,-0.41218826174736023,0.520735502243042,0.12490402907133102,0.05176550876473019,-0.018269335155011463,0.039441948067161954,-0.9977128420044368
1676104293.1098711,685,1676104293,97363712,map,-0.41224348545074463,0.5207398533821106,0.12492037564516068,0.051773139978488696,-0.018275796793723792,0.039442032360858977,-0.9977123362422546
1676104293.1404183,686,1676104293,137363712,map,-0.4123164713382721,0.5207376480102539,0.12495248019695282,0.05177368261916327,-0.01827399501594995,0.039447469304316904,-0.9977121255080121
1676104293.1758978,687,1676104293,167363712,map,-0.41236695647239685,0.5207303166389465,0.12497972697019577,0.05176637145803564,-0.018281274566941192,0.039446584220498175,-0.9977124205359517
1676104293.2099543,688,1676104293,197367040,map,-0.41241592168807983,0.5207225680351257,0.1250121295452118,0.05176117949313471,-0.0182775630100942,0.03944759574486244,-0.9977127577107398
1676104293.242701,689,1676104293,237367040,map,-0.41247645020484924,0.520700991153717,0.12505918741226196,0.051764681632828165,-0.018277063833357147,0.039453580597350955,-0.9977123362422546
1676104293.2754138,690,1676104293,267367040,map,-0.412518173456192,0.5206775665283203,0.12509246170520782,0.05176260985180604,-0.01827357749873189,0.039451304667531356,-0.9977125891233457
1676104293.3097818,691,1676104293,298369600,map,-0.41256144642829895,0.5206491947174072,0.12512168288230896,0.051770546630216255,-0.018281988429187844,0.03944675280789222,-0.9977121676548606
1676104293.346305,692,1676104293,338369600,map,-0.41261643171310425,0.5206068158149719,0.1251640021800995,0.05177018969909293,-0.01828001147857488,0.03944721642322584,-0.9977122098017092
1676104293.3746662,693,1676104293,368369600,map,-0.4126509428024292,0.520572304725647,0.12519599497318268,0.051761698426207,-0.01827315603024678,0.03944544625558837,-0.9977128841512853
1676104293.4087458,694,1676104293,397372160,map,-0.4126853942871094,0.5205378532409668,0.12522754073143005,0.05175805535798884,-0.018269602524081704,0.03943828129134149,-0.9977133899134674
1676104293.4408226,695,1676104293,438372160,map,-0.4127194285392761,0.5204921364784241,0.12527574598789215,0.051759114297557675,-0.01827012935968809,0.03943710117958318,-0.9977133899134674
1676104293.4755688,696,1676104293,468372160,map,-0.4127410650253296,0.5204522609710693,0.12530934810638428,0.05176394801424627,-0.01825779350396456,0.039430399830669975,-0.99771360064771
1676104293.5074978,697,1676104293,498374720,map,-0.4127615690231323,0.520402193069458,0.12534089386463165,0.05175488117346036,-0.01825133976778633,0.039431959264064884,-0.9977141485567407
1676104293.5450115,698,1676104293,538374720,map,-0.41278019547462463,0.5203321576118469,0.12538015842437744,0.051760090260518504,-0.018244887348697118,0.03942921971891167,-0.9977141064098921
1676104293.5775218,699,1676104293,568374720,map,-0.41279199719429016,0.5202751159667969,0.12541115283966064,0.051769298029829124,-0.018247317377931567,0.0394293461594572,-0.9977135585008614
1676104293.608021,700,1676104293,598377280,map,-0.4128022789955139,0.5202161073684692,0.12544338405132294,0.051768623680252944,-0.01825474575998162,0.03942445712502992,-0.9977136427945584
1676104293.645264,701,1676104293,638377280,map,-0.4128164052963257,0.5201345682144165,0.12549450993537903,0.05176680346323288,-0.018257403645615834,0.03942302413218054,-0.9977138113819525
1676104293.676164,702,1676104293,668377280,map,-0.4128291606903076,0.5200636982917786,0.1255362629890442,0.051769097832298695,-0.01826374411213869,0.03943288649473213,-0.9977131370323764
1676104293.7093837,703,1676104293,698379328,map,-0.4128367006778717,0.5199871063232422,0.1255776286125183,0.05177691475560845,-0.01826859231680646,0.03943153779557978,-0.9977127155638913
1676104293.742229,704,1676104293,738379328,map,-0.4128444492816925,0.5198858380317688,0.12563259899616241,0.05178498324292025,-0.018273937064033244,0.039428924690972096,-0.9977122940954061
1676104293.774985,705,1676104293,768379328,map,-0.4128512740135193,0.5198119282722473,0.12567000091075897,0.051792431381305536,-0.018277800086117076,0.03942947260000274,-0.9977118304800725
1676104293.8096843,706,1676104293,798381888,map,-0.4128577709197998,0.5197363495826721,0.1257115602493286,0.05177857955612463,-0.018279381910025247,0.039424246390787364,-0.9977126734170427
1676104293.8457677,707,1676104293,838381888,map,-0.4128609895706177,0.5196347832679749,0.12577535212039948,0.0517845169934086,-0.01827993508741195,0.03942631158636441,-0.9977122940954061
1676104293.8757303,708,1676104293,868381888,map,-0.4128691256046295,0.5195526480674744,0.1258220672607422,0.05177987952298339,-0.01828693804970984,0.03942407780339332,-0.9977125048296487
1676104293.910938,709,1676104293,898383936,map,-0.41288477182388306,0.5194636583328247,0.12586161494255066,0.05178056836053874,-0.018286986782003432,0.03941101228035495,-0.9977130105918308
1676104293.94555,710,1676104293,938383936,map,-0.41288721561431885,0.5193374156951904,0.12591448426246643,0.05178056836053874,-0.018286986782003432,0.03941101228035495,-0.9977130105918308
1676104293.977646,711,1676104293,968383936,map,-0.41282230615615845,0.5191694498062134,0.1259632110595703,0.051475984940151646,-0.01866421556415511,0.039681890075734486,-0.9977110296899508
1676104294.0103774,712,1676104293,998386496,map,-0.41267406940460205,0.5189115405082703,0.12601828575134277,0.05047071543162701,-0.01972517159627477,0.0402488073350545,-0.9977192483254104
1676104294.0443382,713,1676104294,38386496,map,-0.4125767946243286,0.5175574421882629,0.1261574923992157,0.048341627866428726,-0.02054942434171216,0.0396124320693885,-0.9978335084317235
1676104294.075024,714,1676104294,68386496,map,-0.4131169021129608,0.5155284404754639,0.1263493001461029,0.036831719323352864,-0.019205829567844925,0.03874032948000112,-0.9983856321472162
1676104294.1083953,715,1676104294,98389056,map,-0.41407379508018494,0.5132339000701904,0.12658639252185822,0.020951372909060097,-0.013249867426863168,0.03832960844126242,-0.9989576913220546
1676104294.141921,716,1676104294,138389056,map,-0.41537749767303467,0.5106284022331238,0.1268254518508911,0.013968719300617412,-0.009941401228033359,0.03805902567382251,-0.9991284703522207
1676104294.1750507,717,1676104294,169389056,map,-0.4161231815814972,0.5091298222541809,0.12693539261817932,0.003668721654832801,-0.004575219036055279,0.03770448638414885,-0.9992717696371577
1676104294.209383,718,1676104294,198391360,map,-0.4165957570075989,0.5080516934394836,0.12697833776474,-0.0013895896625743401,-0.0019346863788946224,0.03728318648643395,-0.9993019467806915
1676104294.2421284,719,1676104294,238391360,map,-0.4169338345527649,0.5070395469665527,0.12698262929916382,-0.0023159435189606618,-0.0015792402322744575,0.03712977195785428,-0.9993065829340277
1676104294.274876,720,1676104294,269391360,map,-0.4171674847602844,0.5063666105270386,0.12698349356651306,-0.002840220679933324,-0.0016085550117750542,0.03697555663915296,-0.9993108397657273
1676104294.3090212,721,1676104294,299393920,map,-0.4174506366252899,0.5056656002998352,0.12695491313934326,-0.0032110013646941206,-0.0015098579173878903,0.03660795182644094,-0.9993233995265836
1676104294.3412306,722,1676104294,329393920,map,-0.4178451895713806,0.5049723386764526,0.1269366443157196,-0.003375312088384793,-0.0012787385119068786,0.03656272825798874,-0.9993248746662814
1676104294.3744082,723,1676104294,369393920,map,-0.4183245897293091,0.5041014552116394,0.1268845647573471,-0.0038037608160060962,-0.0007201827922046995,0.03611668816019796,-0.9993400896785939
1676104294.4081268,724,1676104294,399396480,map,-0.41868382692337036,0.5034908652305603,0.1268773078918457,-0.00425472567426371,-0.0005624388273934399,0.035885133374479114,-0.9993467488806587
1676104294.441364,725,1676104294,429396480,map,-0.418954074382782,0.5028946995735168,0.126842200756073,-0.0044764582686459995,-0.0004608010436649108,0.03556806263313164,-0.9993571591522408
1676104294.4757814,726,1676104294,469396480,map,-0.41930708289146423,0.5021554231643677,0.1267860382795334,-0.0047261625410048545,-0.0008268737525791068,0.03529739557199469,-0.999365419934549
1676104294.5088964,727,1676104294,499399296,map,-0.41964191198349,0.501697838306427,0.12674520909786224,-0.004763634217417452,-0.0006948617558727636,0.03483407526631443,-0.9993815621775286
1676104294.5409904,728,1676104294,529399296,map,-0.419972687959671,0.5013234615325928,0.12668827176094055,-0.0048886658069753055,-0.00047172382751043887,0.03475542924699312,-0.9993838381073482
1676104294.574738,729,1676104294,569399296,map,-0.4203403890132904,0.5009594559669495,0.12661650776863098,-0.005043284484187806,-0.0002195151103877253,0.0342478547503764,-0.999400654699904
1676104294.6105535,730,1676104294,599401856,map,-0.4205876290798187,0.500771164894104,0.1265513300895691,-0.005162659670330467,0.00012042704635809723,0.03370466616676801,-0.9994185249636727
1676104294.6461508,731,1676104294,639401856,map,-0.4208432137966156,0.5007065534591675,0.12645426392555237,-0.005071398243141968,2.8786626805254183e-05,0.03360486242949419,-0.9994224024737356
1676104294.6759763,732,1676104294,669401856,map,-0.421037495136261,0.5007745027542114,0.1263897567987442,-0.004899544468338798,0.0002905020924452066,0.03296418818528009,-0.9994445295692038
1676104294.7095442,733,1676104294,699404416,map,-0.42115312814712524,0.5008598566055298,0.12633009254932404,-0.005038703977862532,0.00046383512284943327,0.032356388482904515,-0.9994636220915794
1676104294.7430441,734,1676104294,739404416,map,-0.4212448000907898,0.5010823011398315,0.1262568235397339,-0.005075786948379292,0.0003012536547186594,0.0320019756337764,-0.9994749595938287
1676104294.7758236,735,1676104294,769404416,map,-0.4212697744369507,0.5013222098350525,0.12619906663894653,-0.0052029675333028205,0.00020394366086046596,0.03128687005509204,-0.9994969181019029
1676104294.8093693,736,1676104294,799406976,map,-0.421276330947876,0.5016134977340698,0.12613101303577423,-0.005397867237798972,0.00010987996215437346,0.03071245065673707,-0.9995137346944587
1676104294.8453116,737,1676104294,839406976,map,-0.4212585985660553,0.5020266771316528,0.1260535717010498,-0.005662800845813309,0.00010894993267297485,0.030194044420053082,-0.9995280646229525
1676104294.8750558,738,1676104294,869406976,map,-0.4212096929550171,0.5024388432502747,0.12599825859069824,-0.006014854459241569,0.000283135284306658,0.029470888793303177,-0.9995475364669645
1676104294.9088244,739,1676104294,899409792,map,-0.4211367666721344,0.5029198527336121,0.12594924867153168,-0.005774133227879979,0.0002638835587964183,0.028773569184690432,-0.9995692420939476
1676104294.9412036,740,1676104294,930409792,map,-0.42098695039749146,0.5033829212188721,0.12588246166706085,-0.005883694454492428,0.0002855616915463206,0.028272611743289915,-0.9995828976728651
1676104294.9739747,741,1676104294,969409792,map,-0.42081865668296814,0.5040092468261719,0.12580105662345886,-0.006126561388497154,0.00017069210229114884,0.027596491999478136,-0.9996003464681487
1676104295.0091753,742,1676104295,412352,map,-0.4206467866897583,0.5044963359832764,0.1257588118314743,-0.005998278235431136,9.858082012253314e-05,0.026697836895528876,-0.9996255502835582
1676104295.0428832,743,1676104295,30412352,map,-0.4204845428466797,0.505021870136261,0.12571275234222412,-0.0059549917756491775,0.00015677541047620433,0.026049449778037265,-0.9996429147851447
1676104295.076777,744,1676104295,70412352,map,-0.4202764332294464,0.5057491660118103,0.1256481409072876,-0.0056872717011854385,0.00012065687839138393,0.02525443377457627,-0.9996648732932188
1676104295.1095715,745,1676104295,100414656,map,-0.42012500762939453,0.5062949657440186,0.12559376657009125,-0.005504611046370145,0.000278049180435381,0.024262001932690288,-0.999690456430265
1676104295.1426184,746,1676104295,130414656,map,-0.4199705719947815,0.5068085789680481,0.12553471326828003,-0.005415250672540065,0.00034886494092066744,0.023963981566869717,-0.9996981693035425
1676104295.175101,747,1676104295,170414656,map,-0.4197199046611786,0.5074750185012817,0.12547609210014343,-0.005120567151741482,0.0003551797242077138,0.02293614637223455,-0.9997238367342856
1676104295.2089808,748,1676104295,200417472,map,-0.41954663395881653,0.5079297423362732,0.1254286915063858,-0.0049991254529327695,0.0004549197473003639,0.021758563424840196,-0.9997507264236356
1676104295.2409854,749,1676104295,230417472,map,-0.4193778932094574,0.5083345174789429,0.12539447844028473,-0.005145672844019307,0.000353882062254734,0.02153952625312909,-0.9997547303742441
1676104295.2747648,750,1676104295,270417472,map,-0.4191458821296692,0.5088591575622559,0.12536628544330597,-0.0055050112767948715,0.00043355738664203934,0.020364134941857272,-0.9997774053787429
1676104295.3068693,751,1676104295,300420032,map,-0.4189293086528778,0.509254515171051,0.12531982362270355,-0.0056259992384375835,0.0004549085520437282,0.019525960565521083,-0.9997934633280255
1676104295.3401515,752,1676104295,330420032,map,-0.4187072217464447,0.5096651315689087,0.1252492368221283,-0.005546275346392814,0.0004129946636525331,0.018823414747692998,-0.9998074139348827
1676104295.3759086,753,1676104295,370420032,map,-0.4184466600418091,0.5101704001426697,0.12517648935317993,-0.005313047363715306,0.00038586641655456597,0.017861412930431857,-0.9998263378698641
1676104295.4092748,754,1676104295,400422336,map,-0.4182835519313812,0.5105063319206238,0.12516261637210846,-0.0053416021828536905,0.0005081143384771761,0.017051603383143567,-0.9998402463298727
1676104295.4424195,755,1676104295,430422336,map,-0.41808807849884033,0.5108356475830078,0.12513402104377747,-0.0052798731841256765,0.0005480099525875316,0.01638888633715822,-0.9998516259789706
1676104295.4759493,756,1676104295,470422336,map,-0.4180213510990143,0.5114696621894836,0.12530960142612457,-0.005098953227081107,0.0003925743509128783,0.014075277235001208,-0.99988787226869
1676104295.5090125,757,1676104295,500424896,map,-0.4199097156524658,0.5140841007232666,0.12942270934581757,0.036471207364264076,0.03485476311276042,0.021153334680223745,-0.9985026739455309
1676104295.5412154,758,1676104295,530424896,map,-0.42521750926971436,0.5183126330375671,0.14599214494228363,0.06977072377883085,0.0713611489368241,0.024769576429306963,-0.9946990473079682
1676104295.575489,759,1676104295,570424896,map,-0.43823325634002686,0.5273153185844421,0.19165587425231934,0.1163330832519739,0.13411240465821858,0.02871679737974624,-0.983695010923956
1676104295.6084523,760,1676104295,600427456,map,-0.45397019386291504,0.5377926826477051,0.23764315247535706,0.139682173909206,0.17816257323772822,0.030250816224997274,-0.9735666596114545
1676104295.6457396,761,1676104295,640427456,map,-0.4807652235031128,0.5560615658760071,0.3033202290534973,0.14471758434134807,0.1901920213725863,0.02975457923063,-0.97056605687857
1676104295.676662,762,1676104295,670427456,map,-0.5027419924736023,0.5713955163955688,0.3503367602825165,0.14440262621078223,0.1909182273774972,0.029267909570874717,-0.9704852613699746
1676104295.7111828,763,1676104295,700429504,map,-0.5262365341186523,0.5877514481544495,0.3933756351470947,0.1324360387833891,0.17129183218906374,0.02653434927015515,-0.9759179058493318
1676104295.7409177,764,1676104295,730429504,map,-0.5513536930084229,0.6052645444869995,0.4324401021003723,0.12379943697834928,0.15744205771575306,0.02520609133933429,-0.9794133547305828
1676104295.7741523,765,1676104295,770429504,map,-0.5874761939048767,0.6304708123207092,0.4782939553260803,0.10625751955014333,0.12895618160190908,0.022463343025639383,-0.9856850586700949
1676104295.8106353,766,1676104295,800432064,map,-0.6165287494659424,0.6507286429405212,0.5091322064399719,0.090249092814493,0.10057725443325051,0.019919654277461354,-0.9906274088607249
1676104295.8406048,767,1676104295,831432064,map,-0.6472485661506653,0.6722332835197449,0.5384843945503235,0.0813720728732014,0.08576574353611541,0.01865385797613367,-0.9928115849911049
1676104295.8772697,768,1676104295,871432064,map,-0.6902467608451843,0.7024858593940735,0.5767741203308105,0.06446603054610764,0.057826590743526425,0.01625873686895661,-0.9961104188240526
1676104295.9099443,769,1676104295,900434624,map,-0.723825216293335,0.7263525128364563,0.605971097946167,0.05018951034127332,0.031892104068064524,0.014482036469979854,-0.9981254175045099
1676104295.9426882,770,1676104295,931434624,map,-0.7574776411056519,0.7504490613937378,0.6352307200431824,0.039313064321504644,0.012822223769902991,0.013254720241342654,-0.9990567785629036
1676104295.9757478,771,1676104295,971434624,map,-0.8023437857627869,0.783053457736969,0.6739939451217651,0.02485014144732454,-0.013999553836206187,0.011946102741927906,-0.9995217847425244
1676104296.009241,772,1676104296,1437184,map,-0.8355211019515991,0.8074537515640259,0.7020322680473328,0.00650210232107499,-0.044590762497756516,0.010864951783926425,-0.9989251539550041
1676104296.043159,773,1676104296,31437184,map,-0.8678076863288879,0.8315163254737854,0.7286975383758545,-0.0009425536808513525,-0.056225310467135726,0.010512983452011949,-0.9983623670868381
1676104296.0752573,774,1676104296,71437184,map,-0.9089215993881226,0.8628825545310974,0.7615031599998474,-0.01331528789683069,-0.07348539323643832,0.010041023042386962,-0.9971568829257296
1676104296.1080496,775,1676104296,101440000,map,-0.937911331653595,0.8854179978370667,0.7836503386497498,-0.025926881474211416,-0.09218823902143175,0.009370930297912259,-0.9953599520394676
1676104296.1409726,776,1676104296,131440000,map,-0.9650212526321411,0.9070556163787842,0.8040734529495239,-0.029589434707274005,-0.09705203538897153,0.009362838102998141,-0.9947953528568156
1676104296.1743183,777,1676104296,171440000,map,-0.9977771639823914,0.9340763688087463,0.82887864112854,-0.03742426779346798,-0.10851450567841486,0.008947396617226266,-0.9933499266871345
1676104296.207016,778,1676104296,201442816,map,-1.0194894075393677,0.9526857137680054,0.8458452820777893,-0.043333055757164896,-0.11388549985511277,0.00872498769763427,-0.992510150730555
1676104296.2454035,779,1676104296,231442816,map,-1.0387996435165405,0.9699307084083557,0.8614361882209778,-0.04559043569505231,-0.11319826914836231,0.008755544162804713,-0.9924872649918136
1676104296.2761145,780,1676104296,271442816,map,-1.0603030920028687,0.9901182055473328,0.8807610869407654,-0.047521614830533604,-0.10809394861890496,0.008635425644548632,-0.9929667275404735
1676104296.309648,781,1676104296,301445632,map,-1.0731359720230103,1.0031046867370605,0.8941693305969238,-0.048865153628117663,-0.10276920797426974,0.008307438869436853,-0.9934695394432085
1676104296.3423507,782,1676104296,331445632,map,-1.0835474729537964,1.014389157295227,0.9067648649215698,-0.047851229527669126,-0.09706451349030878,0.008066358895954568,-0.994094408619231
1676104296.3750699,783,1676104296,371445632,map,-1.0935404300689697,1.0267927646636963,0.9217307567596436,-0.0452547492175532,-0.08675410096313042,0.007659304633036329,-0.9951719349482605
1676104296.4088054,784,1676104296,401447680,map,-1.0982463359832764,1.0339609384536743,0.9317813515663147,-0.03983381497663694,-0.06979402604697345,0.006770259010547545,-0.9967428322859586
1676104296.4418278,785,1676104296,431447680,map,-1.101048231124878,1.0395723581314087,0.9411808848381042,-0.037366232900157496,-0.06356315186695628,0.006539083546465297,-0.9972566445161549
1676104296.4746819,786,1676104296,471447680,map,-1.101408839225769,1.0440388917922974,0.9527682662010193,-0.030397149424482427,-0.04590869247505864,0.005713679665227916,-0.9984667648305996
1676104296.5082002,787,1676104296,501450496,map,-1.0995675325393677,1.045583724975586,0.9610221982002258,-0.02147458322792971,-0.030355761877789232,0.005009911588793015,-0.999295961928203
1676104296.5411134,788,1676104296,532450496,map,-1.0961426496505737,1.0455070734024048,0.9686447978019714,-0.015953587429564764,-0.022104711211120717,0.004645004174385708,-0.9996176266760382
1676104296.5746775,789,1676104296,571450496,map,-1.0898048877716064,1.0434859991073608,0.9784059524536133,-0.005118583698001501,-0.007808243281549286,0.004076021719488645,-0.9999481422620606
1676104296.6078866,790,1676104296,602453056,map,-1.0835518836975098,1.040248155593872,0.9846923351287842,0.004079313742324997,0.0038458499183955663,0.0033612533155923975,-0.999978698727231
1676104296.6433797,791,1676104296,631453056,map,-1.0770409107208252,1.036455512046814,0.9903887510299683,0.009393045004511904,0.010371572090702186,0.00320434059858632,-0.9998969759879683
1676104296.6767094,792,1676104296,671453056,map,-1.0679411888122559,1.0305770635604858,0.9975796937942505,0.0202795109847647,0.021718237781166102,0.0030342780648448795,-0.9995538584942412
1676104296.7105742,793,1676104296,702455360,map,-1.0602167844772339,1.024842619895935,1.0023337602615356,0.027751905745706944,0.028059409399396613,0.0026814246491116663,-0.9992173580557302
1676104296.7420466,794,1676104296,732455360,map,-1.0523277521133423,1.0184504985809326,1.0067020654678345,0.03185168655228673,0.03171808368697497,0.0026904440746930033,-0.9989856346826173
1676104296.7749488,795,1676104296,772455360,map,-1.0414024591445923,1.0089837312698364,1.011612892150879,0.03991000450146651,0.0386364692320352,0.002617234998829562,-0.9984526034894999
1676104296.8080773,796,1676104296,802457920,map,-1.033121943473816,1.0012290477752686,1.0148987770080566,0.04582528896557565,0.041474152704615456,0.002660351224856218,-0.9980846193551514
1676104296.8410397,797,1676104296,832457920,map,-1.0251500606536865,0.9932754039764404,1.0178948640823364,0.04800089430382044,0.042057775097833365,0.0026051388533069506,-0.9979580945159217
1676104296.877153,798,1676104296,862457920,map,-1.01748526096344,0.9851891398429871,1.0204106569290161,0.05255364363662728,0.04274145559114127,0.0024754951472874473,-0.997699987215641
1676104296.9075277,799,1676104296,902460480,map,-1.0078037977218628,0.9745109677314758,1.0225605964660645,0.05561859736319842,0.04250341743474133,0.0025082011017318684,-0.9975438752887567
1676104296.9470632,800,1676104296,932460480,map,-1.0011266469955444,0.9665231108665466,1.0236746072769165,0.05751277222423166,0.040563639683619306,0.002539221182235892,-0.9975171541868006
1676104296.9760447,801,1676104296,972460480,map,-0.9931880831718445,0.9564564228057861,1.024345874786377,0.058661774339979586,0.03703041142103436,0.0025107720594910363,-0.9975877501580565
1676104297.0096104,802,1676104297,2463040,map,-0.988024890422821,0.9493081569671631,1.024219036102295,0.0587597400795316,0.03290711608404026,0.0024215471811935177,-0.9977267083175969
1676104297.0423098,803,1676104297,32463040,map,-0.9835073947906494,0.9426766037940979,1.0240074396133423,0.05870650597568431,0.029987817256111216,0.002298731264632744,-0.9978221287826256
1676104297.0757718,804,1676104297,72463040,map,-0.9787389636039734,0.9348554015159607,1.023450255393982,0.057792592395485065,0.024368669020826243,0.0022964553348131652,-0.9980285640466319
1676104297.109689,805,1676104297,102465088,map,-0.9759033918380737,0.9296635389328003,1.0226720571517944,0.0561192242152559,0.018848518464337296,0.002097016447659589,-0.9982439344425226
1676104297.1413412,806,1676104297,132465088,map,-0.9737439155578613,0.9251750707626343,1.0221105813980103,0.054947971197672245,0.015549434384476585,0.0019964962139611157,-0.9983662024500527
1676104297.1742916,807,1676104297,162465088,map,-0.972290575504303,0.9214537739753723,1.021964192390442,0.0514451755938902,0.009542473239707637,0.0019110645520295504,-0.9986283979946389
1676104297.2090726,808,1676104297,202467136,map,-0.9712289571762085,0.9176066517829895,1.0220837593078613,0.0492337976240634,0.0062209130357894805,0.0016503441471411413,-0.9987665553640577
1676104297.2412918,809,1676104297,232467136,map,-0.9711267352104187,0.9157499670982361,1.0223947763442993,0.04805639380077519,0.005010313300942877,0.0016556546500535038,-0.9988307028674912
1676104297.2761905,810,1676104297,272467136,map,-0.9716588854789734,0.9142681360244751,1.023374319076538,0.044776456243939576,0.0011384311593058498,0.0014807452287333423,-0.9989953284577748
1676104297.3091724,811,1676104297,302469440,map,-0.9724101424217224,0.9140076637268066,1.024032473564148,0.04086441210693871,-0.003916862048621208,0.0011355203925806107,-0.999156455859632
1676104297.3427634,812,1676104297,332469440,map,-0.9737586379051208,0.9145665168762207,1.0242174863815308,0.03872919744363815,-0.005241874672106693,0.0010995691308008093,-0.9992353969068929
1676104297.3758729,813,1676104297,372469440,map,-0.976068377494812,0.9161797165870667,1.0240517854690552,0.033503932581111735,-0.009249806840736891,0.0010726372946023325,-0.9993952599032946
1676104297.4082768,814,1676104297,402472000,map,-0.9780324697494507,0.9181677103042603,1.0238569974899292,0.028360969318470458,-0.013311181871823409,0.0011076191788663987,-0.999508550632092
1676104297.44299,815,1676104297,432472000,map,-0.9798800349235535,0.920353353023529,1.0237306356430054,0.02656701176066203,-0.014015917350140543,0.0009636455443531817,-0.9995483372570863
1676104297.475365,816,1676104297,472472000,map,-0.9824021458625793,0.9240511655807495,1.0239287614822388,0.02280673875442115,-0.01644576449704032,0.0010278773414837618,-0.9996041396845146
1676104297.5086381,817,1676104297,502474560,map,-0.9841662049293518,0.9270316362380981,1.0238841772079468,0.018096013566818177,-0.018755636606068726,0.0008215263711744452,-0.9996600264056401
1676104297.541204,818,1676104297,533474560,map,-0.9860299229621887,0.9305214285850525,1.0237928628921509,0.017265461019981294,-0.019072490192364674,0.0007409837436701078,-0.9996687508032818
1676104297.5750926,819,1676104297,563474560,map,-0.9878386855125427,0.9341675639152527,1.0238769054412842,0.01396928548425815,-0.018246253499278917,0.0009283264853010075,-0.9997355535581716
1676104297.607741,820,1676104297,603477120,map,-0.9901970028877258,0.9394867420196533,1.0238699913024902,0.010717369984053959,-0.01816568881053358,0.0008082501138934987,-0.9997772367913489
1676104297.6411262,821,1676104297,633477120,map,-0.9917925000190735,0.9435391426086426,1.0234808921813965,0.00944037085282873,-0.017602775172549826,0.0008154150781403441,-0.9998001646769388
1676104297.6743937,822,1676104297,663477120,map,-0.9931485056877136,0.9474353790283203,1.022940754890442,0.005331887169635923,-0.01651421657665033,0.0008452971937345484,-0.9998490971680599
1676104297.7082415,823,1676104297,703479680,map,-0.9947934150695801,0.9526886940002441,1.0222071409225464,0.003272341245936098,-0.014826895813930529,0.0009690403409625498,-0.9998842476397181
1676104297.7431226,824,1676104297,733479680,map,-0.99575275182724,0.9564249515533447,1.0216938257217407,0.0032098720431811122,-0.013413575993919354,0.001048697884648152,-0.9999043938333063
1676104297.7759402,825,1676104297,773479680,map,-0.9965471625328064,0.9608205556869507,1.0208616256713867,0.0033682332288324786,-0.011670609208091777,0.0011305892113048367,-0.9999255936981072
1676104297.8091888,826,1676104297,803482240,map,-0.9966378211975098,0.9634484052658081,1.0203601121902466,0.0026356864281264717,-0.010290416152465657,0.0011862651981877123,-0.9999429160528452
1676104297.844128,827,1676104297,833482240,map,-0.9965807199478149,0.9657027125358582,1.0197196006774902,0.0025537717231397714,-0.009857601933300935,0.0012705167483609712,-0.9999473414719389
1676104297.8770802,828,1676104297,873482240,map,-0.9962385892868042,0.9683786034584045,1.018959641456604,0.003671651025440437,-0.007867232817442156,0.001513788357965868,-0.9999612499319475
1676104297.9090285,829,1676104297,903484800,map,-0.9957723021507263,0.9698415398597717,1.018518090248108,0.004899958198926059,-0.004702585495166182,0.001447828540046334,-0.9999759591820777
1676104297.9451387,830,1676104297,933484800,map,-0.9953762888908386,0.9709810614585876,1.0183956623077393,0.0065146380450566985,-0.0032107426390205447,0.0014304218916113348,-0.9999726295810454
1676104297.978084,831,1676104297,973484800,map,-0.9946053624153137,0.9718631505966187,1.0189838409423828,0.009098571106662016,-4.034079019769131e-05,0.001573889763942378,-0.9999573724218844
1676104298.0086887,832,1676104298,3487360,map,-0.9939976930618286,0.9722659587860107,1.020002841949463,0.012509266626824653,0.0017069022543924717,0.0014896803606176524,-0.9999191873771336
1676104298.0410473,833,1676104298,33487360,map,-0.9933263063430786,0.972266674041748,1.0211498737335205,0.014290525141613393,0.0034265730282501596,0.0015185509518476183,-0.9998909068417827
1676104298.0741503,834,1676104298,63487360,map,-0.9926647543907166,0.971948504447937,1.0223647356033325,0.017331222039777498,0.005171338628401292,0.001315951051055725,-0.999835568029688
1676104298.1072426,835,1676104298,103490176,map,-0.99172443151474,0.9709175825119019,1.0243521928787231,0.019108578349084186,0.004404373986802329,0.0011610192359296798,-0.9998070767600946
1676104298.140057,836,1676104298,133490176,map,-0.9910982847213745,0.9700323939323425,1.025245189666748,0.01967102672537305,0.004531229415375041,0.0010433030880387772,-0.9997957392578452
1676104298.1776314,837,1676104298,173490176,map,-0.9901498556137085,0.968452513217926,1.025606632232666,0.022483362120137507,0.0046759590589834175,0.0008416304179141451,-0.9997359328798082
1676104298.207979,838,1676104298,203492736,map,-0.9896069169044495,0.9671919345855713,1.0257290601730347,0.02511933468585264,0.004968209916369513,0.0007932036889750787,-0.9996718275232231
1676104298.246094,839,1676104298,233492736,map,-0.989005982875824,0.9658159613609314,1.0258430242538452,0.02586750315010476,0.004657570520687017,0.0006850548756961556,-0.9996543787279396
1676104298.2768116,840,1676104298,273492736,map,-0.988261342048645,0.9638190865516663,1.0256611108779907,0.027460212798996204,0.004645436179582928,0.0005631661898026697,-0.9996119789983376
1676104298.3069444,841,1676104298,304495552,map,-0.9878876805305481,0.9622846245765686,1.0258060693740845,0.0287552879891488,0.005676743220864184,0.0006570272214364104,-0.9995702114714633
1676104298.3408396,842,1676104298,334495552,map,-0.9875632524490356,0.9607298374176025,1.0260634422302246,0.029830814977052075,0.005591667172966912,0.0006402106288805643,-0.9995391492441109
1676104298.375025,843,1676104298,364495552,map,-0.9873710870742798,0.9592846035957336,1.0263020992279053,0.03155590524293821,0.005673375424250361,0.0005336633958450365,-0.999485791333896
1676104298.4068162,844,1676104298,404498112,map,-0.9872118830680847,0.9575092196464539,1.0264053344726562,0.03323190496702128,0.006775269217164255,0.0007308685000274745,-0.9994244676693127
1676104298.4401174,845,1676104298,434498112,map,-0.9870824813842773,0.9562049508094788,1.0267417430877686,0.03397296378476522,0.00693077923436831,0.0008025602893445018,-0.9993984630637814
1676104298.4761233,846,1676104298,464498112,map,-0.9871276617050171,0.955071747303009,1.0271979570388794,0.034762213572514314,0.006458626529746987,0.0005913624314564504,-0.9993745658006759
1676104298.5092475,847,1676104298,504500928,map,-0.9873759150505066,0.9537172317504883,1.0284055471420288,0.034407535988494,0.007118644860338571,0.0006579123052551618,-0.9993823629676504
1676104298.542072,848,1676104298,534500928,map,-0.9875680804252625,0.9529814720153809,1.0298458337783813,0.03400441060211041,0.0071223735393427705,0.0006088533735884552,-0.9993961871339618
1676104298.5751238,849,1676104298,564500928,map,-0.9878488779067993,0.9523820877075195,1.031179428100586,0.034595406882820326,0.005970331582145991,0.0006338464547553976,-0.9993834166388631
1676104298.6099937,850,1676104298,604503488,map,-0.9881902933120728,0.951718270778656,1.032288670539856,0.03361577056072441,0.0037432934239193675,0.000501083881946105,-0.9994276708297996
1676104298.640046,851,1676104298,634503488,map,-0.9885819554328918,0.9515013694763184,1.0327345132827759,0.03246898247161232,0.0026190249228022536,0.00041948758322902775,-0.9994693119161283
1676104298.6764178,852,1676104298,664503488,map,-0.9890322089195251,0.951362669467926,1.0331180095672607,0.030791469412249903,0.0022376117488468548,0.0005631661898026309,-0.9995232177353737
1676104298.7098143,853,1676104298,704506048,map,-0.9895828366279602,0.9514868259429932,1.033312201499939,0.028535677883715735,0.002699261985654868,0.0006848862883020919,-0.9995888825253537
1676104298.7427368,854,1676104298,734506048,map,-0.9900142550468445,0.9517321586608887,1.033577799797058,0.02848107795855889,0.0027422662591151557,0.0007610877904098056,-0.999590315518203
1676104298.77671,855,1676104298,764506048,map,-0.99043208360672,0.952098548412323,1.0335650444030762,0.029189974779621965,0.003305930308565756,0.0006973617554613361,-0.9995682305695833
1676104298.8092408,856,1676104298,804508608,map,-0.9910822510719299,0.9529226422309875,1.0335428714752197,0.028969779886665815,0.003503916446534698,0.0007835942075146101,-0.9995738782472838
1676104298.8424804,857,1676104298,834508608,map,-0.9914995431900024,0.9534896612167358,1.0334429740905762,0.028520331162501706,0.0032238084913312963,0.0007997785973428026,-0.9995877024135954
1676104298.875265,858,1676104298,864508608,map,-0.9920256733894348,0.9543284773826599,1.0334444046020508,0.026855837528062112,0.002231456991875248,0.0006905339660025523,-0.999636592757868
1676104298.9085743,859,1676104298,904511168,map,-0.9926801919937134,0.9554400444030762,1.033827543258667,0.02598595159948856,0.0034871657084296482,0.0008159208403224917,-0.9996559381613346
1676104298.9408932,860,1676104298,934511168,map,-0.993086040019989,0.9564421772956848,1.0344922542572021,0.025828090578391007,0.0043741830138338605,0.0009186748569920104,-0.9996564439235167
1676104298.9749959,861,1676104298,964511168,map,-0.9933698177337646,0.9573444724082947,1.0351591110229492,0.026083574895896428,0.004812301479738129,0.0008507762840410039,-0.999647888113269
1676104299.0092924,862,1676104299,5513472,map,-0.993614137172699,0.9585891366004944,1.036450982093811,0.026156149134854156,0.004284296298305776,0.0006940321544289792,-0.9996484360222996
