Time,header.seq,header.stamp.secs,header.stamp.nsecs,header.frame_id,type_mask,orientation.x,orientation.y,orientation.z,orientation.w,body_rate.x,body_rate.y,body_rate.z,thrust
1676104289.0821078,770,1676104289,79716920,base_footprint,7,-0.20797615405299355,-0.24163727933513646,-0.05310503074405359,0.9463282730059964,0.0,0.0,0.0,0.42731937766075134
1676104289.0951352,771,1676104289,93313217,base_footprint,7,-0.20828346540346743,-0.2416200206103108,-0.053183500214696616,0.94626068236227,0.0,0.0,0.0,0.427317351102829
1676104289.1012685,772,1676104289,100821495,base_footprint,7,-0.20825191424529205,-0.24162179376628032,-0.05317544388135137,0.9462676266037836,0.0,0.0,0.0,0.4273156225681305
1676104289.1098635,773,1676104289,108733415,base_footprint,7,-0.20806025807760103,-0.24163255867566172,-0.05312650602727928,0.9463097854053228,0.0,0.0,0.0,0.4273197054862976
1676104289.1184149,774,1676104289,116835355,base_footprint,7,-0.20801428155154986,-0.24163513953164248,-0.0531147662927863,0.946319892856416,0.0,0.0,0.0,0.4273110330104828
1676104289.1282883,775,1676104289,127571344,base_footprint,7,-0.20802012905659636,-0.24163481131975273,-0.05311625940595923,0.9463186074744929,0.0,0.0,0.0,0.4273145794868469
1676104289.1384187,776,1676104289,137154340,base_footprint,7,-0.20807502188345314,-0.24163172979424627,-0.05313027584583009,0.9463065392426424,0.0,0.0,0.0,0.42731213569641113
1676104289.1486268,777,1676104289,148123025,base_footprint,7,-0.20804105481845722,-0.24163363670816448,-0.053121602630195795,0.9463140073227332,0.0,0.0,0.0,0.42725658416748047
1676104289.1585736,778,1676104289,157870054,base_footprint,7,-0.2080189159037587,-0.241634879413039,-0.05311594963718293,0.9463188741494123,0.0,0.0,0.0,0.42726024985313416
1676104289.1685758,779,1676104289,167934656,base_footprint,7,-0.20805663039838465,-0.24163276233429798,-0.0531255797286986,0.9463105829971765,0.0,0.0,0.0,0.42725637555122375
1676104289.1785226,780,1676104289,177892684,base_footprint,7,-0.208018346675165,-0.24163491136323545,-0.053115804289260195,0.9463189992765215,0.0,0.0,0.0,0.42726051807403564
1676104289.1895058,781,1676104289,188945055,base_footprint,7,-0.20808217528406725,-0.24163132816012348,-0.05313210240888617,0.9463049663159531,0.0,0.0,0.0,0.4272591173648834
1676104289.1974947,782,1676104289,196851015,base_footprint,7,-0.20808270843537355,-0.24163129822528337,-0.053132238544765016,0.9463048490816189,0.0,0.0,0.0,0.42726144194602966
1676104289.2129178,783,1676104289,211073875,base_footprint,7,-0.20804531963679032,-0.24163339729881683,-0.053122691617102626,0.9463130697197476,0.0,0.0,0.0,0.42726776003837585
1676104289.2193296,784,1676104289,217850923,base_footprint,7,-0.20804531963679032,-0.24163339729881683,-0.053122691617102626,0.9463130697197476,0.0,0.0,0.0,0.42726776003837585
1676104289.2303278,785,1676104289,229358196,base_footprint,7,-0.2080647647575661,-0.2416323056645628,-0.05312765677159989,0.9463087945335629,0.0,0.0,0.0,0.42726635932922363
1676104289.2382073,786,1676104289,237139225,base_footprint,7,-0.2079979083432401,-0.24163605848437666,-0.05311058552631994,0.9463234917669662,0.0,0.0,0.0,0.4272688329219818
1676104289.248485,787,1676104289,247022867,base_footprint,7,-0.20801593508717026,-0.24163504672209188,-0.053115188509748425,0.9463195293847615,0.0,0.0,0.0,0.4272555708885193
1676104289.2583437,788,1676104289,257392406,base_footprint,7,-0.20809284007414822,-0.241630729348998,-0.05313482557687486,0.9463026211815443,0.0,0.0,0.0,0.4272552728652954
1676104289.2703469,789,1676104289,269106864,base_footprint,7,-0.20796427766119055,-0.24163794578175155,-0.053101998203353436,0.9463308830224476,0.0,0.0,0.0,0.42725446820259094
1676104289.278347,790,1676104289,277394771,base_footprint,7,-0.20804992896690422,-0.24163313854421054,-0.053123868572309454,0.9463120563545898,0.0,0.0,0.0,0.4272686839103699
1676104289.2901971,791,1676104289,289393424,base_footprint,7,-0.20804200779968204,-0.2416335832121673,-0.05312184596625263,0.9463137978154305,0.0,0.0,0.0,0.42726919054985046
1676104289.2983108,792,1676104289,297407388,base_footprint,7,-0.20799075273323595,-0.24163646007198125,-0.05310875839911398,0.9463250645114755,0.0,0.0,0.0,0.427269846200943
1676104289.3091285,793,1676104289,307196378,base_footprint,7,-0.2080819493031708,-0.24163134084824595,-0.05313204470648991,0.9463050160066674,0.0,0.0,0.0,0.4272700548171997
1676104289.3176641,794,1676104289,316842317,base_footprint,7,-0.2079612983638968,-0.24163811295948442,-0.05310123746385855,0.946331537743506,0.0,0.0,0.0,0.4272781014442444
1676104289.3311346,795,1676104289,329863786,base_footprint,7,-0.2079612983638968,-0.24163811295948442,-0.05310123746385855,0.946331537743506,0.0,0.0,0.0,0.4272781014442444
1676104289.3401568,796,1676104289,339046955,base_footprint,7,-0.20801135406640936,-0.24163530384346052,-0.05311401878310618,0.9463205363536422,0.0,0.0,0.0,0.42727547883987427
1676104289.3493087,797,1676104289,348513603,base_footprint,7,-0.20797006373489868,-0.24163762109980166,-0.05310347563053039,0.9463296114648894,0.0,0.0,0.0,0.4272816777229309
1676104289.3573391,798,1676104289,356812715,base_footprint,7,-0.20807920788777773,-0.2416314947690187,-0.05313134470821657,0.9463056188092626,0.0,0.0,0.0,0.42728206515312195
1676104289.3682299,799,1676104289,367206573,base_footprint,7,-0.20807920788777773,-0.2416314947690187,-0.05313134470821657,0.9463056188092626,0.0,0.0,0.0,0.42728206515312195
1676104289.379827,800,1676104289,378882884,base_footprint,7,-0.20807920788777773,-0.2416314947690187,-0.05313134470821657,0.9463056188092626,0.0,0.0,0.0,0.42728206515312195
1676104289.3968837,801,1676104289,395096302,base_footprint,7,-0.2080768835374881,-0.24163162527139648,-0.05313075120414803,0.9463061298979907,0.0,0.0,0.0,0.42722561955451965
1676104289.4015565,802,1676104289,400827884,base_footprint,7,-0.20793689492814607,-0.2416394822184409,-0.053095006243689576,0.9463369001961338,0.0,0.0,0.0,0.4272277057170868
1676104289.4113393,803,1676104289,410735607,base_footprint,7,-0.20801180880669812,-0.24163527832027784,-0.053114134897365176,0.9463204363967587,0.0,0.0,0.0,0.4272278845310211
1676104289.420333,804,1676104289,418873786,base_footprint,7,-0.20800195459644844,-0.24163583139388364,-0.0531116187043879,0.9463226024085251,0.0,0.0,0.0,0.4272015690803528
1676104289.4284885,805,1676104289,427732944,base_footprint,7,-0.2079505269731939,-0.24163871735511605,-0.05309848707626227,0.9463339047486132,0.0,0.0,0.0,0.4272002875804901
1676104289.4373443,806,1676104289,436757326,base_footprint,7,-0.2079826724901752,-0.24163691353449035,-0.05310669517432691,0.9463268404145742,0.0,0.0,0.0,0.42720064520835876
1676104289.4496765,807,1676104289,448836803,base_footprint,7,-0.20821879328249862,-0.24162365484132053,-0.053166986711079,0.9462749151642805,0.0,0.0,0.0,0.42720362544059753
1676104289.4613283,808,1676104289,459440469,base_footprint,7,-0.20821879328249862,-0.24162365484132053,-0.053166986711079,0.9462749151642805,0.0,0.0,0.0,0.42720362544059753
1676104289.4693427,809,1676104289,467771053,base_footprint,7,-0.2079173766743851,-0.24164057725216434,-0.05309002241527537,0.9463411886957199,0.0,0.0,0.0,0.4272069036960602
1676104289.4791267,810,1676104289,478276968,base_footprint,7,-0.20814489685744159,-0.24162780598098688,-0.05314811785593357,0.946291172344639,0.0,0.0,0.0,0.427204966545105
1676104289.490068,811,1676104289,488807916,base_footprint,7,-0.20802586187323735,-0.2416344895357657,-0.053117723234374345,0.9463173472662768,0.0,0.0,0.0,0.42726901173591614
1676104289.4980052,812,1676104289,497282266,base_footprint,7,-0.20812834161379176,-0.2416287357617795,-0.05314389060821374,0.9462948136613024,0.0,0.0,0.0,0.42726680636405945
1676104289.5112612,813,1676104289,508430480,base_footprint,7,-0.2080534551333393,-0.2416329405912571,-0.053124768950421536,0.9463112811080009,0.0,0.0,0.0,0.42727071046829224
1676104289.5180612,814,1676104289,516780376,base_footprint,7,-0.2079762408655219,-0.24163727446348346,-0.05310505291093136,0.9463282539270571,0.0,0.0,0.0,0.4272795617580414
1676104289.528526,815,1676104289,528000593,base_footprint,7,-0.2079750285130645,-0.24163734249679472,-0.05310474334652569,0.9463285203670955,0.0,0.0,0.0,0.4272818863391876
1676104289.5383031,816,1676104289,536915779,base_footprint,7,-0.20782316703483075,-0.24164586118582979,-0.053065966744914025,0.9463618822568876,0.0,0.0,0.0,0.4272793233394623
1676104289.5484998,817,1676104289,547952890,base_footprint,7,-0.20780907364304121,-0.241646651425687,-0.053062368111177954,0.9463649770869625,0.0,0.0,0.0,0.42732149362564087
1676104289.557849,818,1676104289,556801080,base_footprint,7,-0.20783611701646987,-0.24164513500935209,-0.05306927341810553,0.9463590383193381,0.0,0.0,0.0,0.42731964588165283
1676104289.5706172,819,1676104289,569713354,base_footprint,7,-0.20783964929210222,-0.24164493692705616,-0.05307017535615178,0.9463582625662028,0.0,0.0,0.0,0.4273214638233185
1676104289.578512,820,1676104289,577858924,base_footprint,7,-0.20783404009455025,-0.24164525147694577,-0.05306874309287235,0.9463594944433976,0.0,0.0,0.0,0.4273279011249542
1676104289.589407,821,1676104289,587871074,base_footprint,7,-0.20800311236483768,-0.24163576641484533,-0.053111914331192736,0.9463223479299889,0.0,0.0,0.0,0.4273236393928528
1676104289.5983646,822,1676104289,596797943,base_footprint,7,-0.20772371852310142,-0.24165143622851362,-0.053040573370866484,0.9463837158933588,0.0,0.0,0.0,0.42732521891593933
1676104289.6112742,823,1676104289,610208272,base_footprint,7,-0.20780580985289407,-0.24164683442380389,-0.053061534728731326,0.9463656937656654,0.0,0.0,0.0,0.42726942896842957
1676104289.6457174,824,1676104289,632003545,base_footprint,7,-0.20780580985289407,-0.24164683442380389,-0.053061534728731326,0.9463656937656654,0.0,0.0,0.0,0.42726942896842957
1676104289.6509898,825,1676104289,650073528,base_footprint,7,-0.2076311567190516,-0.2416566226920573,-0.05301693846198872,0.9464040277305961,0.0,0.0,0.0,0.4272876977920532
1676104289.6630347,826,1676104289,661298036,base_footprint,7,-0.20763435077539433,-0.24165644376165465,-0.053017754038471754,0.9464033269823531,0.0,0.0,0.0,0.4272878170013428
1676104289.6737359,827,1676104289,670975208,base_footprint,7,-0.20763068045483424,-0.24165664937203712,-0.05301681685176844,0.9464041322178643,0.0,0.0,0.0,0.42728859186172485
1676104289.6805122,828,1676104289,679730176,base_footprint,7,-0.20759911264227793,-0.24165841763522355,-0.053008756265861566,0.9464110572976866,0.0,0.0,0.0,0.4271808862686157
1676104289.6892514,829,1676104289,688469171,base_footprint,7,-0.2076159253797762,-0.24165747590898057,-0.05301304926255536,0.9464073691988485,0.0,0.0,0.0,0.427177757024765
1676104289.6991622,830,1676104289,698167324,base_footprint,7,-0.20753279690550272,-0.2416621313769694,-0.052991823078226204,0.9464256014889737,0.0,0.0,0.0,0.4271797239780426
1676104289.7105849,831,1676104289,709839344,base_footprint,7,-0.20757845450291762,-0.2416595746432274,-0.05300348137686846,0.9464155885082232,0.0,0.0,0.0,0.4272213876247406
1676104289.7204313,832,1676104289,717992305,base_footprint,7,-0.20762315827199815,-0.2416570707508165,-0.0530148961231513,0.946405782470895,0.0,0.0,0.0,0.42722368240356445
1676104289.7291672,833,1676104289,728126764,base_footprint,7,-0.20767686634299098,-0.24165406177320814,-0.05302861004518369,0.9463939983596377,0.0,0.0,0.0,0.4272204637527466
1676104289.7411764,834,1676104289,739597558,base_footprint,7,-0.2076205379732546,-0.2416572175313513,-0.05301422705103596,0.9464063573100524,0.0,0.0,0.0,0.42722076177597046
1676104289.750914,835,1676104289,750140428,base_footprint,7,-0.20743860465033798,-0.24166740409164822,-0.05296777184682829,0.9464462511130292,0.0,0.0,0.0,0.4272432327270508
1676104289.7587967,836,1676104289,758305311,base_footprint,7,-0.20738870774281215,-0.24167019621521815,-0.05295503107459766,0.9464571859550504,0.0,0.0,0.0,0.4272433817386627
1676104289.7702239,837,1676104289,769127845,base_footprint,7,-0.20758557472874972,-0.24165917587175126,-0.05300529946901195,0.9464140267925666,0.0,0.0,0.0,0.42724257707595825
1676104289.7789447,838,1676104289,778207778,base_footprint,7,-0.20727414493529744,-0.24167660423988055,-0.052925778387226376,0.9464822818133087,0.0,0.0,0.0,0.42726024985313416
1676104289.788982,839,1676104289,788368701,base_footprint,7,-0.20727414493529744,-0.24167660423988055,-0.052925778387226376,0.9464822818133087,0.0,0.0,0.0,0.42726024985313416
1676104289.8066459,840,1676104289,799461841,base_footprint,7,-0.20730380510661275,-0.24167494556608723,-0.052933351872353776,0.9464757859203297,0.0,0.0,0.0,0.42725953459739685
1676104289.8171275,841,1676104289,815056085,base_footprint,7,-0.20730380510661275,-0.24167494556608723,-0.052933351872353776,0.9464757859203297,0.0,0.0,0.0,0.42725953459739685
1676104289.8270173,842,1676104289,821654081,base_footprint,7,-0.20743612921119714,-0.24166754262849124,-0.0529671397634422,0.9464467936672731,0.0,0.0,0.0,0.42728501558303833
1676104289.8341422,843,1676104289,831069231,base_footprint,7,-0.20742352745775713,-0.24166824785311838,-0.05296392200750808,0.9464495555507263,0.0,0.0,0.0,0.42728191614151
1676104289.8392656,844,1676104289,838293790,base_footprint,7,-0.20767079039463882,-0.24165440221720522,-0.053027058600858205,0.946395331646375,0.0,0.0,0.0,0.4272819757461548
1676104289.8498511,845,1676104289,848001956,base_footprint,7,-0.20726574490295316,-0.24167707394630644,-0.05292363350682927,0.9464841213327407,0.0,0.0,0.0,0.4272998869419098
1676104289.8591044,846,1676104289,858186960,base_footprint,7,-0.20726650129227112,-0.24167703165193857,-0.05292382664473091,0.9464839556945734,0.0,0.0,0.0,0.4273000955581665
1676104289.868998,847,1676104289,868204355,base_footprint,7,-0.2073732688494395,-0.24167105999986455,-0.052951088877902355,0.9464605688098604,0.0,0.0,0.0,0.4272979199886322
1676104289.8786972,848,1676104289,878067255,base_footprint,7,-0.20731586609613042,-0.2416742710131039,-0.05293643154858904,0.9464731441567678,0.0,0.0,0.0,0.4272348880767822
1676104289.8908734,849,1676104289,889769077,base_footprint,7,-0.2072743710973813,-0.2416765915932506,-0.05292583613588738,0.9464822322850923,0.0,0.0,0.0,0.4272342026233673
1676104289.9004033,850,1676104289,898228406,base_footprint,7,-0.20733523252488079,-0.2416731877918652,-0.052941376609713355,0.9464689019186208,0.0,0.0,0.0,0.42723512649536133
1676104289.910639,851,1676104289,909989595,base_footprint,7,-0.20726930455647874,-0.24167687490282574,-0.052924542435599374,0.946483341815301,0.0,0.0,0.0,0.4271870255470276
1676104289.9194977,852,1676104289,918316841,base_footprint,7,-0.20728339025901096,-0.2416760872440534,-0.052928139105945696,0.9464802570935734,0.0,0.0,0.0,0.42718634009361267
1676104289.928606,853,1676104289,928086280,base_footprint,7,-0.20746307526476923,-0.24166603451144816,-0.052974020220530625,0.9464408874023095,0.0,0.0,0.0,0.4271850287914276
1676104289.9388096,854,1676104289,938161134,base_footprint,7,-0.2072255166247517,-0.24167932312311402,-0.052913361540985894,0.9464929298229284,0.0,0.0,0.0,0.4271899163722992
1676104289.9518702,855,1676104289,949808835,base_footprint,7,-0.20730047705948892,-0.24167513169151186,-0.05293250208240726,0.9464765148465621,0.0,0.0,0.0,0.4271610975265503
1676104289.9595754,856,1676104289,958875894,base_footprint,7,-0.2073636316501906,-0.241671599153617,-0.05294862809693095,0.9464626803070633,0.0,0.0,0.0,0.4271617531776428
1676104289.968805,857,1676104289,968271255,base_footprint,7,-0.2074794227148557,-0.24166511947711145,-0.05297819440984278,0.9464373038374473,0.0,0.0,0.0,0.4271586537361145
1676104289.9797876,858,1676104289,979026317,base_footprint,7,-0.2072052704185866,-0.24168045492236057,-0.052908191835806265,0.946497362307971,0.0,0.0,0.0,0.4271935224533081
1676104289.988809,859,1676104289,988071203,base_footprint,7,-0.20713017812661835,-0.2416846517042433,-0.0528890176257062,0.946513798237734,0.0,0.0,0.0,0.42719346284866333
1676104289.9990175,860,1676104289,998052120,base_footprint,7,-0.2071865764299627,-0.2416814998469648,-0.052903418476835745,0.9465014545643432,0.0,0.0,0.0,0.4271929860115051
1676104290.0095387,861,1676104290,8417367,base_footprint,7,-0.2071166784258446,-0.24168540601076513,-0.05288557058617472,0.9465167523414636,0.0,0.0,0.0,0.4271918833255768
1676104290.0190902,862,1676104290,18189907,base_footprint,7,-0.20712897839647654,-0.2416847187422053,-0.05288871128430684,0.9465140607796686,0.0,0.0,0.0,0.4271447956562042
1676104290.0287125,863,1676104290,28070449,base_footprint,7,-0.20714319942965886,-0.24168392407976366,-0.05289234251024136,0.9465109486293494,0.0,0.0,0.0,0.4271451234817505
1676104290.0388017,864,1676104290,38136243,base_footprint,7,-0.20703253982780706,-0.24169010616073555,-0.05286408647490297,0.9465351596204093,0.0,0.0,0.0,0.4271443486213684
1676104290.0489678,865,1676104290,48026323,base_footprint,7,-0.20709443066869132,-0.2416866490094871,-0.052879889801120336,0.9465216203189428,0.0,0.0,0.0,0.42712831497192383
1676104290.0591521,866,1676104290,58303117,base_footprint,7,-0.20724514145024892,-0.2416782259495572,-0.052918372581631984,0.9464886329430758,0.0,0.0,0.0,0.4271256625652313
1676104290.070725,867,1676104290,69826364,base_footprint,7,-0.20710405887927663,-0.24168611109138166,-0.05288234828690912,0.9465195136609257,0.0,0.0,0.0,0.4271288514137268
1676104290.0790458,868,1676104290,78008651,base_footprint,7,-0.20708936885241033,-0.24168693179738504,-0.05287859730722628,0.9465227278060979,0.0,0.0,0.0,0.4271892011165619
1676104290.0889115,869,1676104290,88122844,base_footprint,7,-0.2071237815191089,-0.24168500912619945,-0.05288738430365544,0.9465151980155473,0.0,0.0,0.0,0.42718833684921265
1676104290.099222,870,1676104290,98047971,base_footprint,7,-0.20718789254876618,-0.2416814262840397,-0.05290375453713959,0.9465011664685824,0.0,0.0,0.0,0.42718568444252014
1676104290.1108377,871,1676104290,108632087,base_footprint,7,-0.2072158366492422,-0.24167986426556876,-0.052910889837441924,0.9464950491085207,0.0,0.0,0.0,0.42718788981437683
1676104290.119746,872,1676104290,118859529,base_footprint,7,-0.2071617411578077,-0.24168288789372422,-0.052897076990729645,0.9465068905959702,0.0,0.0,0.0,0.42714551091194153
1676104290.128808,873,1676104290,127990245,base_footprint,7,-0.20708554333148027,-0.24168714551250983,-0.05287762049136233,0.9465235647823523,0.0,0.0,0.0,0.4271431863307953
1676104290.138953,874,1676104290,138141870,base_footprint,7,-0.20731973717894397,-0.2416740545005524,-0.05293741999831186,0.9464722962249026,0.0,0.0,0.0,0.42714160680770874
1676104290.150022,875,1676104290,148547649,base_footprint,7,-0.2070840643114232,-0.24168722813778357,-0.052877242835539434,0.9465238883691465,0.0,0.0,0.0,0.4272000193595886
1676104290.1593208,876,1676104290,158842802,base_footprint,7,-0.20711962684584578,-0.24168524126984878,-0.052886323441402386,0.9465161071637523,0.0,0.0,0.0,0.42719992995262146
1676104290.168757,877,1676104290,168015956,base_footprint,7,-0.20708058340423455,-0.24168742259579565,-0.05287635401401029,0.946524649928436,0.0,0.0,0.0,0.42719754576683044
1676104290.1790237,878,1676104290,178370475,base_footprint,7,-0.20709372319161587,-0.2416866885344615,-0.05287970915256467,0.9465217751112863,0.0,0.0,0.0,0.42717474699020386
1676104290.18917,879,1676104290,188093662,base_footprint,7,-0.20731835840118013,-0.24167413161710774,-0.0529370679385487,0.9464725982378074,0.0,0.0,0.0,0.4271720349788666
1676104290.199054,880,1676104290,198009967,base_footprint,7,-0.20712865543706982,-0.24168473678831107,-0.05288862881923145,0.946514131453946,0.0,0.0,0.0,0.4271768033504486
1676104290.211634,881,1676104290,210668087,base_footprint,7,-0.2070973877760244,-0.2416864838017661,-0.052880644874588024,0.9465209733130762,0.0,0.0,0.0,0.427176296710968
1676104290.2193892,882,1676104290,218449354,base_footprint,7,-0.20697671796008618,-0.24169322337740928,-0.052849832811952976,0.946547367630198,0.0,0.0,0.0,0.4271916151046753
1676104290.229563,883,1676104290,228299856,base_footprint,7,-0.2070854362847143,-0.24168715149268502,-0.05287759315783545,0.9465235882026162,0.0,0.0,0.0,0.4271891415119171
1676104290.2390194,884,1676104290,238423109,base_footprint,7,-0.20712478765854586,-0.2416849529071143,-0.052887641213232285,0.9465149778437679,0.0,0.0,0.0,0.4271903932094574
1676104290.2500887,885,1676104290,249161005,base_footprint,7,-0.20694059929363462,-0.24169523985437835,-0.05284061020226929,0.9465552647939673,0.0,0.0,0.0,0.42725470662117004
1676104290.2589598,886,1676104290,258026838,base_footprint,7,-0.20728987248953432,-0.24167572474518642,-0.05292979429114133,0.946478837432966,0.0,0.0,0.0,0.42725175619125366
1676104290.2718916,887,1676104290,270765066,base_footprint,7,-0.20706325798440364,-0.24168839041514964,-0.05287193010802471,0.9465284402161779,0.0,0.0,0.0,0.4272533655166626
1676104290.2809184,888,1676104290,279616355,base_footprint,7,-0.20701731210848012,-0.24169095659766032,-0.05286019819979421,0.9465384902013052,0.0,0.0,0.0,0.4272477328777313
1676104290.290552,889,1676104290,289419889,base_footprint,7,-0.2070688377871136,-0.2416880787297406,-0.052873354865568704,0.9465272195571981,0.0,0.0,0.0,0.427247554063797
1676104290.2987943,890,1676104290,298037052,base_footprint,7,-0.2071026888514775,-0.24168618763500818,-0.05288199846137876,0.9465198134300594,0.0,0.0,0.0,0.427248477935791
1676104290.3115625,891,1676104290,310116529,base_footprint,7,-0.20699930553995097,-0.2416919621430403,-0.052855600367991376,0.9465424282361379,0.0,0.0,0.0,0.42724865674972534
1676104290.3186855,892,1676104290,318019866,base_footprint,7,-0.20700251224460425,-0.24169178307692535,-0.05285641917411834,0.9465417269564025,0.0,0.0,0.0,0.4272375702857971
1676104290.3295135,893,1676104290,328240156,base_footprint,7,-0.20695980818304477,-0.24169416748297484,-0.0528455150369958,0.9465510650472184,0.0,0.0,0.0,0.42723774909973145
1676104290.3394065,894,1676104290,338371992,base_footprint,7,-0.2070143899612866,-0.24169111978609809,-0.05285945205311573,0.9465391292990177,0.0,0.0,0.0,0.4272369146347046
1676104290.349204,895,1676104290,348677396,base_footprint,7,-0.2070602284831436,-0.2416885596381167,-0.05287115654935262,0.9465291029470222,0.0,0.0,0.0,0.4272337257862091
1676104290.360135,896,1676104290,358757257,base_footprint,7,-0.20716041843601218,-0.24168296181593574,-0.05289673924440514,0.9465071800988107,0.0,0.0,0.0,0.42723286151885986
1676104290.3705406,897,1676104290,370042324,base_footprint,7,-0.20714858677404493,-0.24168362302339677,-0.05289371812510718,0.946509769597072,0.0,0.0,0.0,0.42723366618156433
1676104290.3789086,898,1676104290,378239393,base_footprint,7,-0.2071268979560526,-0.24168483499112164,-0.052888180060652004,0.9465145160473184,0.0,0.0,0.0,0.4272024929523468
1676104290.390592,899,1676104290,389104127,base_footprint,7,-0.20717807032400795,-0.24168197527402374,-0.05290124651139915,0.9465033164875899,0.0,0.0,0.0,0.4272027909755707
1676104290.3990695,900,1676104290,398090600,base_footprint,7,-0.20712340822382924,-0.2416850299843878,-0.052887288985721544,0.9465152797028326,0.0,0.0,0.0,0.42720237374305725
1676104290.4116664,901,1676104290,408245086,base_footprint,7,-0.20724403001966119,-0.24167828808969352,-0.052918088786810404,0.9464888763035707,0.0,0.0,0.0,0.42719846963882446
1676104290.4190576,902,1676104290,418448448,base_footprint,7,-0.20699653852393776,-0.24169211665409446,-0.05285489383280652,0.9465430333504622,0.0,0.0,0.0,0.4272463023662567
1676104290.428751,903,1676104290,428053140,base_footprint,7,-0.2070640277038118,-0.24168834741947376,-0.05287212664965719,0.9465282718314658,0.0,0.0,0.0,0.4272461235523224
1676104290.4390466,904,1676104290,438194036,base_footprint,7,-0.2071035987004166,-0.241686136801692,-0.052882230783954896,0.9465196143506605,0.0,0.0,0.0,0.42724689841270447
1676104290.453962,905,1676104290,452514648,base_footprint,7,-0.20711892013353664,-0.2416852807571313,-0.052886142988123615,0.9465162618084826,0.0,0.0,0.0,0.4271937310695648
1676104290.459721,906,1676104290,459050178,base_footprint,7,-0.20712608828474677,-0.24168488023285156,-0.052887973317625216,0.9465146932282908,0.0,0.0,0.0,0.4271908700466156
1676104290.470599,907,1676104290,469609498,base_footprint,7,-0.20708528300564183,-0.24168716005562565,-0.052877554019262606,0.9465236217378094,0.0,0.0,0.0,0.4271923899650574
1676104290.4788404,908,1676104290,478057384,base_footprint,7,-0.20701514710551436,-0.24169107750331817,-0.052859645383777486,0.9465389637062326,0.0,0.0,0.0,0.4271528124809265
1676104290.4895961,909,1676104290,488143444,base_footprint,7,-0.20692119063634384,-0.24169632327226317,-0.052835654358428345,0.9465595078022428,0.0,0.0,0.0,0.4271518588066101
1676104290.4992647,910,1676104290,498089790,base_footprint,7,-0.20702326654029865,-0.2416906240626472,-0.052861718615854536,0.9465371878886591,0.0,0.0,0.0,0.42714932560920715
1676104290.5109646,911,1676104290,510122776,base_footprint,7,-0.20697134287856028,-0.24169352348737183,-0.05284846032830943,0.9465485429560555,0.0,0.0,0.0,0.42711037397384644
1676104290.519862,912,1676104290,518104076,base_footprint,7,-0.2070505560399471,-0.24168909990755044,-0.05286868676912393,0.9465312188135871,0.0,0.0,0.0,0.4271125793457031
1676104290.5290284,913,1676104290,528069972,base_footprint,7,-0.20712419486450204,-0.24168498603013128,-0.05288748984806225,0.9465151075640146,0.0,0.0,0.0,0.42711031436920166
1676104290.5391417,914,1676104290,538296222,base_footprint,7,-0.20705348232346532,-0.24168893645820064,-0.05286943397197951,0.9465305786940603,0.0,0.0,0.0,0.4271135628223419
1676104290.5502849,915,1676104290,549156188,base_footprint,7,-0.20709972677391966,-0.24168635312484246,-0.052881242118804336,0.946520461540771,0.0,0.0,0.0,0.42716944217681885
1676104290.5592322,916,1676104290,558472156,base_footprint,7,-0.20714322096556226,-0.2416839228763075,-0.052892348009260313,0.9465109439162331,0.0,0.0,0.0,0.42716890573501587
1676104290.5688648,917,1676104290,568345069,base_footprint,7,-0.20710122038713882,-0.24168626967770745,-0.052881623500873276,0.9465201347353072,0.0,0.0,0.0,0.42717012763023376
1676104290.5790875,918,1676104290,578179836,base_footprint,7,-0.20713776714534735,-0.24168422763916236,-0.052890955420328636,0.9465121374642937,0.0,0.0,0.0,0.4271540641784668
1676104290.591393,919,1676104290,590715646,base_footprint,7,-0.20707359526035832,-0.2416878129723552,-0.052874569647927167,0.9465261787669349,0.0,0.0,0.0,0.42715638875961304
1676104290.598976,920,1676104290,598139286,base_footprint,7,-0.20717527542679154,-0.24168213148319806,-0.0529005328569743,0.9465039282522917,0.0,0.0,0.0,0.4271547198295593
1676104290.6100156,921,1676104290,609301328,base_footprint,7,-0.20715710075403496,-0.24168314722719256,-0.05289589210111507,0.9465079062281354,0.0,0.0,0.0,0.42712464928627014
1676104290.6207392,922,1676104290,619873046,base_footprint,7,-0.20716934508144172,-0.24168246292791212,-0.05289901859119917,0.9465052262949808,0.0,0.0,0.0,0.42712274193763733
1676104290.6287112,923,1676104290,627990722,base_footprint,7,-0.20705621731376656,-0.24168878369146166,-0.052870132329657545,0.9465299804110276,0.0,0.0,0.0,0.4271257519721985
1676104290.6389773,924,1676104290,638046503,base_footprint,7,-0.20701133496690421,-0.2416912903908576,-0.05285867198498081,0.9465397974413999,0.0,0.0,0.0,0.42712298035621643
1676104290.6510007,925,1676104290,649775028,base_footprint,7,-0.20708156993035318,-0.24168736748467465,-0.05287660591548476,0.9465244340957958,0.0,0.0,0.0,0.4271530210971832
1676104290.6594367,926,1676104290,658353328,base_footprint,7,-0.20704100646993015,-0.24168963328776658,-0.05286624836356897,0.9465333076997896,0.0,0.0,0.0,0.4271516799926758
1676104290.669019,927,1676104290,668251276,base_footprint,7,-0.20702639353065783,-0.24169044942672727,-0.05286251706758049,0.9465365039589734,0.0,0.0,0.0,0.42715397477149963
1676104290.6803706,928,1676104290,679286718,base_footprint,7,-0.20733346806820438,-0.24167328648749975,-0.052940926069955686,0.9464692884420483,0.0,0.0,0.0,0.4271600544452667
1676104290.6893759,929,1676104290,688146352,base_footprint,7,-0.207276411647358,-0.24167647748823404,-0.05292635717383877,0.9464817854136346,0.0,0.0,0.0,0.4271596670150757
1676104290.6995065,930,1676104290,698159694,base_footprint,7,-0.20711274373089977,-0.24168562585527978,-0.052884565893608085,0.9465176133223538,0.0,0.0,0.0,0.42716196179389954
1676104290.7090716,931,1676104290,708368539,base_footprint,7,-0.20711274373089977,-0.24168562585527978,-0.052884565893608085,0.9465176133223538,0.0,0.0,0.0,0.42716196179389954
1676104290.721173,932,1676104290,718489646,base_footprint,7,-0.20717108902618084,-0.2416823654605453,-0.05289946389339936,0.9465048445818397,0.0,0.0,0.0,0.4271829128265381
1676104290.7345474,933,1676104290,730636835,base_footprint,7,-0.20716902640786766,-0.24168248073817375,-0.052898937220476526,0.9465052960456177,0.0,0.0,0.0,0.42718493938446045
1676104290.7386427,934,1676104290,737997055,base_footprint,7,-0.20716869820583766,-0.24168249908093872,-0.052898853416739645,0.9465053678817067,0.0,0.0,0.0,0.42718514800071716
1676104290.7502134,935,1676104290,748747348,base_footprint,7,-0.2070823579832617,-0.24168732346082838,-0.05287680713842844,0.9465242616844423,0.0,0.0,0.0,0.42721328139305115
1676104290.7594278,936,1676104290,758128404,base_footprint,7,-0.20718986837525538,-0.24168131584660385,-0.05290425904847134,0.9465007339605346,0.0,0.0,0.0,0.4272148907184601
1676104290.7693663,937,1676104290,768306493,base_footprint,7,-0.20712501544556403,-0.24168494017923856,-0.05288769937680713,0.9465149279973671,0.0,0.0,0.0,0.4272136092185974
1676104290.7791784,938,1676104290,777986526,base_footprint,7,-0.20714255782828422,-0.24168395993327874,-0.0528921786825137,0.9465110890430931,0.0,0.0,0.0,0.42725643515586853
1676104290.7900734,939,1676104290,789271593,base_footprint,7,-0.20708031349083197,-0.24168743767414239,-0.052876285093803516,0.9465247089800272,0.0,0.0,0.0,0.42725688219070435
1676104290.798724,940,1676104290,798023700,base_footprint,7,-0.20716367929132196,-0.24168277957744963,-0.05289757187746475,0.9465064663950631,0.0,0.0,0.0,0.4272575378417969
1676104290.8102832,941,1676104290,809356212,base_footprint,7,-0.20738427250478608,-0.2416704443675265,-0.05295389857239901,0.9464581577982446,0.0,0.0,0.0,0.42725372314453125
1676104290.8204813,942,1676104290,818412542,base_footprint,7,-0.20732155115317077,-0.241673953042162,-0.052937883181975974,0.9464718988816464,0.0,0.0,0.0,0.42727410793304443
1676104290.8323412,943,1676104290,829437017,base_footprint,7,-0.20712160632172508,-0.24168513066663241,-0.052886828884576416,0.9465156740064554,0.0,0.0,0.0,0.4272778630256653
1676104290.839692,944,1676104290,838095903,base_footprint,7,-0.20702410903444377,-0.24169057701137026,-0.05286193373992817,0.9465370036209261,0.0,0.0,0.0,0.42727798223495483
1676104290.8510923,945,1676104290,849671125,base_footprint,7,-0.20706621984915546,-0.24168822496773876,-0.05287268639626083,0.9465277922716097,0.0,0.0,0.0,0.4272705018520355
1676104290.8603628,946,1676104290,858120441,base_footprint,7,-0.20719833770332327,-0.24168084244694696,-0.05290642162297164,0.9464988799772379,0.0,0.0,0.0,0.42726776003837585
1676104290.868953,947,1676104290,868335723,base_footprint,7,-0.2072182173292453,-0.24167973118018624,-0.05291149772484773,0.9464945279039261,0.0,0.0,0.0,0.427269846200943
1676104290.8790212,948,1676104290,878434658,base_footprint,7,-0.2073222294305307,-0.24167391510481884,-0.05293805637462018,0.9464717503069706,0.0,0.0,0.0,0.4272763729095459
1676104290.8896086,949,1676104290,888665199,base_footprint,7,-0.20724839248995086,-0.2416780441817701,-0.05291920270835544,0.9464879210827349,0.0,0.0,0.0,0.4272763431072235
1676104290.8989236,950,1676104290,898103237,base_footprint,7,-0.20721211866345174,-0.24168007210615633,-0.05290994047980711,0.9464958630782229,0.0,0.0,0.0,0.42727798223495483
1676104290.912234,951,1676104290,911481142,base_footprint,7,-0.20717849444327183,-0.24168195156944564,-0.05290135480682682,0.946503223652939,0.0,0.0,0.0,0.4272807240486145
1676104290.9201272,952,1676104290,918369054,base_footprint,7,-0.20718973688167036,-0.24168132319637983,-0.052904225472646706,0.9465007627445899,0.0,0.0,0.0,0.42728132009506226
1676104290.9288526,953,1676104290,928175210,base_footprint,7,-0.20718994023099713,-0.24168131183025676,-0.05290427739625449,0.9465007182312447,0.0,0.0,0.0,0.4272803068161011
1676104290.9386015,954,1676104290,938015222,base_footprint,7,-0.2071930254550078,-0.2416811393815547,-0.05290506518328077,0.9465000428673983,0.0,0.0,0.0,0.42728012800216675
1676104290.9488242,955,1676104290,948194026,base_footprint,7,-0.2071329572208645,-0.24168449641374662,-0.052889727244970264,0.9465131900708652,0.0,0.0,0.0,0.4273226857185364
1676104290.9603577,956,1676104290,959562063,base_footprint,7,-0.20722347872910737,-0.2416794370503817,-0.052912841180796824,0.9464933759982652,0.0,0.0,0.0,0.4273213744163513
1676104290.9710362,957,1676104290,969367265,base_footprint,7,-0.2073910470155884,-0.24167006533027524,-0.052955628389002606,0.9464566733680757,0.0,0.0,0.0,0.42731985449790955
1676104290.9786048,958,1676104290,977996587,base_footprint,7,-0.2072637176566692,-0.24167718730128732,-0.05292311586586834,0.9464845652668208,0.0,0.0,0.0,0.42730870842933655
1676104290.9892237,959,1676104290,988388776,base_footprint,7,-0.20727766577618845,-0.24167640735832568,-0.052926677405503796,0.9464815107626567,0.0,0.0,0.0,0.4273087978363037
1676104290.9996538,960,1676104290,998064994,base_footprint,7,-0.20725434167168613,-0.24167771155133452,-0.05292072178384942,0.9464866183963839,0.0,0.0,0.0,0.4273095428943634
1676104291.0109982,961,1676104291,10068893,base_footprint,7,-0.20714012389571335,-0.24168409594352244,-0.052891557197494936,0.9465116217023722,0.0,0.0,0.0,0.42733442783355713
1676104291.019168,962,1676104291,18008470,base_footprint,7,-0.20735578986563497,-0.24167203784339836,-0.05294662576059672,0.9464643983554716,0.0,0.0,0.0,0.42732980847358704
1676104291.0287735,963,1676104291,28153181,base_footprint,7,-0.20721936609297914,-0.241679666961129,-0.05291179105238656,0.9464942764017171,0.0,0.0,0.0,0.42733675241470337
1676104291.040023,964,1676104291,38200616,base_footprint,7,-0.20726767154716047,-0.24167696621548848,-0.05292412545986268,0.9464836994246676,0.0,0.0,0.0,0.42733538150787354
1676104291.0503147,965,1676104291,48963785,base_footprint,7,-0.2072124534837841,-0.24168005338939322,-0.052910025973474044,0.9464957897774384,0.0,0.0,0.0,0.42735251784324646
1676104291.0587845,966,1676104291,58000564,base_footprint,7,-0.2072828015376946,-0.24167612016589948,-0.05292798878071371,0.9464803860259708,0.0,0.0,0.0,0.4273499548435211
1676104291.069254,967,1676104291,68335056,base_footprint,7,-0.20726346371860435,-0.24167720150034086,-0.05292305102483498,0.9464846208748207,0.0,0.0,0.0,0.4273505210876465
1676104291.0862775,968,1676104291,81219434,base_footprint,7,-0.2071182910889099,-0.24168531590464276,-0.052885982366660096,0.9465163994572919,0.0,0.0,0.0,0.4273831248283386
1676104291.0904508,969,1676104291,89674472,base_footprint,7,-0.2070919852461087,-0.24168678562852874,-0.052879265382219896,0.9465221553624679,0.0,0.0,0.0,0.4273799955844879
1676104291.0994298,970,1676104291,98121166,base_footprint,7,-0.20711424005307938,-0.2416855422512904,-0.0528849479673882,0.9465172859025986,0.0,0.0,0.0,0.42738327383995056
1676104291.1124089,971,1676104291,110717296,base_footprint,7,-0.20712248837721056,-0.2416850813814247,-0.05288705411031871,0.9465154809899405,0.0,0.0,0.0,0.4273870289325714
1676104291.1194012,972,1676104291,118034362,base_footprint,7,-0.20702250566112815,-0.2416906665557512,-0.05286152433150532,0.9465373543051401,0.0,0.0,0.0,0.42739078402519226
1676104291.1292663,973,1676104291,128036499,base_footprint,7,-0.20704296754499885,-0.24168952375628439,-0.05286674910824467,0.9465328787397439,0.0,0.0,0.0,0.4273868203163147
1676104291.1394227,974,1676104291,138494729,base_footprint,7,-0.20708132876831506,-0.24168738095693357,-0.05287654433670662,0.9465244868574374,0.0,0.0,0.0,0.42738983035087585
1676104291.1515481,975,1676104291,150254011,base_footprint,7,-0.2072407410906721,-0.24167847197182185,-0.05291724898536357,0.946489596444343,0.0,0.0,0.0,0.4273768663406372
1676104291.1600559,976,1676104291,158916950,base_footprint,7,-0.20698995704449638,-0.24169248415730374,-0.05285321330520148,0.9465444726096623,0.0,0.0,0.0,0.42737916111946106
1676104291.1693504,977,1676104291,168424367,base_footprint,7,-0.20697429683297652,-0.24169335855857738,-0.052849214596705274,0.9465478970425539,0.0,0.0,0.0,0.4273805022239685
1676104291.1800604,978,1676104291,178482532,base_footprint,7,-0.20713903238383868,-0.2416841569376001,-0.05289127848875583,0.9465118605745377,0.0,0.0,0.0,0.4274646043777466
1676104291.1898103,979,1676104291,188867330,base_footprint,7,-0.2069512578160198,-0.2416946448357409,-0.052843331769852495,0.9465529345121452,0.0,0.0,0.0,0.42746660113334656
1676104291.1990125,980,1676104291,198045015,base_footprint,7,-0.20706022040760855,-0.24168856008919937,-0.05287115448732999,0.9465291047136051,0.0,0.0,0.0,0.4274652898311615
1676104291.215319,981,1676104291,211427688,base_footprint,7,-0.20712376663376325,-0.24168500995793143,-0.05288738050280268,0.9465152012728737,0.0,0.0,0.0,0.4275284707546234
1676104291.2195778,982,1676104291,218620300,base_footprint,7,-0.20707383478017508,-0.24168779959236086,-0.052874630807377344,0.9465261263666308,0.0,0.0,0.0,0.4275290369987488
1676104291.2289329,983,1676104291,228086948,base_footprint,7,-0.20699843054212905,-0.24169201100343093,-0.05285537694436647,0.946542619588934,0.0,0.0,0.0,0.4275268018245697
1676104291.239381,984,1676104291,238138437,base_footprint,7,-0.20726666418284667,-0.24167702254370585,-0.052923868237523417,0.9464839200238435,0.0,0.0,0.0,0.4275251626968384
1676104291.2497523,985,1676104291,248071193,base_footprint,7,-0.20698804558348047,-0.24169259088907488,-0.05285272522907333,0.946544890605151,0.0,0.0,0.0,0.4275152385234833
1676104291.2590108,986,1676104291,258062839,base_footprint,7,-0.20713946035623262,-0.24168413302238834,-0.05289138776804912,0.9465117669149786,0.0,0.0,0.0,0.42751097679138184
1676104291.2696037,987,1676104291,269000530,base_footprint,7,-0.20720709882678862,-0.241680352715822,-0.05290865870506934,0.9464969620347292,0.0,0.0,0.0,0.4275118112564087
1676104291.284144,988,1676104291,280915260,base_footprint,7,-0.2070193558133366,-0.2416908424647395,-0.052860720043318675,0.9465380432205656,0.0,0.0,0.0,0.42751508951187134
1676104291.2894995,989,1676104291,288462638,base_footprint,7,-0.2071223260608099,-0.24168509045093584,-0.05288701266413712,0.9465155165090247,0.0,0.0,0.0,0.42744699120521545
1676104291.2988265,990,1676104291,298222780,base_footprint,7,-0.20704416440455586,-0.2416894569078241,-0.052867054716663385,0.946532616939958,0.0,0.0,0.0,0.4274469316005707
1676104291.3147845,991,1676104291,308397054,base_footprint,7,-0.2070399314525607,-0.24168969333000723,-0.05286597386656851,0.9465335428442593,0.0,0.0,0.0,0.4274471700191498
1676104291.3192778,992,1676104291,318281650,base_footprint,7,-0.20732670612496823,-0.2416736647115199,-0.05293919946237858,0.9464707696873461,0.0,0.0,0.0,0.42743119597435
1676104291.3296177,993,1676104291,328224182,base_footprint,7,-0.20721181963746169,-0.2416800888219561,-0.05290986412593632,0.9464959285425998,0.0,0.0,0.0,0.4274316132068634
1676104291.3394966,994,1676104291,338207244,base_footprint,7,-0.20694366102422898,-0.24169506893465192,-0.052841391990441515,0.9465545954180747,0.0,0.0,0.0,0.42743414640426636
1676104291.3529186,995,1676104291,349486351,base_footprint,7,-0.2069611425841657,-0.2416940929837161,-0.052845855765541704,0.9465507732844779,0.0,0.0,0.0,0.4274100363254547
1676104291.3589158,996,1676104291,358088731,base_footprint,7,-0.2073310034089198,-0.2416734243477915,-0.052940296739118806,0.9464698283467026,0.0,0.0,0.0,0.42740482091903687
1676104291.3701353,997,1676104291,369287729,base_footprint,7,-0.20698808859943107,-0.24169258848717035,-0.052852736212848805,0.9465448811985306,0.0,0.0,0.0,0.4274088144302368
1676104291.3787525,998,1676104291,378127098,base_footprint,7,-0.20692672939849832,-0.24169601410181565,-0.05283706863659805,0.9465582969926506,0.0,0.0,0.0,0.42739611864089966
1676104291.3892004,999,1676104291,388389825,base_footprint,7,-0.20703995848989845,-0.2416896918199125,-0.052865980770334275,0.9465335369302491,0.0,0.0,0.0,0.4273959696292877
1676104291.4006062,1000,1676104291,398123979,base_footprint,7,-0.20726777543694325,-0.24167696040632627,-0.0529241519872794,0.9464836766741448,0.0,0.0,0.0,0.4273931086063385
1676104291.410928,1001,1676104291,408766269,base_footprint,7,-0.2070626952683701,-0.2416884218477397,-0.0528717864230316,0.9465285633161761,0.0,0.0,0.0,0.4273946285247803
1676104291.4187205,1002,1676104291,418107748,base_footprint,7,-0.20683430433239314,-0.24170117207979255,-0.05281346864264977,0.946578497271368,0.0,0.0,0.0,0.42740151286125183
1676104291.4289238,1003,1676104291,427998304,base_footprint,7,-0.2068607739301437,-0.24169969513414294,-0.05282022744059335,0.9465727130834738,0.0,0.0,0.0,0.42740100622177124
1676104291.4388356,1004,1676104291,438128232,base_footprint,7,-0.20692623369892668,-0.24169604177182763,-0.05283694206371708,0.946558405357199,0.0,0.0,0.0,0.4274003207683563
1676104291.4516573,1005,1676104291,450798988,base_footprint,7,-0.20704655094681432,-0.24168932361054535,-0.05286766410094874,0.9465320949055106,0.0,0.0,0.0,0.42735007405281067
1676104291.4604714,1006,1676104291,459639787,base_footprint,7,-0.20721159031704012,-0.24168010164113995,-0.052909805570819306,0.9464959787465921,0.0,0.0,0.0,0.42734596133232117
1676104291.4689667,1007,1676104291,468132972,base_footprint,7,-0.20695526231793535,-0.24169442127363383,-0.052844354287065146,0.9465520589719832,0.0,0.0,0.0,0.4273481070995331
1676104291.4789932,1008,1676104291,477988958,base_footprint,7,-0.20697641077790524,-0.2416932405287055,-0.05284975437546473,0.9465474348001172,0.0,0.0,0.0,0.42736881971359253
1676104291.4905906,1009,1676104291,489171028,base_footprint,7,-0.20722146948394113,-0.24167954937481306,-0.052912328136275874,0.9464938158963863,0.0,0.0,0.0,0.42736777663230896
1676104291.4986727,1010,1676104291,498049020,base_footprint,7,-0.20693338590516674,-0.24169564252805398,-0.05283876832179939,0.9465568417918755,0.0,0.0,0.0,0.42737090587615967
1676104291.5108361,1011,1676104291,510100364,base_footprint,7,-0.20714390440696093,-0.24168388468458551,-0.052892522520500085,0.9465107943453291,0.0,0.0,0.0,0.42736878991127014
1676104291.519362,1012,1676104291,518250703,base_footprint,7,-0.20728295691307702,-0.24167611147717244,-0.05292802845456237,0.9464803519981583,0.0,0.0,0.0,0.42738813161849976
1676104291.5288188,1013,1676104291,528299808,base_footprint,7,-0.20712592637605523,-0.24168488927974657,-0.052887931975548856,0.9465147286588029,0.0,0.0,0.0,0.427388995885849
1676104291.5388448,1014,1676104291,538086175,base_footprint,7,-0.2070903882897273,-0.2416868748451822,-0.052878857612309364,0.946522504763197,0.0,0.0,0.0,0.42739126086235046
1676104291.5496242,1015,1676104291,548399448,base_footprint,7,-0.20713386353078916,-0.241684445770401,-0.05288995866388765,0.9465129917354513,0.0,0.0,0.0,0.42738378047943115
1676104291.559407,1016,1676104291,557967185,base_footprint,7,-0.20727188431556973,-0.24167673064940481,-0.052925201156241955,0.9464827768731238,0.0,0.0,0.0,0.4273810088634491
1676104291.5700257,1017,1676104291,569231271,base_footprint,7,-0.20710107134034472,-0.24168627800487683,-0.05288158544297852,0.9465201673471452,0.0,0.0,0.0,0.42738285660743713
1676104291.5802906,1018,1676104291,578772068,base_footprint,7,-0.2070923462594987,-0.24168676545980877,-0.052879357564072485,0.9465220763753597,0.0,0.0,0.0,0.4274550676345825
1676104291.5901515,1019,1676104291,588911533,base_footprint,7,-0.20705498062131492,-0.24168885276892388,-0.05286981655023099,0.9465302509402925,0.0,0.0,0.0,0.42745527625083923
1676104291.598909,1020,1676104291,598017454,base_footprint,7,-0.20719604410735237,-0.2416809706512737,-0.052905835971769934,0.946499382066069,0.0,0.0,0.0,0.427455335855484
1676104291.6156037,1021,1676104291,611732244,base_footprint,7,-0.20716981610747554,-0.24168243660281225,-0.052899138863891595,0.9465051231975351,0.0,0.0,0.0,0.42746949195861816
1676104291.622739,1022,1676104291,621240377,base_footprint,7,-0.20713875860436948,-0.24168417223644287,-0.05289120858138016,0.9465119204896614,0.0,0.0,0.0,0.4274723529815674
1676104291.6290414,1023,1676104291,628173351,base_footprint,7,-0.20697933542535193,-0.2416930772320362,-0.052850501160562655,0.9465467952785356,0.0,0.0,0.0,0.42747095227241516
1676104291.6388056,1024,1676104291,638124704,base_footprint,7,-0.20705531291401555,-0.24168883420821874,-0.05286990139848757,0.9465301782506808,0.0,0.0,0.0,0.42747291922569275
1676104291.6501772,1025,1676104291,649398803,base_footprint,7,-0.20716029782278142,-0.24168296855655516,-0.05289670844679107,0.9465072064972156,0.0,0.0,0.0,0.42748990654945374
1676104291.6595304,1026,1676104291,659027338,base_footprint,7,-0.20739161746665097,-0.24167003341266205,-0.05295577404907288,0.9464565483685728,0.0,0.0,0.0,0.42748358845710754
1676104291.6684747,1027,1676104291,667977333,base_footprint,7,-0.20712542683501878,-0.24168491719231694,-0.052887804421780885,0.946514837973287,0.0,0.0,0.0,0.4274885654449463
1676104291.6790955,1028,1676104291,677979707,base_footprint,7,-0.20730788046215193,-0.24167471764218879,-0.05293439248146681,0.9464748932980084,0.0,0.0,0.0,0.4275209605693817
1676104291.6903522,1029,1676104291,689560174,base_footprint,7,-0.20713478762458992,-0.2416843941330779,-0.05289019462377412,0.9465127895073062,0.0,0.0,0.0,0.42752382159233093
1676104291.6992493,1030,1676104291,698043584,base_footprint,7,-0.20716555550666255,-0.24168267472057825,-0.05289805095389445,0.9465060557422769,0.0,0.0,0.0,0.42752647399902344
1676104291.710955,1031,1676104291,709575414,base_footprint,7,-0.20718226632616676,-0.24168174075176035,-0.05290231792665183,0.9465023980239773,0.0,0.0,0.0,0.42752498388290405
1676104291.719294,1032,1676104291,717981576,base_footprint,7,-0.20728511107746703,-0.24167599101371562,-0.05292857850303634,0.9464798802250306,0.0,0.0,0.0,0.4275117814540863
1676104291.7301948,1033,1676104291,728916406,base_footprint,7,-0.20703381136957105,-0.24169003514476814,-0.052864411152819896,0.946534881499343,0.0,0.0,0.0,0.4275152087211609
1676104291.7398908,1034,1676104291,739270210,base_footprint,7,-0.20706638235741293,-0.2416882158900849,-0.052872727891431506,0.9465277567206363,0.0,0.0,0.0,0.42751744389533997
1676104291.750103,1035,1676104291,748539924,base_footprint,7,-0.2071305444353893,-0.2416846312357313,-0.05288911115969153,0.946513718076545,0.0,0.0,0.0,0.4274700880050659
1676104291.7589278,1036,1676104291,758086442,base_footprint,7,-0.20731018521954517,-0.24167458874110118,-0.052934980982647546,0.9464743884804407,0.0,0.0,0.0,0.42746949195861816
1676104291.7718048,1037,1676104291,771023511,base_footprint,7,-0.2071926757076269,-0.24168115893083178,-0.05290497587811258,0.9465001194285716,0.0,0.0,0.0,0.42746955156326294
1676104291.779111,1038,1676104291,778508663,base_footprint,7,-0.20709610573648224,-0.24168655542707582,-0.05288031751614825,0.9465212538205204,0.0,0.0,0.0,0.4274939298629761
1676104291.7888603,1039,1676104291,788094282,base_footprint,7,-0.20712535423486075,-0.24168492124894883,-0.05288778588391704,0.9465148538603447,0.0,0.0,0.0,0.42749422788619995
1676104291.799694,1040,1676104291,798272848,base_footprint,7,-0.20714625826662944,-0.24168375314639545,-0.05289312355955013,0.9465102792000313,0.0,0.0,0.0,0.4274950325489044
1676104291.8115478,1041,1676104291,808094501,base_footprint,7,-0.20717649887191708,-0.2416820631040848,-0.05290084525380316,0.9465036604579831,0.0,0.0,0.0,0.4274946451187134
1676104291.8192012,1042,1676104291,818391084,base_footprint,7,-0.20726864948653143,-0.24167691153233445,-0.05292437516878049,0.946483485268082,0.0,0.0,0.0,0.42748695611953735
1676104291.8302376,1043,1676104291,828458309,base_footprint,7,-0.20720270120461323,-0.24168059853774512,-0.05290753580777427,0.9464979247513954,0.0,0.0,0.0,0.42748668789863586
1676104291.838884,1044,1676104291,838054418,base_footprint,7,-0.20718346542230195,-0.2416816737311617,-0.05290262410616272,0.946502135550043,0.0,0.0,0.0,0.4274868369102478
1676104291.8493466,1045,1676104291,848675251,base_footprint,7,-0.20728497999769951,-0.24167599834389097,-0.05292854503287667,0.9464799089323237,0.0,0.0,0.0,0.4274950623512268
1676104291.8586354,1046,1676104291,858092546,base_footprint,7,-0.20721729777664358,-0.24167978258544093,-0.05291126292451974,0.9464947292232176,0.0,0.0,0.0,0.4274927079677582
1676104291.869391,1047,1676104291,868129014,base_footprint,7,-0.20749143680277987,-0.24166444695078923,-0.05298126211013505,0.9464346700109334,0.0,0.0,0.0,0.4274909794330597
1676104291.87951,1048,1676104291,878560543,base_footprint,7,-0.20729768711990954,-0.24167528772014948,-0.052931789693874964,0.9464771259042251,0.0,0.0,0.0,0.42749202251434326
1676104291.8898284,1049,1676104291,889003753,base_footprint,7,-0.2071890461086635,-0.24168136180675237,-0.052904049089340016,0.9465009139550624,0.0,0.0,0.0,0.42748817801475525
1676104291.8990233,1050,1676104291,898016691,base_footprint,7,-0.20721029211404812,-0.24168017421138216,-0.05290947408517319,0.9464962629546918,0.0,0.0,0.0,0.42748919129371643
1676104291.909981,1051,1676104291,908607244,base_footprint,7,-0.2072993099771675,-0.24167519696138828,-0.05293220407736508,0.9464767704641126,0.0,0.0,0.0,0.42748796939849854
1676104291.91944,1052,1676104291,918066740,base_footprint,7,-0.2072477285180557,-0.2416780813051222,-0.052919033168496096,0.9464880664695633,0.0,0.0,0.0,0.42742905020713806
1676104291.928693,1053,1676104291,928025960,base_footprint,7,-0.2072363876576175,-0.24167871536505733,-0.05291613737140351,0.9464905496494975,0.0,0.0,0.0,0.4274314045906067
1676104291.9389782,1054,1676104291,938118934,base_footprint,7,-0.20724550053768465,-0.2416782058728872,-0.0529184642717077,0.9464885543164645,0.0,0.0,0.0,0.42743048071861267
1676104291.9492803,1055,1676104291,948318958,base_footprint,7,-0.20732015441848628,-0.24167403116378042,-0.0529375265370582,0.9464722048306973,0.0,0.0,0.0,0.4274420738220215
1676104291.9592776,1056,1676104291,958174228,base_footprint,7,-0.20742133329929974,-0.2416683706389473,-0.0529633617468721,0.9464500364190004,0.0,0.0,0.0,0.42744019627571106
1676104291.9716835,1057,1676104291,970806598,base_footprint,7,-0.20726932616812296,-0.2416768736943666,-0.05292454795395813,0.9464833370825915,0.0,0.0,0.0,0.4274426996707916
1676104291.980601,1058,1676104291,978388071,base_footprint,7,-0.20734187892136582,-0.24167281601494875,-0.05294307371336104,0.9464674459222271,0.0,0.0,0.0,0.42745399475097656
1676104291.988746,1059,1676104291,988066673,base_footprint,7,-0.20734696063532346,-0.24167253175265005,-0.05294437128796608,0.9464663326608506,0.0,0.0,0.0,0.4274512529373169
1676104291.9997785,1060,1676104291,998597621,base_footprint,7,-0.2072728837896454,-0.24167667476090748,-0.05292545636387264,0.9464825579960312,0.0,0.0,0.0,0.4274538457393646
1676104292.0112507,1061,1676104292,10620832,base_footprint,7,-0.20732070135286546,-0.2416740005729262,-0.05293766619233336,0.9464720850272037,0.0,0.0,0.0,0.4274696111679077
1676104292.0190544,1062,1676104292,18092632,base_footprint,7,-0.2072520561759196,-0.2416778393390754,-0.05292013820096945,0.9464871188537326,0.0,0.0,0.0,0.42746978998184204
1676104292.0289006,1063,1676104292,28149366,base_footprint,7,-0.20726698561466805,-0.24167700457041666,-0.05292395031254223,0.946483849634739,0.0,0.0,0.0,0.4274698793888092
1676104292.0396829,1064,1676104292,38952350,base_footprint,7,-0.20721761175874068,-0.24167976503309543,-0.052911343097311644,0.9464946604826623,0.0,0.0,0.0,0.42746973037719727
1676104292.049549,1065,1676104292,48308372,base_footprint,7,-0.2073847440365827,-0.24167041798550795,-0.05295401897423387,0.9464580544778872,0.0,0.0,0.0,0.42745426297187805
1676104292.0587466,1066,1676104292,58151721,base_footprint,7,-0.20733857311618317,-0.24167300093205923,-0.05294222960271452,0.946468170116318,0.0,0.0,0.0,0.4274543821811676
1676104292.0706096,1067,1676104292,70028066,base_footprint,7,-0.20733022562009204,-0.2416734678529188,-0.05294009813702522,0.9464699987265882,0.0,0.0,0.0,0.4274560213088989
1676104292.0792387,1068,1676104292,78410387,base_footprint,7,-0.20759507626948567,-0.24165864371132417,-0.05300772561067803,0.9464119426834452,0.0,0.0,0.0,0.42745012044906616
1676104292.0893397,1069,1676104292,88416337,base_footprint,7,-0.20723396472381986,-0.2416788508249542,-0.052915518694832624,0.9464910801534437,0.0,0.0,0.0,0.42745620012283325
1676104292.0990157,1070,1676104292,98014831,base_footprint,7,-0.20729922947370155,-0.24167520146358545,-0.05293218352145543,0.9464767880961455,0.0,0.0,0.0,0.42745524644851685
1676104292.1094432,1071,1676104292,108340978,base_footprint,7,-0.2072507301781318,-0.2416779134782259,-0.05291979961814678,0.9464874092061751,0.0,0.0,0.0,0.42745307087898254
1676104292.1210573,1072,1676104292,118613719,base_footprint,7,-0.2071579694826042,-0.2416830986779165,-0.05289611392393696,0.9465077160937626,0.0,0.0,0.0,0.42746755480766296
1676104292.1288013,1073,1676104292,128099441,base_footprint,7,-0.20736352369106328,-0.24167160519324885,-0.05294860053043997,0.9464627039601784,0.0,0.0,0.0,0.42746254801750183
1676104292.139092,1074,1676104292,138338088,base_footprint,7,-0.20736352369106328,-0.24167160519324885,-0.05294860053043997,0.9464627039601784,0.0,0.0,0.0,0.42746254801750183
1676104292.152696,1075,1676104292,151117801,base_footprint,7,-0.2072693071564624,-0.24167687475744237,-0.052924543099484196,0.9464833412459336,0.0,0.0,0.0,0.42746779322624207
1676104292.1597195,1076,1676104292,158865213,base_footprint,7,-0.2072466052164615,-0.24167814410978675,-0.05291874634250891,0.9464883124325616,0.0,0.0,0.0,0.4274732768535614
1676104292.1687772,1077,1676104292,168127298,base_footprint,7,-0.20725397839036463,-0.24167773186339359,-0.052920629022898846,0.9464866979448536,0.0,0.0,0.0,0.42747220396995544
1676104292.1806479,1078,1676104292,179155826,base_footprint,7,-0.20746829436515185,-0.2416657423850432,-0.05297535287564937,0.9464397433425971,0.0,0.0,0.0,0.4274738132953644
1676104292.189888,1079,1676104292,189029455,base_footprint,7,-0.2073029946343184,-0.24167499089310765,-0.052933144924801036,0.9464759634353268,0.0,0.0,0.0,0.4274756610393524
1676104292.199941,1080,1676104292,198063373,base_footprint,7,-0.2072885940675946,-0.24167579623795407,-0.05292946785642711,0.9464791174213334,0.0,0.0,0.0,0.42747750878334045
1676104292.2114573,1081,1676104292,209699153,base_footprint,7,-0.2073530610353911,-0.24167219049716707,-0.052945928975839565,0.9464649961960768,0.0,0.0,0.0,0.42747506499290466
1676104292.2194808,1082,1676104292,218323469,base_footprint,7,-0.20719447089615764,-0.24168105858764627,-0.05290543426500098,0.9464997264528118,0.0,0.0,0.0,0.4275174140930176
1676104292.2285569,1083,1676104292,227952480,base_footprint,7,-0.207244436643385,-0.24167826535538253,-0.05291819261489326,0.9464887872687939,0.0,0.0,0.0,0.4275185763835907
1676104292.2389073,1084,1676104292,238340854,base_footprint,7,-0.20722745401746293,-0.24167921481331062,-0.05291385623856294,0.9464925056473645,0.0,0.0,0.0,0.4275152385234833
1676104292.2519214,1085,1676104292,248817205,base_footprint,7,-0.2074141938828098,-0.2416687701536217,-0.05296153875454917,0.946451601045257,0.0,0.0,0.0,0.4275224506855011
1676104292.2588692,1086,1676104292,258002996,base_footprint,7,-0.2072751783079264,-0.2416765464551817,-0.05292604225057879,0.9464820555100891,0.0,0.0,0.0,0.42752566933631897
1676104292.269807,1087,1676104292,269099235,base_footprint,7,-0.20737230567587894,-0.2416711138858545,-0.052950842939314936,0.9464607798444984,0.0,0.0,0.0,0.42752179503440857
1676104292.2788396,1088,1676104292,277935266,base_footprint,7,-0.20718540649400477,-0.2416815652387591,-0.05290311974314054,0.9465017106593628,0.0,0.0,0.0,0.4275296628475189
1676104292.2905915,1089,1676104292,289314746,base_footprint,7,-0.20724476504300726,-0.24167824699454285,-0.05291827646908374,0.9464887153619186,0.0,0.0,0.0,0.42753100395202637
1676104292.2987711,1090,1676104292,298091173,base_footprint,7,-0.20741602526669703,-0.24166866767256784,-0.052962006383629426,0.9464511996969264,0.0,0.0,0.0,0.42752760648727417
1676104292.3105443,1091,1676104292,309580802,base_footprint,7,-0.20721478105005461,-0.2416799232754318,-0.05291062029871733,0.9464952802098721,0.0,0.0,0.0,0.4275568127632141
1676104292.3198445,1092,1676104292,318237066,base_footprint,7,-0.20705897662346845,-0.24168862956418552,-0.05287083689709808,0.9465293767996998,0.0,0.0,0.0,0.4275568425655365
1676104292.329349,1093,1676104292,328054189,base_footprint,7,-0.20705897662346845,-0.24168862956418552,-0.05287083689709808,0.9465293767996998,0.0,0.0,0.0,0.4275568425655365
1676104292.33978,1094,1676104292,338339328,base_footprint,7,-0.2071402867783281,-0.24168408684155426,-0.052891598788254716,0.9465115860561762,0.0,0.0,0.0,0.42755818367004395
1676104292.3506901,1095,1676104292,349551200,base_footprint,7,-0.20697715745762105,-0.24169319883833404,-0.0528499450340979,0.9465472715273915,0.0,0.0,0.0,0.4275599718093872
1676104292.3585646,1096,1676104292,358051538,base_footprint,7,-0.20708787861325864,-0.2416870150510213,-0.05287821678669821,0.9465230538537593,0.0,0.0,0.0,0.4275575876235962
1676104292.3704252,1097,1676104292,369628190,base_footprint,7,-0.20693401115444715,-0.24169560762528564,-0.052838927974151885,0.9465567051015578,0.0,0.0,0.0,0.42755603790283203
1676104292.3785973,1098,1676104292,377973794,base_footprint,7,-0.20703469567714203,-0.24168998575567055,-0.05286463695361402,0.9465346880759624,0.0,0.0,0.0,0.42756444215774536
1676104292.3890467,1099,1676104292,388386011,base_footprint,7,-0.20696275169704453,-0.2416940031467038,-0.052846266639515645,0.9465504214542265,0.0,0.0,0.0,0.4275638461112976
1676104292.399677,1100,1676104292,398108959,base_footprint,7,-0.20705640364413125,-0.24168877328363952,-0.05287017990761085,0.9465299396506931,0.0,0.0,0.0,0.42756718397140503
1676104292.411296,1101,1676104292,410265684,base_footprint,7,-0.20704509055131257,-0.24168940517926754,-0.052867291200755576,0.9465324143545139,0.0,0.0,0.0,0.4275650680065155
1676104292.4187953,1102,1676104292,418172359,base_footprint,7,-0.20703172784172785,-0.2416901515101488,-0.0528638791408175,0.9465353372231039,0.0,0.0,0.0,0.4276031255722046
1676104292.4288623,1103,1676104292,427968025,base_footprint,7,-0.20713254276362156,-0.24168451957296697,-0.052889621416661585,0.9465132807697221,0.0,0.0,0.0,0.4276023507118225
1676104292.4390285,1104,1676104292,438247919,base_footprint,7,-0.20716328877808302,-0.24168280140210952,-0.05289747216306407,0.9465065518673575,0.0,0.0,0.0,0.4276023805141449
1676104292.4493237,1105,1676104292,448349237,base_footprint,7,-0.2068987753616083,-0.24169757439116887,-0.05282993079911267,0.9465644075809385,0.0,0.0,0.0,0.42763569951057434
1676104292.4587789,1106,1676104292,458122253,base_footprint,7,-0.2071128314209533,-0.24168562095579202,-0.05288458828455483,0.946517594134405,0.0,0.0,0.0,0.4276341497898102
1676104292.4688547,1107,1676104292,468084812,base_footprint,7,-0.20695128439935556,-0.24169464335166954,-0.05284333855769252,0.9465529287000508,0.0,0.0,0.0,0.4276343882083893
1676104292.479849,1108,1676104292,479064941,base_footprint,7,-0.207246715527779,-0.24167813794221107,-0.052918774509612666,0.946488288278378,0.0,0.0,0.0,0.4275582432746887
1676104292.4888468,1109,1676104292,488121032,base_footprint,7,-0.2072659358787714,-0.2416770632676919,-0.05292368227096161,0.9464840795118972,0.0,0.0,0.0,0.4275595247745514
1676104292.4988801,1110,1676104292,498065471,base_footprint,7,-0.2069749157619531,-0.2416933240014655,-0.05284937263521925,0.9465477617059367,0.0,0.0,0.0,0.42755985260009766
