Time,header.seq,header.stamp.secs,header.stamp.nsecs,header.frame_id,pose.position.x,pose.position.y,pose.position.z,pose.orientation.x,pose.orientation.y,pose.orientation.z,pose.orientation.w
1676104288.8703346,4398,1676104288,341970132,world,-0.4122432470321655,0.521894097328186,0.1251450628042221,0.00441049225628376,-0.004366008564829826,-0.040571428835392,0.9991573691368103
1676104288.870374,4399,1676104288,342872383,world,-0.4122146666049957,0.5218526721000671,0.12515124678611755,0.003962957765907049,-0.004404209554195404,-0.040171828120946884,0.9991752505302429
1676104288.8703942,4400,1676104288,351963695,world,-0.4122384488582611,0.521896481513977,0.12514761090278625,0.004229736514389515,-0.004407351836562157,-0.040620844811201096,0.9991559386253357
1676104288.8704178,4401,1676104288,352134246,world,-0.41223934292793274,0.5218845009803772,0.12515276670455933,0.004217992536723614,-0.004354202654212713,-0.04044129326939583,0.9991635680198669
1676104288.8704388,4402,1676104288,361959407,world,-0.4122360348701477,0.5218865275382996,0.12515020370483398,0.004181921482086182,-0.004419142380356789,-0.04052988439798355,0.9991598725318909
1676104288.8704622,4403,1676104288,362134773,world,-0.41222599148750305,0.5218732357025146,0.12514789402484894,0.004133517853915691,-0.004353169351816177,-0.04039860516786575,0.9991656541824341
1676104288.870506,4404,1676104288,362211381,world,-0.4122365415096283,0.5218783617019653,0.12514245510101318,0.004267041105777025,-0.00435628043487668,-0.040457598865032196,0.9991626143455505
1676104288.8706927,4405,1676104288,371932453,world,-0.4122309684753418,0.5218760967254639,0.12514998018741608,0.004101642407476902,-0.004578571300953627,-0.040323592722415924,0.9991677403450012
1676104288.8707185,4406,1676104288,372119448,world,-0.412229061126709,0.5218840837478638,0.12514939904212952,0.004126071929931641,-0.004343095235526562,-0.04046441242098808,0.999163031578064
1676104288.870727,4407,1676104288,381986311,world,-0.41223064064979553,0.5218761563301086,0.12514527142047882,0.004110232926905155,-0.004443772602826357,-0.04042864590883255,0.9991641044616699
1676104288.8707702,4408,1676104288,382140770,world,-0.41223448514938354,0.521885097026825,0.12515325844287872,0.004192952997982502,-0.00438340101391077,-0.04056982696056366,0.9991583824157715
1676104288.8708253,4409,1676104288,382229730,world,-0.41223371028900146,0.5218886137008667,0.12515348196029663,0.00425734044983983,-0.004308240953832865,-0.0405753068625927,0.9991581439971924
1676104288.8711257,4410,1676104288,391923247,world,-0.41223466396331787,0.5218812823295593,0.1251436024904251,0.004198255483061075,-0.0044244881719350815,-0.04045660421252251,0.9991626739501953
1676104288.8711421,4411,1676104288,392105538,world,-0.41224172711372375,0.5218899250030518,0.12515637278556824,0.0042314790189266205,-0.0044385637156665325,-0.04060306027531624,0.9991565346717834
1676104288.8711524,4412,1676104288,402137471,world,-0.41222450137138367,0.521857738494873,0.12515853345394135,0.004075051750987768,-0.004509385209530592,-0.04024360328912735,0.9991714358329773
1676104288.8713262,4414,1676104288,402287097,world,-0.41221141815185547,0.5218368768692017,0.1251663714647293,0.004073193296790123,-0.004397623240947723,-0.04004037007689476,0.9991800785064697
1676104288.8713357,4415,1676104288,412563060,world,-0.4122249186038971,0.521883487701416,0.12515445053577423,0.004109721165150404,-0.004456060938537121,-0.04046555235981941,0.9991625547409058
1676104288.8714273,4416,1676104288,412635910,world,-0.4122335910797119,0.5218807458877563,0.12514464557170868,0.004255189560353756,-0.0044312975369393826,-0.0404382087290287,0.9991632103919983
1676104288.8714392,4417,1676104288,421914568,world,-0.41221436858177185,0.5218520760536194,0.1251603066921234,0.004031798802316189,-0.0044831871055066586,-0.040093034505844116,0.999177873134613
1676104288.8714852,4418,1676104288,422081804,world,-0.412240207195282,0.5218779444694519,0.12515102326869965,0.004104188643395901,-0.004311704076826572,-0.040419526398181915,0.9991651177406311
1676104288.8714974,4419,1676104288,431939575,world,-0.41223612427711487,0.5218778252601624,0.12514379620552063,0.0042132847011089325,-0.004375732038170099,-0.04052673280239105,0.9991600513458252
1676104288.871541,4420,1676104288,432090515,world,-0.4122161865234375,0.5218652486801147,0.12514857947826385,0.0040920632891356945,-0.0044319117441773415,-0.04020167514681816,0.9991734623908997
1676104288.8715882,4421,1676104288,482015595,world,-0.4122377038002014,0.5218899846076965,0.12514370679855347,0.0043084570206701756,-0.004385393112897873,-0.040583208203315735,0.9991573095321655
1676104288.8715978,4422,1676104288,482225200,world,-0.41222167015075684,0.521851658821106,0.12515701353549957,0.004086862783879042,-0.004441143944859505,-0.040201302617788315,0.9991734027862549
1676104288.8716311,4433,1676104288,483332816,world,-0.412240594625473,0.5218846201896667,0.12515011429786682,0.004342767409980297,-0.00431235833093524,-0.04050982743501663,0.9991604089736938
1676104288.8716526,4434,1676104288,491955716,world,-0.4122161269187927,0.5218458771705627,0.1251552402973175,0.004063381347805262,-0.004491015803068876,-0.04007778689265251,0.9991782903671265
1676104288.8717031,4435,1676104288,492032676,world,-0.4122355878353119,0.5218868255615234,0.12514552474021912,0.004227977246046066,-0.0044097076170146465,-0.04047666862607002,0.9991618394851685
1676104288.871739,4436,1676104288,502226494,world,-0.4122341275215149,0.521876335144043,0.12515118718147278,0.004116089548915625,-0.004467162769287825,-0.04033806920051575,0.9991676211357117
1676104288.8730166,4438,1676104288,502384230,world,-0.4122288227081299,0.5218753218650818,0.12514927983283997,0.004099640995264053,-0.0044708545319736,-0.040339138358831406,0.9991676807403564
1676104288.8730392,4439,1676104288,551939098,world,-0.4122292697429657,0.5218767523765564,0.12514828145503998,0.004182047210633755,-0.004435515031218529,-0.04036388918757439,0.9991664290428162
1676104288.8731256,4449,1676104288,552694021,world,-0.4122433066368103,0.521895706653595,0.12514543533325195,0.004386426415294409,-0.004388920497149229,-0.04059632867574692,0.9991563558578491
1676104288.873138,4450,1676104288,562313725,world,-0.4122356176376343,0.5218729376792908,0.12514479458332062,0.004191885702311993,-0.0044439625926315784,-0.040379878133535385,0.9991657733917236
1676104288.8731534,4452,1676104288,562457535,world,-0.4122388958930969,0.5218867063522339,0.12514567375183105,0.004280622582882643,-0.00436173053458333,-0.04051758721470833,0.9991602301597595
1676104288.87397,4453,1676104288,571909096,world,-0.41223520040512085,0.5218795537948608,0.12515011429786682,0.004188661463558674,-0.0044066947884857655,-0.04038986563682556,0.9991655349731445
1676104288.8740451,4454,1676104288,571984816,world,-0.4122365713119507,0.5218815207481384,0.12515802681446075,0.004213362000882626,-0.004445272032171488,-0.04036019369959831,0.9991664290428162
1676104288.8741374,4455,1676104288,581936937,world,-0.41224369406700134,0.5218818783760071,0.1251518577337265,0.004214745946228504,-0.00432377215474844,-0.04044921696186066,0.9991633296012878
1676104288.874149,4456,1676104288,582114376,world,-0.412214994430542,0.5218483209609985,0.1251622438430786,0.004021486733108759,-0.004433235619217157,-0.04012536257505417,0.9991768002510071
1676104288.8741574,4457,1676104288,591958722,world,-0.4122384786605835,0.5218857526779175,0.12514692544937134,0.004130898043513298,-0.004350661765784025,-0.04047134146094322,0.9991626739501953
1676104288.8756783,4458,1676104288,592135606,world,-0.41223669052124023,0.5218827724456787,0.1251487135887146,0.0041150860488414764,-0.004446161445230246,-0.040442947298288345,0.9991635084152222
1676104288.8762686,4459,1676104288,592211270,world,-0.41223689913749695,0.5218838453292847,0.1251499354839325,0.004122795071452856,-0.004433334339410067,-0.040436677634716034,0.999163806438446
1676104288.8763049,4460,1676104288,601942916,world,-0.4122387766838074,0.5218921899795532,0.1251504272222519,0.0040037366561591625,-0.004434846341609955,-0.04051894322037697,0.999160885810852
1676104288.8763146,4461,1676104288,602107726,world,-0.4122159779071808,0.5218467712402344,0.12516337633132935,0.004033329896628857,-0.004467824473977089,-0.04006153345108032,0.9991791248321533
1676104288.8770773,4462,1676104288,611947776,world,-0.41223594546318054,0.521885335445404,0.12514910101890564,0.0041207862086594105,-0.004367790184915066,-0.04053092747926712,0.9991602897644043
1676104288.8787718,4463,1676104288,612100641,world,-0.41224223375320435,0.5218876600265503,0.12514610588550568,0.004270418547093868,-0.00443103164434433,-0.04059944301843643,0.999156653881073
1676104288.8792522,4464,1676104288,612165954,world,-0.4122304916381836,0.5218733549118042,0.12514939904212952,0.004210515879094601,-0.004491428378969431,-0.04039086773991585,0.9991650581359863
1676104288.8792644,4465,1676104288,621942154,world,-0.41222596168518066,0.5218793153762817,0.1251528114080429,0.004189441446214914,-0.0044836606830358505,-0.04038447141647339,0.9991653561592102
1676104288.8794389,4466,1676104288,622128612,world,-0.41223084926605225,0.5218780636787415,0.12515395879745483,0.004221930634230375,-0.004447476472705603,-0.04036582261323929,0.9991661906242371
1676104288.8794928,4467,1676104288,631920274,world,-0.4122201204299927,0.5218530297279358,0.1251603662967682,0.0041537233628332615,-0.004362373612821102,-0.04015602916479111,0.9991753101348877
1676104288.8795018,4468,1676104288,632094250,world,-0.41224318742752075,0.5218877792358398,0.12514951825141907,0.004219656344503164,-0.0044306255877017975,-0.04054224491119385,0.9991591572761536
1676104288.8795314,4469,1676104288,632173267,world,-0.4122181236743927,0.5218441486358643,0.12516513466835022,0.004071065224707127,-0.004434668924659491,-0.040066737681627274,0.999178946018219
1676104288.8795478,4470,1676104288,645742320,world,-0.41222772002220154,0.5218732953071594,0.12515144050121307,0.004094657953828573,-0.004469381179660559,-0.040414296090602875,0.9991647005081177
1676104288.8795557,4472,1676104288,645903000,world,-0.41222721338272095,0.5218810439109802,0.1251581311225891,0.0041421945206820965,-0.004399569239467382,-0.040371257811784744,0.9991664886474609
1676104288.8795779,4473,1676104288,651925327,world,-0.4122299253940582,0.5218724012374878,0.12514977157115936,0.004082233179360628,-0.004494465887546539,-0.04029412567615509,0.9991694092750549
1676104288.8796089,4474,1676104288,662039498,world,-0.4122379720211029,0.5218831300735474,0.12515048682689667,0.004203143995255232,-0.004427691455930471,-0.040486838668584824,0.9991614818572998
1676104288.8796284,4475,1676104288,662287232,world,-0.41222795844078064,0.5218796133995056,0.12514743208885193,0.004142031539231539,-0.004421229474246502,-0.0404227077960968,0.9991642832756042
1676104288.8796391,4476,1676104288,662345490,world,-0.4122287929058075,0.5218767523765564,0.12515376508235931,0.004152331501245499,-0.004473778884857893,-0.0403602160513401,0.9991665482521057
1676104288.8796725,4477,1676104288,671940546,world,-0.41224029660224915,0.5218892693519592,0.12514851987361908,0.004244908224791288,-0.004407187458127737,-0.04051368683576584,0.9991602301597595
1676104288.8796875,4478,1676104288,672017248,world,-0.41223615407943726,0.5218874216079712,0.12514445185661316,0.004228796809911728,-0.004376408644020557,-0.04049375653266907,0.9991613030433655
1676104288.8797078,4479,1676104288,682027330,world,-0.4122099280357361,0.5218503475189209,0.12516269087791443,0.004142248537391424,-0.0044512213207781315,-0.040083304047584534,0.9991779327392578
1676104288.8797204,4480,1676104288,682201121,world,-0.4122411012649536,0.5218752026557922,0.1251499056816101,0.0043055107817053795,-0.004336251877248287,-0.04043510556221008,0.9991635084152222
1676104288.8797417,4481,1676104288,682278841,world,-0.41224655508995056,0.5218987464904785,0.125146746635437,0.0042489743791520596,-0.004505327437072992,-0.04064522311091423,0.9991544485092163
1676104288.8797598,4482,1676104288,691951784,world,-0.41224539279937744,0.5218917727470398,0.12515220046043396,0.004254993982613087,-0.004334599245339632,-0.0405450165271759,0.9991592764854431
1676104288.8797731,4483,1676104288,692028097,world,-0.4122403860092163,0.5218885540962219,0.1251457929611206,0.004136974923312664,-0.004430062137544155,-0.04050491750240326,0.9991609454154968
1676104288.879792,4484,1676104288,701917867,world,-0.4122326374053955,0.5218755602836609,0.1251443475484848,0.00419518630951643,-0.0044546122662723064,-0.0403900071978569,0.9991652369499207
1676104288.8798018,4485,1676104288,702095955,world,-0.41222235560417175,0.5218660235404968,0.12515445053577423,0.004092193674296141,-0.004425648134201765,-0.040220193564891815,0.9991726875305176
1676104288.8798254,4486,1676104288,711948245,world,-0.4122278094291687,0.5218773484230042,0.125152125954628,0.004157484043389559,-0.0043243118561804295,-0.040487680584192276,0.9991620182991028
1676104288.879837,4487,1676104288,712135702,world,-0.41224023699760437,0.5218793153762817,0.12515053153038025,0.004159525036811829,-0.004468378145247698,-0.04034637287259102,0.9991670846939087
1676104288.879861,4488,1676104288,712206163,world,-0.41222843527793884,0.521873950958252,0.12514421343803406,0.004148157313466072,-0.00447557820007205,-0.040371883660554886,0.9991661310195923
1676104288.8798711,4489,1676104288,721948012,world,-0.41223397850990295,0.5218790173530579,0.12514686584472656,0.004204875323921442,-0.004392354283481836,-0.040383659303188324,0.9991657137870789
1676104288.8798943,4490,1676104288,722138414,world,-0.4122392237186432,0.5218843221664429,0.12514622509479523,0.004172728396952152,-0.004376736003905535,-0.04047650843858719,0.9991622567176819
1676104288.8799105,4491,1676104288,731942002,world,-0.4122442305088043,0.5218842625617981,0.1251504272222519,0.004351131152361631,-0.004475843161344528,-0.04049702733755112,0.9991601705551147
1676104288.8800569,4493,1676104288,732158625,world,-0.4122214615345001,0.5218495726585388,0.12515531480312347,0.003998416475951672,-0.004309816751629114,-0.040146566927433014,0.999176561832428
1676104288.8801024,4494,1676104288,741950676,world,-0.4122268855571747,0.5218679308891296,0.12513621151447296,0.004163783043622971,-0.004506363533437252,-0.04038950055837631,0.9991652369499207
1676104288.8801117,4495,1676104288,742602250,world,-0.41221606731414795,0.5218405723571777,0.12515778839588165,0.004051562398672104,-0.004500747192651033,-0.040083806961774826,0.9991779923439026
1676104288.8801277,4496,1676104288,751908834,world,-0.4122432470321655,0.5218880772590637,0.1251451075077057,0.004304084926843643,-0.004351820331066847,-0.04060162976384163,0.999156653881073
1676104288.8801394,4498,1676104288,752041200,world,-0.4122254252433777,0.5218637585639954,0.12514598667621613,0.0042128004133701324,-0.004417287651449442,-0.04032701253890991,0.9991679191589355
1676104288.8801591,4499,1676104288,761935082,world,-0.4122110903263092,0.5218365788459778,0.12515439093112946,0.004110579378902912,-0.004413388669490814,-0.04006960242986679,0.9991787672042847
1676104288.880172,4500,1676104288,771963867,world,-0.41223570704460144,0.5218719244003296,0.1251462996006012,0.004120193421840668,-0.004449354484677315,-0.04034874215722084,0.9991673231124878
1676104288.880198,4501,1676104288,772612793,world,-0.4122450649738312,0.5218977332115173,0.12514959275722504,0.004325068090111017,-0.004380039870738983,-0.04062714800238609,0.9991554021835327
1676104288.880211,4502,1676104288,772703808,world,-0.41221120953559875,0.5218373537063599,0.12516191601753235,0.004012075252830982,-0.004473148845136166,-0.040043216198682785,0.9991799592971802
1676104288.8802264,4503,1676104288,781954171,world,-0.41222599148750305,0.5218836069107056,0.12514546513557434,0.0042770542204380035,-0.0044041783548891544,-0.04046546667814255,0.9991620779037476
1676104288.8802497,4505,1676104288,782086538,world,-0.412232905626297,0.5218717455863953,0.1251530945301056,0.004129740409553051,-0.00440511479973793,-0.040254395455121994,0.9991711974143982
1676104288.880348,4506,1676104288,791925403,world,-0.41220802068710327,0.5218431353569031,0.12515230476856232,0.004101176746189594,-0.0044820429757237434,-0.04008764028549194,0.9991777539253235
1676104288.8803573,4507,1676104288,791996178,world,-0.4122234284877777,0.5218700170516968,0.12514430284500122,0.004132413771003485,-0.004491394851356745,-0.040357667952775955,0.99916672706604
1676104288.8803666,4508,1676104288,801930262,world,-0.4122300148010254,0.521876335144043,0.12514424324035645,0.004247491713613272,-0.004412660375237465,-0.04046499729156494,0.9991622567176819
1676104288.880386,4509,1676104288,811915067,world,-0.4122300148010254,0.5218741297721863,0.12514719367027283,0.004128437023609877,-0.004410378634929657,-0.0403696671128273,0.9991666078567505
1676104288.8804133,4510,1676104288,812096599,world,-0.4122399091720581,0.5218982696533203,0.12515076994895935,0.004242938943207264,-0.004331533797085285,-0.04060349985957146,0.9991569519042969
1676104288.8804367,4512,1676104288,812238780,world,-0.4122278392314911,0.5218726992607117,0.12514498829841614,0.0041777896694839,-0.004467971157282591,-0.04036276787519455,0.9991663694381714
1676104288.8805263,4513,1676104288,821932464,world,-0.4122329354286194,0.5218873620033264,0.12514707446098328,0.004171682056039572,-0.004413201007992029,-0.04047803208231926,0.9991620182991028
1676104288.8805406,4514,1676104288,822100329,world,-0.41223955154418945,0.5218788385391235,0.12515145540237427,0.004228576086461544,-0.004339008126407862,-0.04051429033279419,0.999160647392273
1676104288.8805676,4515,1676104288,831950675,world,-0.4122345447540283,0.5218758583068848,0.12513858079910278,0.0041160439141094685,-0.004390234127640724,-0.04042418301105499,0.9991645812988281
1676104288.8805907,4516,1676104288,832158373,world,-0.4122396409511566,0.5218914747238159,0.12514375150203705,0.004183099139481783,-0.004389825277030468,-0.04052850604057312,0.9991599917411804
1676104288.8806598,4517,1676104288,841946535,world,-0.4122367799282074,0.5218815207481384,0.12514838576316833,0.004189563449472189,-0.004467717371881008,-0.04042673856019974,0.999163806438446
1676104288.880669,4518,1676104288,842253100,world,-0.412229984998703,0.5218784809112549,0.1251511126756668,0.004260444547981024,-0.00444405060261488,-0.040488727390766144,0.9991610646247864
1676104288.8806963,4519,1676104288,842332005,world,-0.4122391641139984,0.5218750238418579,0.12514792382717133,0.004110561218112707,-0.004435022361576557,-0.040475450456142426,0.9991623163223267
1676104288.880758,4520,1676104288,852156111,world,-0.41223815083503723,0.5218856930732727,0.1251390427350998,0.004230054561048746,-0.0044294619001448154,-0.040516823530197144,0.9991601705551147
1676104288.8808074,4521,1676104288,852350790,world,-0.41223523020744324,0.5218823552131653,0.12514489889144897,0.004286317620426416,-0.004372813273221254,-0.04052247107028961,0.9991599321365356
1676104288.8808339,4522,1676104288,852427770,world,-0.41223061084747314,0.5218726396560669,0.12514856457710266,0.004185591824352741,-0.004496387206017971,-0.040351152420043945,0.99916672706604
1676104288.8808477,4523,1676104288,861962143,world,-0.4122418463230133,0.5218780636787415,0.12514902651309967,0.004173228517174721,-0.004387478344142437,-0.040470920503139496,0.9991624355316162
1676104288.8809245,4524,1676104288,862145453,world,-0.41221949458122253,0.5218544006347656,0.12514789402484894,0.00405466090887785,-0.004383980296552181,-0.040210310369729996,0.9991734027862549
1676104288.8809762,4525,1676104288,872015742,world,-0.41223156452178955,0.5218828320503235,0.1251397430896759,0.0042135766707360744,-0.004423732403665781,-0.04044244438409805,0.9991632699966431
1676104288.8810163,4526,1676104288,872721148,world,-0.4122415781021118,0.5218878984451294,0.12515175342559814,0.004149979446083307,-0.0044452110305428505,-0.040565524250268936,0.9991583824157715
1676104288.8810248,4527,1676104288,872807571,world,-0.41222867369651794,0.5218612551689148,0.1251460313796997,0.004048722796142101,-0.0043886760249733925,-0.040221113711595535,0.9991729855537415
1676104288.883692,4528,1676104288,882792672,world,-0.41223230957984924,0.5218717455863953,0.12514594197273254,0.004196487367153168,-0.004352184943854809,-0.04030647873878479,0.9991690516471863
1676104288.8941734,4529,1676104288,892175976,world,-0.41224172711372375,0.521877110004425,0.12514925003051758,0.004150795750319958,-0.00440977793186903,-0.04041416943073273,0.9991646409034729
1676104288.8941913,4531,1676104288,892327990,world,-0.4122239351272583,0.5218641757965088,0.12514923512935638,0.004188383463770151,-0.004464198835194111,-0.04035021737217903,0.9991669058799744
1676104288.9057071,4532,1676104288,901914158,world,-0.41223299503326416,0.5218802094459534,0.12515565752983093,0.004134803544729948,-0.0043862806633114815,-0.040414486080408096,0.999164879322052
1676104288.9057302,4533,1676104288,901987767,world,-0.4122326672077179,0.5218764543533325,0.12515535950660706,0.004165745805948973,-0.004543991293758154,-0.04034620150923729,0.99916672706604
1676104288.914309,4534,1676104288,912121031,world,-0.4122484028339386,0.5218890309333801,0.12514503300189972,0.004267187789082527,-0.004458269570022821,-0.04056290537118912,0.9991580247879028
1676104288.9143295,4535,1676104288,912194954,world,-0.41224342584609985,0.5218976140022278,0.12514770030975342,0.004296192433685064,-0.004436314571648836,-0.040605682879686356,0.9991562366485596
1676104288.9242013,4536,1676104288,921921711,world,-0.4122302830219269,0.5218765139579773,0.1251443326473236,0.004192756488919258,-0.004382457584142685,-0.04039742052555084,0.9991652965545654
1676104288.9242105,4537,1676104288,922108335,world,-0.4122314155101776,0.5218650698661804,0.1251455843448639,0.004111407790333033,-0.0043410505168139935,-0.04035309702157974,0.9991676807403564
1676104288.9242191,4538,1676104288,922177889,world,-0.4122052490711212,0.521830677986145,0.12514722347259521,0.00412213196977973,-0.004541198723018169,-0.04004574939608574,0.9991790652275085
1676104288.9325366,4539,1676104288,931913090,world,-0.41223570704460144,0.5218750834465027,0.12514835596084595,0.004140336997807026,-0.004365439061075449,-0.04039422422647476,0.9991657733917236
1676104288.9329572,4540,1676104288,932096436,world,-0.41224953532218933,0.5219046473503113,0.12515492737293243,0.004178253933787346,-0.00435545202344656,-0.04067176952958107,0.9991543889045715
1676104288.9330025,4541,1676104288,932163212,world,-0.4122343957424164,0.521872878074646,0.12514197826385498,0.004274360369890928,-0.004341632127761841,-0.0403960756957531,0.9991651773452759
1676104288.943147,4542,1676104288,941951337,world,-0.41222500801086426,0.521875262260437,0.12514396011829376,0.004146052524447441,-0.004320541396737099,-0.0403539314866066,0.9991675615310669
1676104288.9431658,4543,1676104288,942116573,world,-0.4122370183467865,0.5218871235847473,0.12515194714069366,0.004301631823182106,-0.004488895647227764,-0.04051562398672104,0.999159574508667
1676104288.9528303,4544,1676104288,952076212,world,-0.41224387288093567,0.5218871235847473,0.12514710426330566,0.004231113474816084,-0.004320058971643448,-0.040573567152023315,0.9991583228111267
1676104288.95341,4545,1676104288,952343464,world,-0.41222357749938965,0.5218731164932251,0.1251598596572876,0.004140761680901051,-0.004442321602255106,-0.04036318138241768,0.9991666674613953
1676104288.9535656,4546,1676104288,952414962,world,-0.4122309982776642,0.521876335144043,0.12515473365783691,0.004279944580048323,-0.004361891187727451,-0.04039279371500015,0.9991651773452759
1676104288.9624867,4547,1676104288,961887781,world,-0.4122309982776642,0.5218793749809265,0.12514455616474152,0.004207716789096594,-0.004416377283632755,-0.040473949164152145,0.999161958694458
1676104288.9631736,4548,1676104288,962036481,world,-0.41224175691604614,0.5218815207481384,0.12514901161193848,0.004217124078422785,-0.004386710934340954,-0.04042990505695343,0.9991639256477356
1676104288.972781,4549,1676104288,971932510,world,-0.41223636269569397,0.5218932628631592,0.12514464557170868,0.00429929094389081,-0.004399217199534178,-0.04061208665370941,0.99915611743927
1676104288.9735227,4550,1676104288,972126505,world,-0.41223227977752686,0.5218632817268372,0.12514826655387878,0.004134761169552803,-0.004434523638337851,-0.040336478501558304,0.9991677403450012
1676104288.9860218,4551,1676104288,982010905,world,-0.41223692893981934,0.5218865871429443,0.1251438409090042,0.004214110318571329,-0.004449492786079645,-0.04050733149051666,0.9991604685783386
1676104288.9860427,4552,1676104288,982239065,world,-0.4122353196144104,0.5218702554702759,0.12514211237430573,0.00418826611712575,-0.004388127475976944,-0.040412649512290955,0.9991647005081177
1676104288.986053,4553,1676104288,982344895,world,-0.41223856806755066,0.5218778252601624,0.12514884769916534,0.004230571910738945,-0.004407201427966356,-0.04040299355983734,0.9991647601127625
1676104288.9929097,4554,1676104288,991951526,world,-0.41223499178886414,0.5218903422355652,0.12515142560005188,0.004307948052883148,-0.004453740548342466,-0.04052234813570976,0.9991593956947327
1676104288.9931982,4555,1676104288,992147835,world,-0.41221970319747925,0.521868884563446,0.12514831125736237,0.004075393080711365,-0.004483013413846493,-0.04028194397687912,0.9991700649261475
1676104289.0034988,4556,1676104289,1922368,world,-0.41223248839378357,0.5218761563301086,0.1251428723335266,0.004249695688486099,-0.004314715042710304,-0.04039366543292999,0.9991654753684998
1676104289.0035222,4557,1676104289,2132529,world,-0.41220778226852417,0.5218342542648315,0.1251620203256607,0.00395698519423604,-0.004420296289026737,-0.040078628808259964,0.9991790056228638
1676104289.0127585,4558,1676104289,11974264,world,-0.41224467754364014,0.5218855738639832,0.1251441389322281,0.00429964903742075,-0.004403832368552685,-0.04057411849498749,0.9991576075553894
1676104289.0139215,4559,1676104289,12184073,world,-0.41222837567329407,0.5218639969825745,0.12514786422252655,0.004152268636971712,-0.0044426387175917625,-0.040280312299728394,0.9991700053215027
1676104289.0140753,4560,1676104289,12279478,world,-0.41223517060279846,0.5218861699104309,0.1251523792743683,0.004200581461191177,-0.004313354380428791,-0.040444400161504745,0.9991637468338013
1676104289.0230205,4561,1676104289,21927627,world,-0.4122397303581238,0.5218923091888428,0.12515470385551453,0.004251533187925816,-0.0043169669806957245,-0.04056429862976074,0.9991586208343506
1676104289.0230544,4562,1676104289,22111751,world,-0.4122350513935089,0.5218747854232788,0.12514296174049377,0.004284137859940529,-0.00445923488587141,-0.04037023335695267,0.9991656541824341
1676104289.0418396,4563,1676104289,31954339,world,-0.4122442305088043,0.5218881368637085,0.1251431703567505,0.004230844788253307,-0.004445497877895832,-0.04053522273898125,0.9991592764854431
1676104289.0418923,4564,1676104289,32161592,world,-0.4122263193130493,0.5218755602836609,0.12514303624629974,0.004124462138861418,-0.004512890707701445,-0.04040639102458954,0.9991646409034729
1676104289.0427938,4565,1676104289,32247701,world,-0.412236750125885,0.5218827128410339,0.1251496970653534,0.004144597332924604,-0.0044087632559239864,-0.040515799075365067,0.999160647392273
1676104289.04283,4566,1676104289,41975737,world,-0.4122335612773895,0.5218759775161743,0.12515507638454437,0.004269284661859274,-0.00441568112000823,-0.04046344757080078,0.9991621971130371
1676104289.0530312,4567,1676104289,51918322,world,-0.4122205972671509,0.5218669176101685,0.12514759600162506,0.0041481987573206425,-0.004357506986707449,-0.04034100100398064,0.9991679191589355
1676104289.0530484,4568,1676104289,52082651,world,-0.41223424673080444,0.5218820571899414,0.12514616549015045,0.004158062394708395,-0.00440255319699645,-0.040502842515707016,0.9991611242294312
1676104289.053058,4570,1676104289,52216258,world,-0.41221654415130615,0.5218446850776672,0.12515419721603394,0.004065617453306913,-0.004386927001178265,-0.04006731137633324,0.9991790652275085
1676104289.0632832,4571,1676104289,61934423,world,-0.41221970319747925,0.5218765139579773,0.12515005469322205,0.004121535923331976,-0.004490363877266645,-0.040369801223278046,0.9991663098335266
1676104289.0633082,4572,1676104289,62121363,world,-0.4122391641139984,0.521889865398407,0.12514454126358032,0.004190034698694944,-0.004396097268909216,-0.04055248945951462,0.999159038066864
1676104289.073633,4573,1676104289,71942896,world,-0.4122259020805359,0.5218565464019775,0.1251513808965683,0.00402627419680357,-0.0044997441582381725,-0.04020976275205612,0.9991730451583862
1676104289.073651,4574,1676104289,72452103,world,-0.41223859786987305,0.5218820571899414,0.12514826655387878,0.004278741776943207,-0.004333288408815861,-0.04055269435048103,0.9991589188575745
1676104289.0835338,4575,1676104289,81950034,world,-0.41221219301223755,0.5218357443809509,0.1251559555530548,0.003969638142734766,-0.004498422611504793,-0.04006820544600487,0.999178946018219
1676104289.0835495,4576,1676104289,82033810,world,-0.41223353147506714,0.5218765735626221,0.12514294683933258,0.004078149329870939,-0.004368428140878677,-0.040459804236888885,0.9991633296012878
1676104289.0931406,4577,1676104289,91946877,world,-0.41223645210266113,0.5218770503997803,0.12514810264110565,0.00416279723867774,-0.004380174446851015,-0.040418241173028946,0.9991646409034729
1676104289.0936494,4578,1676104289,92605432,world,-0.412243127822876,0.5218901038169861,0.12514370679855347,0.0042471433989703655,-0.004453650210052729,-0.040565140545368195,0.9991579651832581
1676104289.094953,4579,1676104289,92690356,world,-0.4122193455696106,0.5218397378921509,0.12516261637210846,0.004039537161588669,-0.004544170573353767,-0.04011840000748634,0.9991764426231384
1676104289.1028266,4580,1676104289,102184139,world,-0.4122356176376343,0.521879255771637,0.12514691054821014,0.004154037218540907,-0.004322516266256571,-0.04041294381022453,0.9991651177406311
1676104289.1033318,4581,1676104289,102360523,world,-0.41222885251045227,0.521876335144043,0.12514591217041016,0.004229692276567221,-0.004456234164535999,-0.04039745777845383,0.999164879322052
1676104289.1131148,4582,1676104289,111989284,world,-0.41223686933517456,0.5218758583068848,0.12515033781528473,0.00414028437808156,-0.0044368417002260685,-0.0403866320848465,0.9991657137870789
1676104289.1131306,4584,1676104289,112122280,world,-0.4122365415096283,0.5218827724456787,0.12515470385551453,0.004189471714198589,-0.004401141311973333,-0.040464531630277634,0.999162495136261
1676104289.1228898,4585,1676104289,121923313,world,-0.4122363030910492,0.5218849778175354,0.12514495849609375,0.004214124754071236,-0.0043958635069429874,-0.040560271590948105,0.9991585612297058
1676104289.1231651,4586,1676104289,122138955,world,-0.41223546862602234,0.5218791961669922,0.12514114379882812,0.004136773757636547,-0.004468098748475313,-0.04045733064413071,0.9991627931594849
1676104289.133437,4587,1676104289,132352218,world,-0.41224080324172974,0.5218782424926758,0.12515391409397125,0.004191432613879442,-0.004377007018774748,-0.04044405370950699,0.9991635084152222
1676104289.1336484,4588,1676104289,132530305,world,-0.4122332036495209,0.5218791365623474,0.12515051662921906,0.004180909600108862,-0.004407327622175217,-0.040364377200603485,0.9991666078567505
1676104289.1426728,4589,1676104289,141955461,world,-0.4122333526611328,0.521881103515625,0.12514948844909668,0.004309524316340685,-0.004282989539206028,-0.040428828448057175,0.9991639852523804
1676104289.1441283,4590,1676104289,142144178,world,-0.4122450649738312,0.5218848586082458,0.12514252960681915,0.004193747416138649,-0.0043503036722540855,-0.04051002860069275,0.9991609454154968
1676104289.144401,4591,1676104289,142226342,world,-0.4122302234172821,0.5218730568885803,0.12514811754226685,0.004024059511721134,-0.004469160456210375,-0.04042186588048935,0.9991646409034729
1676104289.152583,4592,1676104289,151925175,world,-0.41222822666168213,0.5218722224235535,0.12514625489711761,0.004194210283458233,-0.0044091749005019665,-0.040347252041101456,0.999167263507843
1676104289.153581,4593,1676104289,152102577,world,-0.41223371028900146,0.5218833088874817,0.12515035271644592,0.004108926746994257,-0.004450575914233923,-0.04044583439826965,0.9991634488105774
1676104289.1537323,4594,1676104289,152184427,world,-0.41224080324172974,0.5218848586082458,0.12513400614261627,0.004262029193341732,-0.0043817744590342045,-0.04045001044869423,0.9991629123687744
1676104289.1627078,4595,1676104289,161903425,world,-0.4122404456138611,0.521880567073822,0.12514770030975342,0.004133737646043301,-0.004450034350156784,-0.04047646373510361,0.9991620779037476
1676104289.1630845,4596,1676104289,162126660,world,-0.4122364819049835,0.5218775868415833,0.1251489520072937,0.004084160551428795,-0.004410048946738243,-0.04039229452610016,0.9991658329963684
1676104289.1730218,4597,1676104289,171916231,world,-0.41223254799842834,0.521879255771637,0.12514561414718628,0.004219213500618935,-0.0045208679512143135,-0.04042380303144455,0.9991635680198669
1676104289.173052,4598,1676104289,172117706,world,-0.41224032640457153,0.5218759179115295,0.125146746635437,0.0042504514567554,-0.004380427300930023,-0.04042501002550125,0.9991639852523804
1676104289.182842,4599,1676104289,181907722,world,-0.4122310280799866,0.5218852758407593,0.1251508891582489,0.0041434005834162235,-0.004482682794332504,-0.04048816114664078,0.999161422252655
1676104289.1829824,4600,1676104289,182074661,world,-0.4122411012649536,0.5218767523765564,0.12514522671699524,0.004219281952828169,-0.004355421289801598,-0.04043231159448624,0.9991639256477356
1676104289.182998,4601,1676104289,182149085,world,-0.4122323989868164,0.5218698382377625,0.12515215575695038,0.0042328559793531895,-0.004482520278543234,-0.04032087326049805,0.9991677403450012
1676104289.192545,4602,1676104289,191929231,world,-0.4122311770915985,0.5218666195869446,0.1251431256532669,0.004155259113758802,-0.0044751474633812904,-0.04032283276319504,0.9991680979728699
1676104289.202762,4603,1676104289,201973646,world,-0.4122413098812103,0.5218955278396606,0.1251433789730072,0.004258876200765371,-0.004554462619125843,-0.04056409001350403,0.9991575479507446
1676104289.2037554,4604,1676104289,202153030,world,-0.41223904490470886,0.5218857526779175,0.1251542717218399,0.004184587858617306,-0.0043796063400805,-0.040498036891222,0.9991613030433655
1676104289.2037706,4606,1676104289,202313062,world,-0.4122352600097656,0.521869421005249,0.12514559924602509,0.0040977708995342255,-0.004430430009961128,-0.04037563130259514,0.9991663098335266
1676104289.2239606,4607,1676104289,221949388,world,-0.41223081946372986,0.521874189376831,0.12514075636863708,0.004218676593154669,-0.004362503066658974,-0.04037649929523468,0.9991660714149475
1676104289.2239769,4608,1676104289,222304063,world,-0.41223764419555664,0.5218807458877563,0.12515059113502502,0.004194849636405706,-0.004310236312448978,-0.04046468436717987,0.9991629123687744
1676104289.224605,4610,1676104289,222501687,world,-0.41222575306892395,0.521871030330658,0.12515099346637726,0.0041761016473174095,-0.004389850422739983,-0.040340665727853775,0.9991676211357117
1676104289.2337596,4611,1676104289,231964934,world,-0.4122292995452881,0.5218762755393982,0.1251506358385086,0.004189278464764357,-0.0044447253458201885,-0.040351029485464096,0.9991669058799744
1676104289.2340627,4613,1676104289,232134707,world,-0.4122318923473358,0.5218760371208191,0.1251414567232132,0.00425164308398962,-0.004460273776203394,-0.040449608117341995,0.9991625547409058
1676104289.2427192,4614,1676104289,241936259,world,-0.4122398793697357,0.5218867659568787,0.12515343725681305,0.004192913416773081,-0.0043520196340978146,-0.040448956191539764,0.9991633892059326
1676104289.242849,4615,1676104289,242107569,world,-0.41223108768463135,0.5218772292137146,0.12514619529247284,0.004200751893222332,-0.00440096715465188,-0.040429335087537766,0.9991639256477356
1676104289.253437,4616,1676104289,251871196,world,-0.41223427653312683,0.5218832492828369,0.12514728307724,0.004071189556270838,-0.0043949829414486885,-0.04046475142240524,0.9991630911827087
1676104289.2538595,4617,1676104289,252060153,world,-0.4122388958930969,0.5218858122825623,0.12514661252498627,0.004093854688107967,-0.004510970786213875,-0.0404500812292099,0.9991629719734192
1676104289.2539108,4618,1676104289,252138114,world,-0.41222840547561646,0.5218693614006042,0.12514731287956238,0.0041547478176653385,-0.00444719847291708,-0.04030517861247063,0.9991689324378967
1676104289.2625375,4619,1676104289,261943703,world,-0.41222885251045227,0.5218716859817505,0.12515714764595032,0.004078984726220369,-0.004444146528840065,-0.04029805213212967,0.9991694688796997
1676104289.2630143,4620,1676104289,262134568,world,-0.41224405169487,0.521884024143219,0.12515036761760712,0.004194002132862806,-0.004367094021290541,-0.040512409061193466,0.9991607069969177
1676104289.2729309,4621,1676104289,271922213,world,-0.4122362732887268,0.5218821167945862,0.12514683604240417,0.004104703664779663,-0.0043913028202950954,-0.04045802727341652,0.9991632103919983
1676104289.272943,4622,1676104289,272111430,world,-0.41223105788230896,0.5218781232833862,0.12514843046665192,0.004206817131489515,-0.004434413276612759,-0.04035336896777153,0.9991667866706848
1676104289.2838657,4623,1676104289,281909704,world,-0.41223567724227905,0.521866500377655,0.12515275180339813,0.0041150557808578014,-0.004424382001161575,-0.04032961279153824,0.9991681575775146
1676104289.2838776,4624,1676104289,282095143,world,-0.4122198820114136,0.5218479037284851,0.12515737116336823,0.004117129370570183,-0.004415275529026985,-0.040134891867637634,0.9991760849952698
1676104289.2839959,4625,1676104289,282176123,world,-0.4122321307659149,0.52186518907547,0.12514656782150269,0.004185976926237345,-0.0045160227455198765,-0.04037689045071602,0.9991655349731445
1676104289.2927864,4626,1676104289,291941046,world,-0.4122287333011627,0.5218703746795654,0.1251392662525177,0.004159444477409124,-0.004482685588300228,-0.04037223383784294,0.9991660714149475
1676104289.2930043,4627,1676104289,292123245,world,-0.41223838925361633,0.5218852162361145,0.12514401972293854,0.0041471244767308235,-0.004345509223639965,-0.04044907167553902,0.9991635084152222
1676104289.3026824,4628,1676104289,301924593,world,-0.4122166633605957,0.521857500076294,0.12515348196029663,0.004157872870564461,-0.004428299609571695,-0.040237654000520706,0.9991716742515564
1676104289.303202,4629,1676104289,302125032,world,-0.41222894191741943,0.5218730568885803,0.12514318525791168,0.004214932210743427,-0.004399327095597982,-0.040303174406290054,0.9991689920425415
1676104289.3125625,4630,1676104289,311933565,world,-0.4122377038002014,0.5218891501426697,0.12514187395572662,0.0042471447959542274,-0.004418686497956514,-0.04059716686606407,0.9991568326950073
1676104289.3353941,4631,1676104289,332032562,world,-0.4122433364391327,0.521885871887207,0.12515193223953247,0.004259346518665552,-0.004488648381084204,-0.0405149981379509,0.9991598129272461
1676104289.3354635,4637,1676104289,332735116,world,-0.41223475337028503,0.5218782424926758,0.12515100836753845,0.0042078131809830666,-0.004448988474905491,-0.04036013036966324,0.9991664290428162
1676104289.3435102,4638,1676104289,341916038,world,-0.41223466396331787,0.5218713283538818,0.1251516342163086,0.004199511371552944,-0.0043451497331261635,-0.040330931544303894,0.9991680979728699
1676104289.3437088,4639,1676104289,342217215,world,-0.4122403860092163,0.5218838453292847,0.12513937056064606,0.004217672161757946,-0.004400983452796936,-0.040521904826164246,0.9991600513458252
1676104289.3526113,4640,1676104289,351940713,world,-0.4122297465801239,0.5218701362609863,0.1251392960548401,0.004128273576498032,-0.0044213226065039635,-0.04040483385324478,0.9991650581359863
1676104289.3529005,4641,1676104289,352117264,world,-0.4122316539287567,0.5218774080276489,0.12515005469322205,0.004104784689843655,-0.004467676393687725,-0.040332160890102386,0.9991679787635803
1676104289.3835924,4642,1676104289,382601019,world,-0.4122297167778015,0.5218795537948608,0.1251489371061325,0.004082008730620146,-0.004454442765563726,-0.040408458560705185,0.9991650581359863
1676104289.3864415,4643,1676104289,382810531,world,-0.41222742199897766,0.5218662023544312,0.1251547485589981,0.004148577805608511,-0.004492498934268951,-0.040300402790308,0.999168872833252
1676104289.3870852,4646,1676104289,383094820,world,-0.4122355282306671,0.5218828916549683,0.12514854967594147,0.004291549790650606,-0.004392123781144619,-0.04039866849780083,0.9991648197174072
1676104289.3909492,4647,1676104289,386658791,world,-0.41223272681236267,0.5218824148178101,0.12514883279800415,0.004084629938006401,-0.004452941007912159,-0.04043079912662506,0.9991641044616699
1676104289.391,4648,1676104289,386929154,world,-0.4122132658958435,0.5218502879142761,0.12515901029109955,0.00397349102422595,-0.004382704384624958,-0.0401310920715332,0.9991769790649414
1676104289.3911703,4649,1676104289,387034003,world,-0.4122329354286194,0.521881103515625,0.1251470148563385,0.004212260711938143,-0.004437299910932779,-0.04046662524342537,0.9991621971130371
1676104289.3934064,4650,1676104289,391976435,world,-0.4122297465801239,0.5218768119812012,0.12514080107212067,0.004093721974641085,-0.004486416932195425,-0.0404563806951046,0.9991629123687744
1676104289.3934195,4651,1676104289,392153634,world,-0.4122394323348999,0.5218831300735474,0.12514673173427582,0.004283104091882706,-0.00438314164057374,-0.04052472114562988,0.9991598129272461
1676104289.4026928,4652,1676104289,401933983,world,-0.41223016381263733,0.5218777656555176,0.12514609098434448,0.004196567926555872,-0.0043951948173344135,-0.04040182754397392,0.9991649985313416
1676104289.4040904,4653,1676104289,402583223,world,-0.4122239649295807,0.5218673944473267,0.12515346705913544,0.004161733202636242,-0.004490121733397245,-0.04026517644524574,0.9991703629493713
1676104289.4146755,4654,1676104289,411939233,world,-0.4122363030910492,0.5218819379806519,0.1251431703567505,0.004187062848359346,-0.0044726175256073475,-0.04043041542172432,0.9991636276245117
1676104289.4147115,4655,1676104289,412595103,world,-0.4122045636177063,0.5218303203582764,0.12515795230865479,0.003979974426329136,-0.004445611033588648,-0.040024399757385254,0.9991809725761414
1676104289.4147263,4656,1676104289,412693248,world,-0.41223618388175964,0.5218732357025146,0.1251407414674759,0.004116637632250786,-0.00450868671759963,-0.04039769992232323,0.9991651177406311
1676104289.4227123,4657,1676104289,421913669,world,-0.41223835945129395,0.5218825340270996,0.1251472383737564,0.004217993002384901,-0.0044616409577429295,-0.04044391214847565,0.9991629123687744
1676104289.422911,4658,1676104289,422086386,world,-0.41223570704460144,0.5218798518180847,0.12514568865299225,0.004286113195121288,-0.00444007059559226,-0.04047909006476402,0.999161422252655
1676104289.4325895,4659,1676104289,431908493,world,-0.4122372269630432,0.5218853950500488,0.12515397369861603,0.0042268973775208,-0.004345155321061611,-0.04051326960325241,0.999160647392273
1676104289.4329398,4660,1676104289,432074914,world,-0.4122351109981537,0.5218749642372131,0.12514431774616241,0.004143110476434231,-0.004397507291287184,-0.040429312735795975,0.9991641640663147
1676104289.443814,4661,1676104289,441931668,world,-0.41223642230033875,0.5218795537948608,0.12514247000217438,0.004213110078126192,-0.004427703097462654,-0.040507569909095764,0.9991605281829834
1676104289.4438255,4663,1676104289,442247326,world,-0.41222143173217773,0.5218433737754822,0.12515738606452942,0.00402163527905941,-0.004330782685428858,-0.040088821202516556,0.9991786479949951
1676104289.456134,4664,1676104289,451976825,world,-0.41223594546318054,0.5218910574913025,0.1251390278339386,0.004307014402002096,-0.004399457015097141,-0.04049985483288765,0.999160647392273
1676104289.456153,4665,1676104289,452074655,world,-0.4122198224067688,0.5218616724014282,0.12514981627464294,0.00415137829259038,-0.004551571328192949,-0.04024943336844444,0.99917072057724
1676104289.4626777,4666,1676104289,461930298,world,-0.41223564743995667,0.5218861103057861,0.12514476478099823,0.004214492626488209,-0.004431655164808035,-0.04056490957736969,0.9991582036018372
1676104289.4638956,4667,1676104289,462122811,world,-0.4122256934642792,0.5218749642372131,0.12515084445476532,0.004121632780879736,-0.004341470077633858,-0.04033869504928589,0.9991681575775146
1676104289.4644096,4668,1676104289,462209050,world,-0.41221362352371216,0.5218603014945984,0.12516489624977112,0.004056958481669426,-0.004382600542157888,-0.04012588784098625,0.9991768002510071
1676104289.4731405,4669,1676104289,471962881,world,-0.41223305463790894,0.5218786597251892,0.12514819204807281,0.004123244900256395,-0.0044492860324680805,-0.040374044328927994,0.9991662502288818
1676104289.473153,4670,1676104289,472053230,world,-0.4122312664985657,0.5218608379364014,0.12515218555927277,0.004172116983681917,-0.004466934595257044,-0.04019945114850998,0.9991730451583862
1676104289.4840105,4671,1676104289,482513023,world,-0.4122347831726074,0.521877110004425,0.12515239417552948,0.004142572171986103,-0.004397840704768896,-0.04033795744180679,0.9991678595542908
1676104289.4840257,4672,1676104289,482682555,world,-0.4122268855571747,0.5218685269355774,0.12514352798461914,0.004136810079216957,-0.004453600384294987,-0.04031902924180031,0.9991683959960938
1676104289.484164,4673,1676104289,482758682,world,-0.41222071647644043,0.5218549370765686,0.125160813331604,0.004079926293343306,-0.004498171154409647,-0.04018095135688782,0.9991739988327026
1676104289.5029407,4674,1676104289,501973779,world,-0.41222795844078064,0.5218828320503235,0.12514369189739227,0.0041322060860693455,-0.004423022270202637,-0.040482986718416214,0.999161958694458
1676104289.5092313,4675,1676104289,502188865,world,-0.4122273325920105,0.5218713283538818,0.12514548003673553,0.004224691074341536,-0.004470023326575756,-0.040326014161109924,0.9991676807403564
1676104289.5092444,4678,1676104289,502475542,world,-0.4122326374053955,0.5218695998191833,0.1251457929611206,0.004120254423469305,-0.00441588182002306,-0.04029708355665207,0.9991694688796997
1676104289.5127182,4679,1676104289,511966715,world,-0.41222673654556274,0.5218733549118042,0.12515126168727875,0.0041686659678816795,-0.004447638988494873,-0.04031934589147568,0.9991682767868042
1676104289.5234888,4680,1676104289,521924577,world,-0.4122307300567627,0.521876335144043,0.12514923512935638,0.004270119126886129,-0.004433284979313612,-0.04037593677639961,0.9991655945777893
1676104289.523504,4681,1676104289,522112479,world,-0.41221266984939575,0.5218397378921509,0.12515513598918915,0.003994041588157415,-0.004428718704730272,-0.040053840726614,0.9991797804832458
1676104289.5235705,4682,1676104289,522197421,world,-0.41222208738327026,0.5218740701675415,0.12514233589172363,0.00428346823900938,-0.004421694669872522,-0.04032016545534134,0.9991679191589355
1676104289.5325813,4683,1676104289,531926568,world,-0.41223880648612976,0.5218872427940369,0.12514206767082214,0.004280334338545799,-0.004453613422811031,-0.04060516133904457,0.9991562366485596
1676104289.5330594,4684,1676104289,532114322,world,-0.41224080324172974,0.521885097026825,0.12515194714069366,0.0042394185438752174,-0.004428948741406202,-0.04048354923725128,0.999161422252655
1676104289.5331159,4685,1676104289,532186745,world,-0.41223934292793274,0.5218866467475891,0.12515220046043396,0.004206359852105379,-0.0043424624018371105,-0.04056920111179352,0.999158501625061
1676104289.5434105,4686,1676104289,541953428,world,-0.4122374653816223,0.5218786001205444,0.1251526176929474,0.004197828005999327,-0.004367228131741285,-0.040471289306879044,0.9991624355316162
1676104289.5440297,4687,1676104289,542147997,world,-0.412240207195282,0.5218794345855713,0.12514713406562805,0.004156466107815504,-0.004424986895173788,-0.04048541933298111,0.9991617798805237
1676104289.5529115,4688,1676104289,551934197,world,-0.4122365713119507,0.5218802690505981,0.12514623999595642,0.004172731190919876,-0.004398665390908718,-0.04044301435351372,0.9991634488105774
1676104289.5539124,4689,1676104289,552548291,world,-0.41223493218421936,0.5218788385391235,0.12515424191951752,0.004147473722696304,-0.004404536448419094,-0.04043986648321152,0.9991637468338013
1676104289.562625,4690,1676104289,561913170,world,-0.41223639249801636,0.5218771696090698,0.12514719367027283,0.0041359043680131435,-0.004420087207108736,-0.04043528437614441,0.9991638660430908
1676104289.564211,4691,1676104289,562090017,world,-0.41222864389419556,0.5218697786331177,0.1251421719789505,0.004218044690787792,-0.0044077602215111256,-0.04034215211868286,0.9991673827171326
1676104289.564223,4692,1676104289,562164163,world,-0.4122255742549896,0.5218744277954102,0.12514673173427582,0.004148215986788273,-0.004471426829695702,-0.040344156324863434,0.999167263507843
1676104289.5732172,4693,1676104289,571968048,world,-0.41222384572029114,0.5218623876571655,0.12514299154281616,0.004297040402889252,-0.004434420261532068,-0.04027991741895676,0.9991694092750549
1676104289.5746372,4694,1676104289,572072434,world,-0.41223230957984924,0.52187579870224,0.1251518875360489,0.004236237611621618,-0.004401137121021748,-0.040350545197725296,0.9991669654846191
1676104289.5828369,4695,1676104289,581912208,world,-0.4122074842453003,0.5218342542648315,0.12515932321548462,0.004044542089104652,-0.004440242424607277,-0.04001585394144058,0.9991810321807861
1676104289.584741,4696,1676104289,582081610,world,-0.4122486710548401,0.5218960046768188,0.12514860928058624,0.00432876031845808,-0.004396893549710512,-0.0406113900244236,0.9991559982299805
1676104289.584774,4697,1676104289,582156534,world,-0.41222649812698364,0.5218816995620728,0.12514279782772064,0.004134053364396095,-0.004405823536217213,-0.040344301611185074,0.9991675615310669
1676104289.5925357,4698,1676104289,591922291,world,-0.4122433662414551,0.5218760967254639,0.1251533031463623,0.004111504647880793,-0.004414676688611507,-0.04045801982283592,0.9991630911827087
1676104289.6029434,4699,1676104289,601926967,world,-0.4122333228588104,0.5218806862831116,0.1251540631055832,0.004206680227071047,-0.00429774634540081,-0.04041897505521774,0.9991647601127625
1676104289.603197,4700,1676104289,602093814,world,-0.4122158885002136,0.5218667984008789,0.12514318525791168,0.0042035761289298534,-0.004526789300143719,-0.04022751376032829,0.9991714954376221
1676104289.6332936,4701,1676104289,632096416,world,-0.41224363446235657,0.5218918323516846,0.12514804303646088,0.004243727307766676,-0.004424593411386013,-0.0405418798327446,0.9991590976715088
1676104289.6382563,4702,1676104289,632514682,world,-0.4122025668621063,0.5218321084976196,0.1251477599143982,0.0040102736093103886,-0.004517088178545237,-0.03994062542915344,0.9991838335990906
1676104289.63827,4705,1676104289,632897134,world,-0.41222676634788513,0.5218763947486877,0.12514269351959229,0.004206785932183266,-0.0043276348151266575,-0.0404251404106617,0.9991644024848938
1676104289.6382992,4706,1676104289,633264734,world,-0.4122331440448761,0.5218861103057861,0.12515230476856232,0.004228891804814339,-0.004437943920493126,-0.04048053175210953,0.9991615414619446
1676104289.6384296,4709,1676104289,633707462,world,-0.4122316241264343,0.5218712091445923,0.12515239417552948,0.004188907332718372,-0.004441726021468639,-0.04031805694103241,0.9991682171821594
1676104289.644254,4710,1676104289,641957651,world,-0.412214457988739,0.5218478441238403,0.1251606047153473,0.004005031194537878,-0.004415180068463087,-0.04011262580752373,0.9991773962974548
1676104289.644307,4711,1676104289,642147572,world,-0.412224680185318,0.5218868851661682,0.1251518577337265,0.004261352121829987,-0.0044801803305745125,-0.040473613888025284,0.9991615414619446
1676104289.6528878,4712,1676104289,652026140,world,-0.41221386194229126,0.5218474864959717,0.1251629889011383,0.0039911773055791855,-0.004410312045365572,-0.04012252390384674,0.9991771578788757
1676104289.6551015,4713,1676104289,652105768,world,-0.4122390151023865,0.5218891501426697,0.12514656782150269,0.004212859086692333,-0.004461980890482664,-0.04053511843085289,0.9991592764854431
1676104289.6647778,4714,1676104289,661948578,world,-0.4122365415096283,0.5218812227249146,0.12514890730381012,0.004199008923023939,-0.0044386121444404125,-0.04048558697104454,0.999161422252655
1676104289.6647904,4715,1676104289,662160701,world,-0.41223302483558655,0.5218770503997803,0.12514518201351166,0.0042480966076254845,-0.004475085996091366,-0.04042430967092514,0.9991635680198669
1676104289.664886,4716,1676104289,662253402,world,-0.4122430980205536,0.521885097026825,0.1251513659954071,0.004238709807395935,-0.0043632579036056995,-0.040511392056941986,0.999160647392273
1676104289.6726265,4717,1676104289,671955050,world,-0.4122304618358612,0.5218720436096191,0.1251443475484848,0.0042147268541157246,-0.00455049192532897,-0.04034964367747307,0.9991663694381714
1676104289.6736796,4718,1676104289,672192654,world,-0.4122297763824463,0.5218721628189087,0.12513844668865204,0.004212276078760624,-0.0043885475024580956,-0.040406741201877594,0.999164879322052
1676104289.6837227,4719,1676104289,682009891,world,-0.4122203588485718,0.5218526124954224,0.12515978515148163,0.00410695094615221,-0.004434257745742798,-0.040222495794296265,0.9991725087165833
1676104289.6837363,4720,1676104289,682203293,world,-0.4122401475906372,0.5218823552131653,0.12514802813529968,0.004218174144625664,-0.004351610317826271,-0.040474530309438705,0.9991622567176819
1676104289.6837962,4721,1676104289,682285605,world,-0.41222548484802246,0.5218744874000549,0.12515051662921906,0.004201050847768784,-0.0045466069132089615,-0.040375418961048126,0.9991654753684998
1676104289.6932702,4722,1676104289,691920310,world,-0.4122317433357239,0.5218720436096191,0.12514443695545197,0.004139058757573366,-0.004391180817037821,-0.040396902710199356,0.9991655349731445
1676104289.6936762,4723,1676104289,692085880,world,-0.4122362732887268,0.5218763947486877,0.1251429170370102,0.004211792256683111,-0.004435400478541851,-0.04051591083407402,0.9991602301597595
1676104289.704163,4724,1676104289,701937097,world,-0.4122322201728821,0.5218818783760071,0.12514348328113556,0.00425610039383173,-0.004502730444073677,-0.04038914665579796,0.9991648197174072
1676104289.7042184,4725,1676104289,702123295,world,-0.412234365940094,0.5218814611434937,0.1251487135887146,0.004318437539041042,-0.004430714529007673,-0.04042554274201393,0.9991634488105774
1676104289.7126584,4726,1676104289,711946958,world,-0.4122210741043091,0.5218468308448792,0.12516039609909058,0.003987625241279602,-0.004501651041209698,-0.040142010897397995,0.9991759657859802
1676104289.7134333,4727,1676104289,712133601,world,-0.412228524684906,0.5218790769577026,0.1251399666070938,0.0042919740080833435,-0.004398401360958815,-0.040351592004299164,0.99916672706604
1676104289.7224278,4728,1676104289,721906006,world,-0.41222819685935974,0.5218730568885803,0.125151589512825,0.004091667477041483,-0.004465007688850164,-0.04039881005883217,0.9991653561592102
1676104289.7228346,4729,1676104289,722073834,world,-0.4122256636619568,0.521856963634491,0.12515228986740112,0.004069575108587742,-0.00442984513938427,-0.04027885943651199,0.9991704225540161
1676104289.7327034,4730,1676104289,731951291,world,-0.41223806142807007,0.5218797922134399,0.12514753639698029,0.004099129233509302,-0.00447221240028739,-0.04045037552714348,0.9991631507873535
1676104289.7335,4731,1676104289,732148249,world,-0.4122369885444641,0.5218775272369385,0.12515342235565186,0.0041080075316131115,-0.004416442941874266,-0.04036901891231537,0.9991666674613953
1676104289.7335508,4733,1676104289,732318133,world,-0.4122278392314911,0.5218751430511475,0.125151127576828,0.0041936240158975124,-0.0044537503272295,-0.04035928100347519,0.9991664886474609
1676104289.7441347,4734,1676104289,741978226,world,-0.41223636269569397,0.521889865398407,0.1251472681760788,0.00426511513069272,-0.004462975077331066,-0.040519654750823975,0.9991596937179565
1676104289.7441666,4735,1676104289,742834072,world,-0.41223374009132385,0.5218847393989563,0.12515024840831757,0.004308742471039295,-0.004489433020353317,-0.04050472378730774,0.9991600513458252
1676104289.7534783,4736,1676104289,751932255,world,-0.41223475337028503,0.5218784213066101,0.1251492202281952,0.004080775659531355,-0.004385359585285187,-0.040396325290203094,0.9991657733917236
1676104289.7535565,4737,1676104289,752124713,world,-0.41224750876426697,0.5218906402587891,0.1251496970653534,0.004131144378334284,-0.004326815716922283,-0.040586940944194794,0.9991581439971924
1676104289.76259,4738,1676104289,761915672,world,-0.41220206022262573,0.5218312740325928,0.12515807151794434,0.0039848932065069675,-0.00443272665143013,-0.03999016433954239,0.9991823434829712
1676104289.7633426,4739,1676104289,762087038,world,-0.4122278392314911,0.5218691229820251,0.1251518428325653,0.004113282077014446,-0.00451545137912035,-0.04025958850979805,0.9991706013679504
1676104289.7633893,4740,1676104289,762162388,world,-0.4122218191623688,0.5218544602394104,0.1251528263092041,0.004071605857461691,-0.004379868507385254,-0.04028066620230675,0.9991704821586609
1676104289.7729423,4741,1676104289,771928311,world,-0.412223219871521,0.5218709707260132,0.12514953315258026,0.004145458340644836,-0.004483481869101524,-0.04030740261077881,0.9991687536239624
1676104289.7742465,4742,1676104289,772113398,world,-0.41224801540374756,0.5219001173973083,0.12514004111289978,0.004293721169233322,-0.004359289538115263,-0.040665045380592346,0.9991540908813477
1676104289.7928493,4743,1676104289,791968662,world,-0.4122368097305298,0.5218785405158997,0.12515167891979218,0.004228345584124327,-0.004438605159521103,-0.04037611186504364,0.9991657733917236
1676104289.7938397,4744,1676104289,792187674,world,-0.41223669052124023,0.521880567073822,0.1251489520072937,0.0042089978232979774,-0.004427456296980381,-0.04046151041984558,0.999162495136261
1676104289.7939575,4747,1676104289,792477647,world,-0.4122482240200043,0.5218945145606995,0.12514284253120422,0.004248743411153555,-0.00435637217015028,-0.04061950743198395,0.9991561770439148
1676104289.8052857,4748,1676104289,802006170,world,-0.4122214615345001,0.5218616724014282,0.1251543015241623,0.004104027058929205,-0.004422866739332676,-0.04023925960063934,0.9991718530654907
1676104289.8052974,4749,1676104289,802104334,world,-0.4122233986854553,0.5218796730041504,0.12515322864055634,0.004175671376287937,-0.0044271070510149,-0.040380604565143585,0.9991658926010132
1676104289.8141978,4750,1676104289,812114695,world,-0.4122336804866791,0.5218613147735596,0.12516430020332336,0.004117864649742842,-0.00444604828953743,-0.04026801884174347,0.9991705417633057
1676104289.8142092,4751,1676104289,812327078,world,-0.41223645210266113,0.5218843817710876,0.1251460760831833,0.004207775462418795,-0.004448891617357731,-0.040447089821100235,0.9991629719734192
1676104289.8142645,4752,1676104289,812453926,world,-0.41222867369651794,0.5218670964241028,0.12514488399028778,0.0041960678063333035,-0.004436172544956207,-0.04032887890934944,0.999167799949646
1676104289.8233206,4753,1676104289,822062743,world,-0.41223618388175964,0.5218786597251892,0.1251567155122757,0.004080845974385738,-0.0044531673192977905,-0.04034188389778137,0.9991676807403564
1676104289.8233345,4754,1676104289,822275718,world,-0.4122312664985657,0.5218707919120789,0.12514740228652954,0.00400313176214695,-0.00447316188365221,-0.04030505567789078,0.9991694092750549
1676104289.8333685,4755,1676104289,832071808,world,-0.412239670753479,0.5218814015388489,0.1251540184020996,0.004262907430529594,-0.004402879625558853,-0.040438730269670486,0.9991632103919983
