Time,header.seq,header.stamp.secs,header.stamp.nsecs,header.frame_id,pose.position.x,pose.position.y,pose.position.z,pose.orientation.x,pose.orientation.y,pose.orientation.z,pose.orientation.w
1676104288.87026,59,1676104288,342512968,world,-0.3601841926574707,-0.6238983869552612,0.13924992084503174,-0.008110478520393372,0.012359421700239182,0.019180744886398315,-0.9997068047523499
1676104288.8702867,60,1676104288,351885975,world,-0.36018678545951843,-0.623897910118103,0.1392437219619751,-0.008378468453884125,0.012195887044072151,0.019098779186606407,-0.9997081756591797
1676104288.8703032,61,1676104288,352103914,world,-0.3601907789707184,-0.6239060163497925,0.13924136757850647,-0.007958071306347847,0.012262015603482723,0.01923285983502865,-0.9997081756591797
1676104288.870353,62,1676104288,361878502,world,-0.3601780831813812,-0.6238950490951538,0.13923680782318115,-0.008068623952567577,0.012328768149018288,0.019051512703299522,-0.999709963798523
1676104288.8703816,63,1676104288,362104736,world,-0.36018580198287964,-0.6238914132118225,0.1392379254102707,-0.008434531278908253,0.012125026434659958,0.01914879120886326,-0.9997075796127319
1676104288.8704026,64,1676104288,362186253,world,-0.3601778745651245,-0.6238927245140076,0.13923859596252441,-0.008307915180921555,0.012207170017063618,0.019079377874732018,-0.9997090101242065
1676104288.8704243,65,1676104288,371855511,world,-0.36018598079681396,-0.6238939762115479,0.13923507928848267,-0.008247262798249722,0.012207516469061375,0.019044434651732445,-0.999710202217102
1676104288.8704438,66,1676104288,372093411,world,-0.3601835370063782,-0.6238994598388672,0.13923612236976624,-0.008329645730555058,0.012214947491884232,0.019129598513245583,-0.9997076988220215
1676104288.8704886,67,1676104288,381920702,world,-0.3601863980293274,-0.623908519744873,0.13924555480480194,-0.007956113666296005,0.012414578348398209,0.019212156534194946,-0.9997066855430603
1676104288.8705473,68,1676104288,382114678,world,-0.36018767952919006,-0.6238983273506165,0.13923636078834534,-0.008222987875342369,0.012209572829306126,0.019143376499414444,-0.9997084736824036
1676104288.8705566,69,1676104288,382205898,world,-0.3601928949356079,-0.6239035129547119,0.13923849165439606,-0.008277875371277332,0.01235571876168251,0.019213126972317696,-0.9997047781944275
1676104288.8706815,70,1676104288,391854620,world,-0.3601818382740021,-0.6238916516304016,0.1392410844564438,-0.008227442391216755,0.012336990796029568,0.019026240333914757,-0.9997090101242065
1676104288.8707058,71,1676104288,392080576,world,-0.3601846694946289,-0.6238958239555359,0.13924235105514526,-0.008254509419202805,0.012286518700420856,0.019031498581171036,-0.9997093081474304
1676104288.8707578,72,1676104288,402062344,world,-0.3601871430873871,-0.6239119172096252,0.13924576342105865,-0.008313844911754131,0.012294376268982887,0.019222473725676537,-0.9997051358222961
1676104288.8708136,74,1676104288,402261616,world,-0.3601779341697693,-0.6238923668861389,0.1392313688993454,-0.008366418071091175,0.012281062081456184,0.019091323018074036,-0.9997073411941528
1676104288.870854,75,1676104288,412491673,world,-0.3601807653903961,-0.6238999962806702,0.13922934234142303,-0.008095424622297287,0.012293269857764244,0.019047288224101067,-0.9997102618217468
1676104288.8708692,76,1676104288,412612966,world,-0.3601848781108856,-0.6238908767700195,0.13924278318881989,-0.008225450292229652,0.012267026118934155,0.019058838486671448,-0.9997093677520752
1676104288.8709824,77,1676104288,421844218,world,-0.3601802587509155,-0.6238948702812195,0.13923577964305878,-0.008140663616359234,0.012240192852914333,0.01910250075161457,-0.9997095465660095
1676104288.870996,78,1676104288,422057842,world,-0.36018529534339905,-0.6238929033279419,0.13923509418964386,-0.00824826955795288,0.01224434096366167,0.019072746858000755,-0.9997091293334961
1676104288.8712296,79,1676104288,431871466,world,-0.36018407344818115,-0.6238996386528015,0.13925400376319885,-0.008258556947112083,0.012246324680745602,0.019275536760687828,-0.9997051358222961
1676104288.871259,80,1676104288,432066312,world,-0.36018106341362,-0.6238981485366821,0.1392367035150528,-0.008163312450051308,0.012246289290487766,0.019108138978481293,-0.9997091293334961
1676104288.8714063,81,1676104288,481925912,world,-0.36018863320350647,-0.6239021420478821,0.1392446905374527,-0.008157084695994854,0.012283232994377613,0.01904495246708393,-0.999709963798523
1676104288.8714595,82,1676104288,482189219,world,-0.3601815402507782,-0.6238952279090881,0.1392359733581543,-0.008161249570548534,0.01229046005755663,0.019018646329641342,-0.9997103214263916
1676104288.8714778,93,1676104288,483300687,world,-0.3601878881454468,-0.6238967776298523,0.13923732936382294,-0.008301193825900555,0.012271640822291374,0.019137460738420486,-0.9997071027755737
1676104288.8715189,94,1676104288,491877107,world,-0.3601781129837036,-0.6238967776298523,0.1392383873462677,-0.00814457330852747,0.012325620278716087,0.019007613882422447,-0.9997102618217468
1676104288.8715484,95,1676104288,492008048,world,-0.36018842458724976,-0.6238929033279419,0.13924504816532135,-0.00843337457627058,0.012293254025280476,0.019115542992949486,-0.9997061491012573
1676104288.8715718,96,1676104288,502162681,world,-0.3601878583431244,-0.623895525932312,0.13924077153205872,-0.008186368271708488,0.012190481647849083,0.019127696752548218,-0.9997092485427856
1676104288.8716192,98,1676104288,502356564,world,-0.36018502712249756,-0.6238998174667358,0.13924206793308258,-0.008272040635347366,0.012258735485374928,0.019138837233185768,-0.9997075200080872
1676104288.871642,99,1676104288,551859693,world,-0.36018311977386475,-0.6238947510719299,0.13922877609729767,-0.008108855225145817,0.01236497052013874,0.018977314233779907,-0.9997106194496155
1676104288.8716948,109,1676104288,552670466,world,-0.3601996898651123,-0.6239078044891357,0.1392449289560318,-0.008019834756851196,0.012307511642575264,0.019242826849222183,-0.9997069835662842
1676104288.871713,110,1676104288,562247004,world,-0.3601861000061035,-0.6239022612571716,0.13923697173595428,-0.008278673514723778,0.012235034257173538,0.01909223571419716,-0.9997085928916931
1676104288.871784,112,1676104288,562435351,world,-0.3601827025413513,-0.6238967180252075,0.1392417699098587,-0.008259118534624577,0.01228004414588213,0.019024748355150223,-0.9997094869613647
1676104288.8718488,113,1676104288,571852431,world,-0.3601837158203125,-0.6239013075828552,0.1392405927181244,-0.0082253972068429,0.012262008152902126,0.01909317821264267,-0.9997087121009827
1676104288.871857,114,1676104288,571956317,world,-0.3601769506931305,-0.6238998770713806,0.13923271000385284,-0.00819487776607275,0.012346619740128517,0.018983488902449608,-0.9997100830078125
1676104288.8720121,115,1676104288,581864828,world,-0.36018288135528564,-0.6239004731178284,0.1392349749803543,-0.00823238119482994,0.012209487147629261,0.01905946061015129,-0.9997099041938782
1676104288.8720326,116,1676104288,582081859,world,-0.36018797755241394,-0.6239014267921448,0.13923706114292145,-0.008178588934242725,0.01225658692419529,0.019041819497942924,-0.9997101426124573
1676104288.8720844,117,1676104288,591886687,world,-0.3601888418197632,-0.6238948702812195,0.1392381191253662,-0.008298229426145554,0.012180422432720661,0.01919555850327015,-0.9997071027755737
1676104288.8721073,118,1676104288,592101496,world,-0.3601878881454468,-0.6238942742347717,0.13923850655555725,-0.008150976151227951,0.01232712622731924,0.018966950476169586,-0.9997109174728394
1676104288.8721545,119,1676104288,592186790,world,-0.3601834774017334,-0.6239010095596313,0.13923978805541992,-0.008349096402525902,0.012311999686062336,0.019059250131249428,-0.9997077584266663
1676104288.8721647,120,1676104288,601866418,world,-0.3601892590522766,-0.6238987445831299,0.1392376571893692,-0.008271288126707077,0.012242961674928665,0.019034825265407562,-0.9997096657752991
1676104288.8722174,121,1676104288,602077375,world,-0.3601861596107483,-0.6238947510719299,0.13923880457878113,-0.008288275450468063,0.012261742725968361,0.019081179052591324,-0.9997084736824036
1676104288.8722453,122,1676104288,611868667,world,-0.36018386483192444,-0.623898983001709,0.1392386257648468,-0.008108771406114101,0.01230169739574194,0.019032685086131096,-0.9997103810310364
1676104288.8722832,123,1676104288,612072198,world,-0.3601849377155304,-0.6238956451416016,0.13923710584640503,-0.008232207037508488,0.012192278169095516,0.019078413024544716,-0.9997098445892334
1676104288.8723223,124,1676104288,612144770,world,-0.36019158363342285,-0.6239163279533386,0.13923364877700806,-0.0079422015696764,0.012331455945968628,0.019230784848332405,-0.9997075200080872
1676104288.8723378,125,1676104288,621872508,world,-0.3601888120174408,-0.6239011883735657,0.13923299312591553,-0.008160009048879147,0.012222408317029476,0.018986931070685387,-0.999711811542511
1676104288.8723464,126,1676104288,622099927,world,-0.3601895570755005,-0.6239001750946045,0.1392369121313095,-0.008179187774658203,0.01231634896248579,0.01906156912446022,-0.9997090101242065
1676104288.872637,127,1676104288,631859165,world,-0.36019566655158997,-0.6239121556282043,0.13924315571784973,-0.008162518963217735,0.012373514473438263,0.01915336214005947,-0.9997067451477051
1676104288.87265,128,1676104288,632054103,world,-0.36018601059913635,-0.6239024996757507,0.13923279941082,-0.007977087050676346,0.012346846051514149,0.019001051783561707,-0.9997113943099976
1676104288.8726685,129,1676104288,632147934,world,-0.3601892590522766,-0.6239051818847656,0.13924527168273926,-0.00830764602869749,0.012330731377005577,0.019251426681876183,-0.9997041821479797
1676104288.8726811,130,1676104288,645663544,world,-0.36019065976142883,-0.6238941550254822,0.13923880457878113,-0.008208573795855045,0.012391713447868824,0.019079536199569702,-0.9997075200080872
1676104288.8726962,132,1676104288,645877983,world,-0.3601827621459961,-0.6238975524902344,0.13924188911914825,-0.00819607637822628,0.012307270430028439,0.01906818337738514,-0.999708890914917
1676104288.8727129,133,1676104288,651862403,world,-0.36018499732017517,-0.6238925457000732,0.1392359584569931,-0.00829866249114275,0.0123016107827425,0.019048215821385384,-0.9997084736824036
1676104288.8727262,134,1676104288,661966574,world,-0.3601854145526886,-0.6238973140716553,0.1392369270324707,-0.00845719687640667,0.012276925146579742,0.019145363941788673,-0.9997055530548096
1676104288.874034,135,1676104288,662256862,world,-0.3601814806461334,-0.6238970160484314,0.1392355114221573,-0.008339894004166126,0.012199446558952332,0.01903497613966465,-0.9997096657752991
1676104288.8744383,136,1676104288,662322712,world,-0.36018654704093933,-0.6239002346992493,0.1392388790845871,-0.008014199323952198,0.012290580198168755,0.019006509333848953,-0.9997116923332214
1676104288.874518,137,1676104288,671863511,world,-0.3601885437965393,-0.6239116787910461,0.13923853635787964,-0.008239272981882095,0.012343090958893299,0.019265592098236084,-0.9997043013572693
1676104288.874567,138,1676104288,671990323,world,-0.36018261313438416,-0.6238983869552612,0.13923379778862,-0.008033651858568192,0.012304323725402355,0.019008055329322815,-0.9997113943099976
1676104288.8760755,139,1676104288,681960683,world,-0.3601955473423004,-0.6239140629768372,0.13924142718315125,-0.008067849092185497,0.01234752032905817,0.019145026803016663,-0.9997079372406006
1676104288.8761122,140,1676104288,682166085,world,-0.36017948389053345,-0.6238973736763,0.13923463225364685,-0.007928929291665554,0.012287594377994537,0.019009899348020554,-0.9997124075889587
1676104288.876174,141,1676104288,682254323,world,-0.3601836562156677,-0.6238988041877747,0.13923439383506775,-0.008215432055294514,0.012301035225391388,0.019021058455109596,-0.9997096657752991
1676104288.8763378,142,1676104288,691874879,world,-0.36018574237823486,-0.6238901019096375,0.1392463892698288,-0.00836301501840353,0.012201494537293911,0.019073693081736565,-0.9997086524963379
1676104288.8771214,143,1676104288,692004968,world,-0.36019372940063477,-0.6238923072814941,0.13923580944538116,-0.00816959049552679,0.01222739927470684,0.01900148205459118,-0.9997113943099976
1676104288.8771777,144,1676104288,701846943,world,-0.3601821959018707,-0.6239013075828552,0.1392400562763214,-0.00816630944609642,0.012351959012448788,0.018965693190693855,-0.9997105002403259
1676104288.8772519,145,1676104288,702071178,world,-0.36018091440200806,-0.6238948106765747,0.13923896849155426,-0.008174375630915165,0.012240489013493061,0.019031014293432236,-0.9997105598449707
1676104288.8773036,146,1676104288,711871303,world,-0.3601923882961273,-0.6239018440246582,0.13923819363117218,-0.008085777051746845,0.01227405946701765,0.019108138978481293,-0.99970942735672
1676104288.8773293,147,1676104288,712109648,world,-0.36018505692481995,-0.6239030957221985,0.13923412561416626,-0.00822003185749054,0.012258418835699558,0.01898370124399662,-0.9997108578681946
1676104288.877355,148,1676104288,712185664,world,-0.36018791794776917,-0.623898983001709,0.13923406600952148,-0.008126395754516125,0.012297303415834904,0.019026774913072586,-0.9997103810310364
1676104288.8773932,149,1676104288,721870014,world,-0.36017876863479614,-0.6239041686058044,0.13923518359661102,-0.008050880394876003,0.012331870384514332,0.01896895468235016,-0.9997116327285767
1676104288.8774064,150,1676104288,722109045,world,-0.36018800735473633,-0.6238980889320374,0.13923174142837524,-0.008250716142356396,0.01228975411504507,0.019042853266000748,-0.9997091293334961
1676104288.877415,151,1676104288,731865875,world,-0.3601836860179901,-0.6238943934440613,0.13923442363739014,-0.008147411979734898,0.012187471613287926,0.019132597371935844,-0.9997094869613647
1676104288.877491,152,1676104288,732065813,world,-0.3601836562156677,-0.6239007115364075,0.13923634588718414,-0.008261592127382755,0.012255403213202953,0.019023101776838303,-0.9997097849845886
1676104288.8775241,153,1676104288,732135700,world,-0.3601900339126587,-0.6239065527915955,0.13924826681613922,-0.008164548315107822,0.012336542829871178,0.019217893481254578,-0.999705970287323
1676104288.8778489,154,1676104288,741872382,world,-0.3601803481578827,-0.623896062374115,0.13923761248588562,-0.008448095060884953,0.01224160473793745,0.01908847875893116,-0.9997071623802185
1676104288.8792303,155,1676104288,742562418,world,-0.36018887162208557,-0.6239112615585327,0.1392422765493393,-0.00804219488054514,0.01234681811183691,0.01912601664662361,-0.9997085928916931
1676104288.8796632,156,1676104288,751853187,world,-0.36018121242523193,-0.6238918900489807,0.13923649489879608,-0.008236697874963284,0.012328028678894043,0.019098525866866112,-0.9997076988220215
1676104288.879727,158,1676104288,752016775,world,-0.3601810336112976,-0.623902440071106,0.13923172652721405,-0.008179222233593464,0.01226741075515747,0.019054444506764412,-0.9997097849845886
1676104288.879752,159,1676104288,761862102,world,-0.3601813316345215,-0.6238917112350464,0.13923616707324982,-0.008304612711071968,0.01234197523444891,0.019041500985622406,-0.9997081160545349
1676104288.8797903,160,1676104288,771899869,world,-0.3601837754249573,-0.6238914728164673,0.13924036920070648,-0.008183208294212818,0.012304173782467842,0.019091220572590828,-0.9997085928916931
1676104288.8798175,161,1676104288,772528202,world,-0.3601841628551483,-0.6239004731178284,0.1392342895269394,-0.008203855715692043,0.012328620068728924,0.01904386281967163,-0.9997090697288513
1676104288.8798316,162,1676104288,772678457,world,-0.36018243432044983,-0.6238924264907837,0.1392381638288498,-0.008165714330971241,0.012284798547625542,0.019044000655412674,-0.9997099041938782
1676104288.879843,163,1676104288,781884488,world,-0.3601793944835663,-0.623903214931488,0.1392294019460678,-0.008018549531698227,0.012343568727374077,0.019045131281018257,-0.9997103810310364
1676104288.8798528,165,1676104288,782064502,world,-0.3601851761341095,-0.6238980293273926,0.13923083245754242,-0.008145158179104328,0.012271738611161709,0.019065069034695625,-0.9997098445892334
1676104288.8798902,166,1676104288,791853497,world,-0.36018306016921997,-0.6239067316055298,0.13924236595630646,-0.008111152797937393,0.012337536551058292,0.019141176715493202,-0.999707818031311
1676104288.8800015,167,1676104288,791974290,world,-0.36018872261047363,-0.6238970756530762,0.1392378807067871,-0.008345603942871094,0.012169995345175266,0.019144361838698387,-0.9997078776359558
1676104288.8801136,168,1676104288,801855431,world,-0.3601894676685333,-0.6239115595817566,0.13924476504325867,-0.008067840710282326,0.012205385603010654,0.019218027591705322,-0.999708354473114
1676104288.8801324,169,1676104288,811847069,world,-0.36018499732017517,-0.6238924264907837,0.13924181461334229,-0.008248026482760906,0.012234111316502094,0.01906663551926613,-0.99970942735672
1676104288.8801637,170,1676104288,812066285,world,-0.3601920008659363,-0.6239060163497925,0.13923947513103485,-0.008083254098892212,0.01229153759777546,0.01925107277929783,-0.999706506729126
1676104288.8801749,172,1676104288,812213633,world,-0.36019086837768555,-0.6239089369773865,0.13923679292201996,-0.008175419643521309,0.012310272082686424,0.01919233426451683,-0.9997066259384155
1676104288.8802018,173,1676104288,821861225,world,-0.3601807951927185,-0.6238999962806702,0.13923050463199615,-0.008092873729765415,0.012260041199624538,0.01907392218708992,-0.999710202217102
1676104288.8802142,174,1676104288,822068126,world,-0.36018577218055725,-0.6238969564437866,0.13923577964305878,-0.008138949982821941,0.01227133721113205,0.01903408393263817,-0.9997103810310364
1676104288.8802228,175,1676104288,831871899,world,-0.36018022894859314,-0.6239001154899597,0.1392344832420349,-0.00834810733795166,0.012203929014503956,0.019097819924354553,-0.9997082948684692
1676104288.8803947,176,1676104288,832130966,world,-0.3601810336112976,-0.623893141746521,0.13923326134681702,-0.00815904513001442,0.012287039309740067,0.01904994063079357,-0.9997097253799438
1676104288.8804054,177,1676104288,841872222,world,-0.36018866300582886,-0.6238999962806702,0.13923875987529755,-0.00820997916162014,0.01219591498374939,0.019112451002001762,-0.9997093081474304
1676104288.8804145,178,1676104288,842189528,world,-0.36018142104148865,-0.6238988041877747,0.1392381489276886,-0.008044627495110035,0.012335080653429031,0.018997836858034134,-0.9997110962867737
1676104288.8804233,179,1676104288,842304950,world,-0.36018139123916626,-0.6238936185836792,0.13923883438110352,-0.008260020986199379,0.01216150727123022,0.019090065732598305,-0.9997097253799438
1676104288.8805437,180,1676104288,852091002,world,-0.3602141737937927,-0.6239103078842163,0.13926559686660767,-0.008091718889772892,0.012052874080836773,0.019084135070443153,-0.9997125864028931
1676104288.8805532,181,1676104288,852322014,world,-0.3601810336112976,-0.6239069700241089,0.13923773169517517,-0.008249570615589619,0.012224815785884857,0.01909559778869152,-0.999708890914917
1676104288.8805785,182,1676104288,852399771,world,-0.3601880967617035,-0.6239117980003357,0.13924184441566467,-0.00830761343240738,0.012244158424437046,0.019243812188506126,-0.9997053742408752
1676104288.8806813,183,1676104288,861882923,world,-0.3601891100406647,-0.6239033937454224,0.13924220204353333,-0.008092917501926422,0.012256198562681675,0.019072728231549263,-0.9997102618217468
1676104288.8808322,184,1676104288,862118064,world,-0.360183984041214,-0.6238964200019836,0.1392291933298111,-0.00814305990934372,0.0123174749314785,0.01903693936765194,-0.9997097253799438
1676104288.8809195,185,1676104288,871923911,world,-0.36017951369285583,-0.6238959431648254,0.13924096524715424,-0.008151350542902946,0.01219378411769867,0.019024355337023735,-0.9997115135192871
1676104288.880971,186,1676104288,872638113,world,-0.3601856529712677,-0.6238954663276672,0.13923628628253937,-0.008355836383998394,0.012262096628546715,0.019069906324148178,-0.9997080564498901
1676104288.8810346,187,1676104288,872782924,world,-0.36018043756484985,-0.6239000558853149,0.1392303705215454,-0.008235781453549862,0.012252936139702797,0.019057784229516983,-0.9997093677520752
1676104288.883612,188,1676104288,882730933,world,-0.36018481850624084,-0.6238899827003479,0.13924221694469452,-0.00815377663820982,0.012215913273394108,0.019031936302781105,-0.9997110366821289
1676104288.8926396,189,1676104288,892028517,world,-0.36018478870391846,-0.6239003539085388,0.13923433423042297,-0.00817784946411848,0.01224446389824152,0.019045989960432053,-0.999710202217102
1676104288.8929458,190,1676104288,892235382,world,-0.3601880371570587,-0.6238998770713806,0.13922977447509766,-0.008122622966766357,0.012352712452411652,0.019003266468644142,-0.9997101426124573
1676104288.8929605,191,1676104288,892308657,world,-0.3601870536804199,-0.6239086389541626,0.1392437219619751,-0.008148993365466595,0.012301769107580185,0.01921282708644867,-0.9997065663337708
1676104288.903208,192,1676104288,901857271,world,-0.3601895272731781,-0.6238999366760254,0.1392408311367035,-0.008143605664372444,0.012229313142597675,0.019062429666519165,-0.9997103810310364
1676104288.9032269,193,1676104288,901962175,world,-0.36018869280815125,-0.6239107251167297,0.13924458622932434,-0.008145233616232872,0.012358021922409534,0.019172068685293198,-0.9997066855430603
1676104288.9133775,194,1676104288,912050459,world,-0.3601922392845154,-0.623896598815918,0.13923832774162292,-0.008191959001123905,0.01216184627264738,0.01912430115044117,-0.9997096657752991
1676104288.913412,195,1676104288,912172029,world,-0.36018380522727966,-0.6238985657691956,0.13923576474189758,-0.0080897631123662,0.012290206737816334,0.019059237092733383,-0.9997101426124573
1676104288.9232426,196,1676104288,921851102,world,-0.3601914048194885,-0.623898446559906,0.13925066590309143,-0.00829098280519247,0.012291080318391323,0.01923033967614174,-0.9997051358222961
1676104288.9232876,197,1676104288,922083095,world,-0.3601856827735901,-0.6238943934440613,0.13923731446266174,-0.008213385008275509,0.012341070920228958,0.019032590091228485,-0.9997089505195618
1676104288.923301,198,1676104288,922152223,world,-0.360186368227005,-0.6239040493965149,0.13924264907836914,-0.008093222044408321,0.012310132384300232,0.019264375790953636,-0.999705970287323
1676104288.9324872,199,1676104288,931841314,world,-0.3601909577846527,-0.623896598815918,0.13924038410186768,-0.00820970069617033,0.012159164994955063,0.01906036026775837,-0.9997106790542603
1676104288.932655,200,1676104288,932068104,world,-0.36018604040145874,-0.6238918304443359,0.1392442137002945,-0.008432053960859776,0.012292406521737576,0.019096972420811653,-0.999706506729126
1676104288.932667,201,1676104288,932140972,world,-0.36018985509872437,-0.6239125728607178,0.13923679292201996,-0.008185778744518757,0.012339397333562374,0.019181642681360245,-0.9997064471244812
1676104288.9428988,202,1676104288,941886413,world,-0.3601863980293274,-0.623897910118103,0.13923689723014832,-0.00826950278133154,0.012316608801484108,0.01903480477631092,-0.9997088313102722
1676104288.9431782,203,1676104288,942088889,world,-0.3601841926574707,-0.6238937973976135,0.1392410546541214,-0.008229007013142109,0.012297841720283031,0.019051706418395042,-0.9997090101242065
1676104288.952794,204,1676104288,951995696,world,-0.3601771593093872,-0.6238965392112732,0.13923798501491547,-0.00820175465196371,0.012124386616051197,0.019118737429380417,-0.9997100830078125
1676104288.9541838,205,1676104288,952302280,world,-0.36017748713493347,-0.6238983869552612,0.13923683762550354,-0.008327235467731953,0.012340513058006763,0.0190842654556036,-0.999707043170929
1676104288.9543226,206,1676104288,952394814,world,-0.36018726229667664,-0.6238975524902344,0.1392466276884079,-0.008140545338392258,0.012297269888222218,0.019207559525966644,-0.9997067451477051
1676104288.9622838,207,1676104288,961823765,world,-0.3601827621459961,-0.6238972544670105,0.13924074172973633,-0.008226263336837292,0.012249806895852089,0.01905331201851368,-0.9997096061706543
1676104288.9625423,208,1676104288,962012000,world,-0.36019352078437805,-0.6239040493965149,0.13924533128738403,-0.00821336917579174,0.012252059765160084,0.019231703132390976,-0.9997063279151917
1676104288.9724636,209,1676104288,971859568,world,-0.36017951369285583,-0.6239049434661865,0.13923656940460205,-0.00829384010285139,0.012272446416318417,0.01903996430337429,-0.9997090697288513
1676104288.9728656,210,1676104288,972090080,world,-0.3601836562156677,-0.6238970160484314,0.1392318308353424,-0.008068902418017387,0.012272460386157036,0.019072866067290306,-0.9997102618217468
1676104288.9843533,211,1676104288,981933555,world,-0.3601877987384796,-0.6238924264907837,0.1392369419336319,-0.00824922975152731,0.012246450409293175,0.01909831166267395,-0.9997085928916931
1676104288.9843993,212,1676104288,982186548,world,-0.36018961668014526,-0.6239038705825806,0.1392352283000946,-0.008080020546913147,0.01229892112314701,0.019072964787483215,-0.9997097849845886
1676104288.9844139,213,1676104288,982311841,world,-0.36018437147140503,-0.623893678188324,0.13923273980617523,-0.00818451214581728,0.01232009194791317,0.019002685323357582,-0.9997100830078125
1676104288.9924684,214,1676104288,991872028,world,-0.3601835072040558,-0.6239003539085388,0.1392439305782318,-0.008165065199136734,0.012291823513805866,0.0190017968416214,-0.9997106194496155
1676104288.9931216,215,1676104288,992115354,world,-0.3601858615875244,-0.623895525932312,0.13923686742782593,-0.008354615420103073,0.012321272864937782,0.01906932145357132,-0.9997074007987976
1676104289.0026972,216,1676104289,1856981,world,-0.36017733812332153,-0.6238973736763,0.1392357051372528,-0.0082931499928236,0.012198747135698795,0.01907336339354515,-0.9997093677520752
1676104289.002737,217,1676104289,2101067,world,-0.3601870834827423,-0.6239044070243835,0.1392473727464676,-0.00810135155916214,0.012323424220085144,0.019333573058247566,-0.9997043013572693
1676104289.0126817,218,1676104289,11893563,world,-0.36017748713493347,-0.6238958835601807,0.1392386257648468,-0.008502335287630558,0.012318011373281479,0.019063178449869156,-0.9997063279151917
1676104289.0132108,219,1676104289,12143834,world,-0.36018261313438416,-0.6238895654678345,0.1392388939857483,-0.008161474019289017,0.01221668440848589,0.019022781401872635,-0.9997110962867737
1676104289.0132296,220,1676104289,12247127,world,-0.3601929545402527,-0.6239044666290283,0.1392478197813034,-0.008214551955461502,0.012340730056166649,0.01925094984471798,-0.9997047781944275
1676104289.0223649,221,1676104289,21858221,world,-0.36018842458724976,-0.6239001154899597,0.1392328292131424,-0.008119374513626099,0.012259312905371189,0.019085390493273735,-0.9997097253799438
1676104289.0230718,222,1676104289,22076345,world,-0.36018019914627075,-0.6239062547683716,0.13924679160118103,-0.008187568746507168,0.01240394078195095,0.019163092598319054,-0.999705970287323
1676104289.033204,223,1676104289,31881175,world,-0.36017951369285583,-0.6238905191421509,0.13924084603786469,-0.008358586579561234,0.012310333549976349,0.01908991113305092,-0.9997071027755737
1676104289.0437396,224,1676104289,32131223,world,-0.3601827919483185,-0.6238930821418762,0.1392391324043274,-0.008174728602170944,0.012268070131540298,0.019033199176192284,-0.999710202217102
1676104289.0437949,225,1676104289,32219332,world,-0.3601793646812439,-0.6238970756530762,0.13923268020153046,-0.008232563734054565,0.012305287644267082,0.019011439755558968,-0.9997097253799438
1676104289.0438657,226,1676104289,41894424,world,-0.3601847290992737,-0.6238941550254822,0.13924042880535126,-0.008322030305862427,0.012317465618252754,0.019126469269394875,-0.9997066259384155
1676104289.052528,227,1676104289,51848713,world,-0.36018601059913635,-0.623898446559906,0.1392388641834259,-0.008238578215241432,0.012234528549015522,0.01902627944946289,-0.9997102618217468
1676104289.0531974,228,1676104289,52048670,world,-0.36018693447113037,-0.6238956451416016,0.13923506438732147,-0.00824449397623539,0.012207305058836937,0.019145844504237175,-0.9997081756591797
1676104289.05358,230,1676104289,52196295,world,-0.3601895868778229,-0.6239035725593567,0.13924822211265564,-0.008066360838711262,0.01230650208890438,0.019235530868172646,-0.9997066855430603
1676104289.0625165,231,1676104289,61864666,world,-0.3601897656917572,-0.6239110231399536,0.13924190402030945,-0.00798551831394434,0.012380761094391346,0.019192619249224663,-0.9997073411941528
1676104289.0628245,232,1676104289,62082475,world,-0.3601820170879364,-0.6238996386528015,0.13923214375972748,-0.008357015438377857,0.012228574603796005,0.01912599802017212,-0.9997074007987976
1676104289.072278,233,1676104289,71869101,world,-0.36017748713493347,-0.6238971948623657,0.13923147320747375,-0.008149945177137852,0.012257813476026058,0.018985925242304802,-0.9997114539146423
1676104289.073023,234,1676104289,72416160,world,-0.3601885139942169,-0.6238970756530762,0.13923808932304382,-0.008101544342935085,0.012166469357907772,0.01906808465719223,-0.9997113943099976
1676104289.082932,235,1676104289,81875981,world,-0.36019033193588257,-0.6239046454429626,0.13924887776374817,-0.008202366530895233,0.012222521007061005,0.019267624244093895,-0.9997060894966125
1676104289.0829484,236,1676104289,82005829,world,-0.36018940806388855,-0.6238937377929688,0.13924647867679596,-0.008303203620016575,0.012196588329970837,0.019029121845960617,-0.9997100830078125
1676104289.0924058,237,1676104289,91873879,world,-0.360182523727417,-0.6238957643508911,0.13923539221286774,-0.008292565122246742,0.012181897647678852,0.019094793125987053,-0.9997091293334961
1676104289.093586,238,1676104289,92564730,world,-0.3601895272731781,-0.6238954663276672,0.13924209773540497,-0.00808261800557375,0.012283256277441978,0.019073963165283203,-0.9997100234031677
1676104289.0935984,239,1676104289,92661708,world,-0.3601815402507782,-0.6238924860954285,0.13923682272434235,-0.008220766671001911,0.012267888523638248,0.019020700827240944,-0.9997100234031677
1676104289.10258,240,1676104289,102106586,world,-0.36018192768096924,-0.623893678188324,0.13923412561416626,-0.008074400015175343,0.01223902590572834,0.01907907985150814,-0.9997105002403259
1676104289.1030781,241,1676104289,102323968,world,-0.3601909279823303,-0.623906672000885,0.13924537599086761,-0.007966193370521069,0.012389610521495342,0.019114481285214424,-0.999708890914917
1676104289.1122413,242,1676104289,111844602,world,-0.36018648743629456,-0.6238957047462463,0.13923923671245575,-0.008086121641099453,0.012363110668957233,0.018962658941745758,-0.9997110962867737
1676104289.112571,243,1676104289,112041208,world,-0.3601928949356079,-0.6238933801651001,0.13924343883991241,-0.008223848417401314,0.012312674894928932,0.01906733773648739,-0.9997086524963379
1676104289.1125946,244,1676104289,112110576,world,-0.3601808249950409,-0.6239044070243835,0.139238640666008,-0.008114236406981945,0.012348595075309277,0.019035549834370613,-0.9997096657752991
1676104289.1224008,245,1676104289,121856093,world,-0.36017441749572754,-0.6238959431648254,0.13924337923526764,-0.0083006015047431,0.012286089360713959,0.019051216542720795,-0.9997086524963379
1676104289.1229894,246,1676104289,122092197,world,-0.3601851463317871,-0.6239103674888611,0.13924430310726166,-0.008145315572619438,0.012332074344158173,0.01924343965947628,-0.9997056126594543
1676104289.132671,247,1676104289,132279905,world,-0.36018145084381104,-0.6238932013511658,0.13924342393875122,-0.008313997648656368,0.012166309170424938,0.01914110779762268,-0.9997082352638245
1676104289.1330178,248,1676104289,132498491,world,-0.36018046736717224,-0.623903214931488,0.13924632966518402,-0.008191967383027077,0.012263352982699871,0.019015442579984665,-0.9997104406356812
1676104289.142539,249,1676104289,141872982,world,-0.36018678545951843,-0.6238934993743896,0.13923974335193634,-0.008373298682272434,0.012263229116797447,0.019093673676252365,-0.9997075200080872
1676104289.1432743,250,1676104289,142107993,world,-0.3601912260055542,-0.6238977313041687,0.1392340511083603,-0.008290384896099567,0.012189464643597603,0.019138740375638008,-0.9997082352638245
1676104289.1433313,251,1676104289,142199861,world,-0.36017826199531555,-0.6238982677459717,0.13923950493335724,-0.00819972064346075,0.012351959012448788,0.019078997895121574,-0.9997080564498901
1676104289.1523983,252,1676104289,151861584,world,-0.36018919944763184,-0.6239067912101746,0.1392461508512497,-0.00832398422062397,0.012349658645689487,0.019249236211180687,-0.9997038841247559
1676104289.1528137,253,1676104289,152072504,world,-0.36018016934394836,-0.6239017248153687,0.1392362266778946,-0.008252603933215141,0.01229905430227518,0.018991028890013695,-0.999709963798523
1676104289.152959,254,1676104289,152153464,world,-0.36018311977386475,-0.6238946914672852,0.13922974467277527,-0.008149686269462109,0.012202786281704903,0.01910477690398693,-0.9997098445892334
1676104289.1625612,255,1676104289,161839538,world,-0.36018890142440796,-0.623909056186676,0.13923339545726776,-0.008214169181883335,0.01235705055296421,0.019198380410671234,-0.9997056126594543
1676104289.1629963,256,1676104289,162094198,world,-0.36018168926239014,-0.6239027976989746,0.13923196494579315,-0.008086581714451313,0.012337750755250454,0.018978416919708252,-0.9997110962867737
1676104289.1725903,257,1676104289,171848585,world,-0.3601851165294647,-0.6238915920257568,0.13924604654312134,-0.008428771048784256,0.012155954726040363,0.01910790242254734,-0.9997079968452454
1676104289.1733816,258,1676104289,172086263,world,-0.3601885437965393,-0.6238930225372314,0.13923797011375427,-0.00823038350790739,0.012191403657197952,0.019175631925463676,-0.9997079372406006
1676104289.1823478,259,1676104289,181846372,world,-0.36018604040145874,-0.6239011287689209,0.13924230635166168,-0.008415325544774532,0.012190915644168854,0.01911291666328907,-0.9997075796127319
1676104289.1828701,260,1676104289,182045607,world,-0.3601818084716797,-0.6238967180252075,0.13923870027065277,-0.007997991517186165,0.012252715416252613,0.019064707681536674,-0.999711275100708
1676104289.1828797,261,1676104289,182122438,world,-0.36018243432044983,-0.6238925457000732,0.1392471343278885,-0.008226658217608929,0.012192735448479652,0.019124187529087067,-0.9997090101242065
1676104289.192326,262,1676104289,191857955,world,-0.36018264293670654,-0.6238965392112732,0.1392364203929901,-0.008400394581258297,0.012221368961036205,0.01916428469121456,-0.9997063875198364
1676104289.2025158,263,1676104289,201899204,world,-0.36017945408821106,-0.6239019632339478,0.1392362415790558,-0.008237307891249657,0.012219398282468319,0.019000086933374405,-0.9997109174728394
1676104289.2028987,264,1676104289,202121994,world,-0.3601835370063782,-0.6238952279090881,0.13923971354961395,-0.008189047686755657,0.012288043275475502,0.019079944118857384,-0.9997089505195618
1676104289.2030258,266,1676104289,202283563,world,-0.3601863980293274,-0.623894453048706,0.1392384022474289,-0.008162985555827618,0.012213335372507572,0.019071536138653755,-0.999710202217102
1676104289.2227516,267,1676104289,221875797,world,-0.3601858913898468,-0.6239003539085388,0.13923831284046173,-0.008246433921158314,0.012262552976608276,0.019041908904910088,-0.9997095465660095
1676104289.224777,268,1676104289,222248953,world,-0.3601830303668976,-0.6239004731178284,0.13923940062522888,-0.008114814758300781,0.012286978773772717,0.01901567168533802,-0.9997107982635498
1676104289.2248313,270,1676104289,222465632,world,-0.3601888120174408,-0.6238916516304016,0.13924548029899597,-0.008211865089833736,0.012247227132320404,0.01911988854408264,-0.9997084736824036
1676104289.2331302,271,1676104289,231888454,world,-0.36018919944763184,-0.6238887906074524,0.13924294710159302,-0.008212706074118614,0.012323953211307526,0.01906505599617958,-0.9997085928916931
1676104289.233163,273,1676104289,232108207,world,-0.36018744111061096,-0.6239112019538879,0.13923996686935425,-0.008084232918918133,0.012292657047510147,0.01921376958489418,-0.9997072219848633
1676104289.2423642,274,1676104289,241860205,world,-0.36018145084381104,-0.6238951086997986,0.13923288881778717,-0.008379303850233555,0.012160333804786205,0.019119294360280037,-0.9997082352638245
1676104289.2430182,275,1676104289,242076940,world,-0.3601844608783722,-0.6239003539085388,0.13924121856689453,-0.008131279610097408,0.01219860464334488,0.019078904762864113,-0.9997105598449707
1676104289.2524228,276,1676104289,251804494,world,-0.3601851463317871,-0.6238973140716553,0.13923369348049164,-0.008092191070318222,0.01222329493612051,0.019112057983875275,-0.999709963798523
1676104289.2534878,277,1676104289,252029747,world,-0.36019524931907654,-0.6239117980003357,0.13924776017665863,-0.008197905495762825,0.01221868023276329,0.019172601401805878,-0.9997079968452454
1676104289.2535052,278,1676104289,252108967,world,-0.3601796329021454,-0.6238988637924194,0.13924168050289154,-0.008255365304648876,0.012288055382668972,0.01907067559659481,-0.9997086524963379
1676104289.2623556,279,1676104289,261869890,world,-0.3601835370063782,-0.623896598815918,0.13924241065979004,-0.008039236068725586,0.012276362627744675,0.01909056305885315,-0.9997100830078125
1676104289.2627141,280,1676104289,262107384,world,-0.3601827323436737,-0.6239016056060791,0.13924339413642883,-0.008170153945684433,0.012297566048800945,0.018997224047780037,-0.9997106194496155
1676104289.2727036,281,1676104289,271852197,world,-0.36018720269203186,-0.6239039897918701,0.13924889266490936,-0.008115390315651894,0.01234272588044405,0.019243918359279633,-0.9997057914733887
1676104289.2745678,282,1676104289,272075672,world,-0.3601877689361572,-0.6238903403282166,0.1392408162355423,-0.008450930006802082,0.012171494774520397,0.019128432497382164,-0.9997072219848633
1676104289.2833104,283,1676104289,281845688,world,-0.36018621921539307,-0.623897910118103,0.13923390209674835,-0.008030145429074764,0.012202098965644836,0.019107135012745857,-0.999710738658905
1676104289.283352,284,1676104289,282055478,world,-0.36018168926239014,-0.6238889098167419,0.13924016058444977,-0.008334089070558548,0.012289175763726234,0.019132519140839577,-0.9997066855430603
1676104289.2833643,285,1676104289,282149068,world,-0.360185444355011,-0.6239001750946045,0.13924983143806458,-0.008383644744753838,0.012198299169540405,0.019019898027181625,-0.9997096061706543
1676104289.292358,286,1676104289,291868085,world,-0.3601817786693573,-0.6239008903503418,0.13923904299736023,-0.008347037248313427,0.012346040457487106,0.01908043399453163,-0.9997069239616394
1676104289.2928138,287,1676104289,292092912,world,-0.3601831793785095,-0.6238881349563599,0.13924214243888855,-0.008303643204271793,0.012323934584856033,0.01901935040950775,-0.9997087121009827
1676104289.3023117,288,1676104289,301857465,world,-0.36018988490104675,-0.6239087581634521,0.13924168050289154,-0.008219027891755104,0.012353864498436451,0.0192499328404665,-0.9997045993804932
1676104289.3026996,289,1676104289,302095958,world,-0.36018529534339905,-0.6238983869552612,0.13924382627010345,-0.008336063474416733,0.012185271829366684,0.01908140257000923,-0.9997089505195618
1676104289.312518,290,1676104289,311861493,world,-0.3601840138435364,-0.6239108443260193,0.13924333453178406,-0.008075962774455547,0.01243908703327179,0.019160905852913857,-0.999706506729126
1676104289.333948,291,1676104289,331933991,world,-0.36018967628479004,-0.6238977313041687,0.13923825323581696,-0.008245155215263367,0.012287176214158535,0.019002823159098625,-0.999709963798523
1676104289.3342352,297,1676104289,332700191,world,-0.3601795434951782,-0.6238932609558105,0.13924148678779602,-0.008148430846631527,0.012260574847459793,0.019054125994443893,-0.9997101426124573
1676104289.3430133,298,1676104289,341845318,world,-0.3601824641227722,-0.6238948702812195,0.13923600316047668,-0.008208110928535461,0.012214246205985546,0.018995065242052078,-0.9997113347053528
1676104289.3430517,299,1676104289,342147346,world,-0.36019232869148254,-0.6239095330238342,0.13924367725849152,-0.008168814703822136,0.012373954057693481,0.01918390393257141,-0.9997060894966125
1676104289.3523195,300,1676104289,351873123,world,-0.3601841330528259,-0.6238950490951538,0.13923713564872742,-0.008053767494857311,0.012253749184310436,0.01909000426530838,-0.9997103214263916
1676104289.3526795,301,1676104289,352077284,world,-0.3601919412612915,-0.6239093542098999,0.13924776017665863,-0.00814217608422041,0.012272447347640991,0.019266340881586075,-0.9997059106826782
1676104289.3830492,302,1676104289,382522392,world,-0.36017727851867676,-0.623895525932312,0.1392354667186737,-0.008295325562357903,0.012229949235916138,0.01908712461590767,-0.9997086524963379
1676104289.3837144,303,1676104289,382771644,world,-0.36018261313438416,-0.6239115595817566,0.13924701511859894,-0.0081127705052495,0.012309274636209011,0.019137853756546974,-0.9997081756591797
1676104289.3838747,307,1676104289,383157707,world,-0.36018499732017517,-0.6238954663276672,0.13924166560173035,-0.008210129104554653,0.012352573685348034,0.019047828391194344,-0.9997085928916931
1676104289.3915079,308,1676104289,386865397,world,-0.36018240451812744,-0.6239057779312134,0.13924704492092133,-0.008098069578409195,0.012320430018007755,0.01922573894262314,-0.999706506729126
1676104289.391636,309,1676104289,387001615,world,-0.36018630862236023,-0.6238980293273926,0.13923320174217224,-0.00826876237988472,0.012299641035497189,0.019065743312239647,-0.9997084140777588
1676104289.3929281,310,1676104289,391904993,world,-0.3601855933666229,-0.6239127516746521,0.13923224806785583,-0.008145386353135109,0.012325027026236057,0.01925100013613701,-0.9997055530548096
1676104289.3929636,311,1676104289,392116431,world,-0.36018308997154236,-0.62389075756073,0.13923926651477814,-0.008145020343363285,0.01222355104982853,0.01909642294049263,-0.9997097253799438
1676104289.402358,312,1676104289,401866040,world,-0.36018460988998413,-0.6238893866539001,0.1392384171485901,-0.008360444568097591,0.012163737788796425,0.019121287390589714,-0.9997082948684692
1676104289.4037802,313,1676104289,402508911,world,-0.3601776659488678,-0.6239005327224731,0.13923297822475433,-0.00813560001552105,0.012171669863164425,0.019043155014514923,-0.9997115135192871
1676104289.4135935,314,1676104289,411861513,world,-0.360180526971817,-0.6238949298858643,0.13923092186450958,-0.008207064121961594,0.012241658754646778,0.0190743375569582,-0.9997094869613647
1676104289.4136097,315,1676104289,412509346,world,-0.3601817488670349,-0.6238956451416016,0.13924041390419006,-0.008375589735805988,0.012310298159718513,0.019104305654764175,-0.9997066259384155
1676104289.413697,316,1676104289,412666527,world,-0.3601813018321991,-0.6238916516304016,0.13924115896224976,-0.008272106759250164,0.012257515452802181,0.019143760204315186,-0.9997074007987976
1676104289.4223406,317,1676104289,421844226,world,-0.3601796627044678,-0.6239017844200134,0.13923819363117218,-0.008217627182602882,0.012322072871029377,0.019027937203645706,-0.9997092485427856
1676104289.422741,318,1676104289,422053443,world,-0.3601810932159424,-0.6238893866539001,0.13924115896224976,-0.008520112372934818,0.012261615134775639,0.019098632037639618,-0.9997061491012573
1676104289.4322798,319,1676104289,431846365,world,-0.36017799377441406,-0.623894214630127,0.13923774659633636,-0.008323904126882553,0.012349845841526985,0.01907922700047493,-0.9997071027755737
1676104289.4326677,320,1676104289,432045822,world,-0.36018452048301697,-0.6238968372344971,0.13923737406730652,-0.008223983459174633,0.012261616997420788,0.019057724624872208,-0.9997093677520752
1676104289.4428172,321,1676104289,441863207,world,-0.3601800501346588,-0.6238929033279419,0.13923944532871246,-0.008255638182163239,0.012244727462530136,0.01916547305881977,-0.9997072815895081
1676104289.442872,322,1676104289,442130681,world,-0.3601779341697693,-0.6238903403282166,0.13923704624176025,-0.008214387111365795,0.012352989055216312,0.019015740603208542,-0.9997091889381409
1676104289.4429166,323,1676104289,442220068,world,-0.3601861596107483,-0.6239084005355835,0.13924703001976013,-0.008233185857534409,0.01229185238480568,0.019162574782967567,-0.9997069239616394
1676104289.4532933,324,1676104289,451894031,world,-0.3601854741573334,-0.6239042282104492,0.13923755288124084,-0.008038953877985477,0.012416338548064232,0.019022105261683464,-0.9997097253799438
1676104289.453348,325,1676104289,452043415,world,-0.36018699407577515,-0.6239007115364075,0.13923484086990356,-0.008236286230385303,0.012238672934472561,0.019049376249313354,-0.9997097253799438
1676104289.4626343,326,1676104289,461855912,world,-0.36018192768096924,-0.6238973736763,0.1392349898815155,-0.00823144894093275,0.012296540662646294,0.0190621055662632,-0.9997088313102722
1676104289.462701,327,1676104289,462084164,world,-0.360181987285614,-0.6238961815834045,0.13924144208431244,-0.008341205306351185,0.012227358296513557,0.019009359180927277,-0.9997097849845886
1676104289.463352,328,1676104289,462181291,world,-0.3601807653903961,-0.6238948702812195,0.13923905789852142,-0.008247808553278446,0.012269075959920883,0.019094854593276978,-0.9997084140777588
1676104289.4726088,329,1676104289,471866180,world,-0.3601791560649872,-0.6238945722579956,0.1392432302236557,-0.008178996853530407,0.012291241437196732,0.01904442347586155,-0.9997096657752991
1676104289.4727457,330,1676104289,472023768,world,-0.3601836860179901,-0.6239117980003357,0.13924679160118103,-0.008113752119243145,0.012326262891292572,0.019165314733982086,-0.9997074007987976
1676104289.4836407,331,1676104289,482445043,world,-0.36018526554107666,-0.6239012479782104,0.1392383873462677,-0.00813846755772829,0.01222361158579588,0.019130127504467964,-0.9997092485427856
1676104289.484366,332,1676104289,482654426,world,-0.36018672585487366,-0.6239025592803955,0.13924045860767365,-0.008298083208501339,0.012272149324417114,0.019080013036727905,-0.9997082948684692
1676104289.4843824,333,1676104289,482732424,world,-0.3601880669593811,-0.623896062374115,0.13924278318881989,-0.008220992982387543,0.012270341627299786,0.01903482899069786,-0.9997097849845886
1676104289.5025926,334,1676104289,501890485,world,-0.36018407344818115,-0.6238961219787598,0.13923896849155426,-0.008247553370893002,0.012240331619977951,0.019059307873249054,-0.9997094869613647
1676104289.506454,335,1676104289,502152515,world,-0.36018475890159607,-0.6239079833030701,0.13924704492092133,-0.008357136510312557,0.012468448840081692,0.0191924050450325,-0.9997032284736633
1676104289.5065107,338,1676104289,502438858,world,-0.3601836562156677,-0.6238959431648254,0.13923905789852142,-0.008228849619626999,0.012198451906442642,0.019147751852869987,-0.9997084736824036
1676104289.5127108,339,1676104289,511898550,world,-0.3601837158203125,-0.6238954067230225,0.13924212753772736,-0.00824293028563261,0.012380513362586498,0.019009994342923164,-0.9997086524963379
1676104289.5224085,340,1676104289,521853709,world,-0.3601824939250946,-0.6238952875137329,0.13924813270568848,-0.008500696159899235,0.012166491709649563,0.01906229369342327,-0.9997081756591797
1676104289.5236518,341,1676104289,522081369,world,-0.36017870903015137,-0.6238981485366821,0.13923557102680206,-0.008209597319364548,0.012322749011218548,0.01901606284081936,-0.9997096061706543
1676104289.5237315,342,1676104289,522167663,world,-0.36018237471580505,-0.6239026784896851,0.13924114406108856,-0.008207478560507298,0.012234065681695938,0.019086763262748718,-0.9997093677520752
1676104289.5324535,343,1676104289,531859810,world,-0.3601904511451721,-0.6238921284675598,0.13924181461334229,-0.00828583724796772,0.012203831225633621,0.019072698429226875,-0.9997093677520752
1676104289.5328386,344,1676104289,532086693,world,-0.36018869280815125,-0.6239034533500671,0.13923726975917816,-0.008099129423499107,0.012257613241672516,0.019106104969978333,-0.9997095465660095
1676104289.5328646,345,1676104289,532164487,world,-0.360189288854599,-0.6239039897918701,0.1392471045255661,-0.008354373276233673,0.012340330518782139,0.019228598102927208,-0.9997040629386902
1676104289.5424218,346,1676104289,541879004,world,-0.3601842224597931,-0.6238923072814941,0.139241024851799,-0.008118296042084694,0.012266727164387703,0.01902104914188385,-0.9997109174728394
1676104289.5431297,347,1676104289,542115831,world,-0.36018994450569153,-0.6238942742347717,0.13924676179885864,-0.008387641049921513,0.012239612638950348,0.019086766988039017,-0.9997077584266663
1676104289.5523188,348,1676104289,551866440,world,-0.3601810038089752,-0.6238899827003479,0.1392325907945633,-0.008287353441119194,0.01227503176778555,0.019108887761831284,-0.9997077584266663
1676104289.5535538,349,1676104289,552482811,world,-0.36018651723861694,-0.6238976716995239,0.139239102602005,-0.008153450675308704,0.012317760847508907,0.01899133250117302,-0.9997106194496155
1676104289.5625505,350,1676104289,561840598,world,-0.36019307374954224,-0.6239020824432373,0.13925379514694214,-0.008186117745935917,0.012288582511246204,0.019334014505147934,-0.9997040629386902
1676104289.5628777,351,1676104289,562062592,world,-0.3601818382740021,-0.6238998174667358,0.13924305140972137,-0.008178110234439373,0.012252083979547024,0.01907854527235031,-0.9997094869613647
1676104289.5628922,352,1676104289,562137997,world,-0.3601837754249573,-0.6239004731178284,0.13924123346805573,-0.008033711463212967,0.012314816005527973,0.019012367352843285,-0.9997111558914185
1676104289.5726902,353,1676104289,571882644,world,-0.36019060015678406,-0.6239124536514282,0.1392405778169632,-0.008197969757020473,0.012331824749708176,0.01915203407406807,-0.9997069239616394
1676104289.5727172,354,1676104289,572033676,world,-0.3601813018321991,-0.6238942742347717,0.1392369568347931,-0.008245812729001045,0.012221826240420341,0.019082196056842804,-0.9997093081474304
1676104289.582772,355,1676104289,581844728,world,-0.36018115282058716,-0.6239026784896851,0.13924504816532135,-0.008141139522194862,0.012291871011257172,0.01898985728621483,-0.9997109770774841
1676104289.5838618,356,1676104289,582054037,world,-0.36018383502960205,-0.6238939762115479,0.13924139738082886,-0.008252614177763462,0.01223707664757967,0.019043749198317528,-0.9997097849845886
1676104289.5839055,357,1676104289,582131849,world,-0.3601803779602051,-0.623891294002533,0.139238178730011,-0.008254818618297577,0.012316305190324783,0.019011419266462326,-0.9997093677520752
1676104289.592484,358,1676104289,591851811,world,-0.36018621921539307,-0.6239097714424133,0.1392330378293991,-0.00825269240885973,0.012317209504544735,0.01899535395205021,-0.9997097253799438
1676104289.6023104,359,1676104289,601864339,world,-0.3601818382740021,-0.6238954663276672,0.1392396241426468,-0.008450401946902275,0.012376178987324238,0.019031131640076637,-0.9997065663337708
1676104289.6029634,360,1676104289,602065592,world,-0.36018362641334534,-0.6239004731178284,0.1392427235841751,-0.008151266723871231,0.012316648848354816,0.019042888656258583,-0.9997096061706543
1676104289.6330495,361,1676104289,631977234,world,-0.36018311977386475,-0.6238948702812195,0.1392441689968109,-0.008242776617407799,0.012180661782622337,0.019119935110211372,-0.9997090101242065
1676104289.634085,362,1676104289,632457276,world,-0.36018672585487366,-0.6239135265350342,0.1392475664615631,-0.008032308891415596,0.012384967878460884,0.01919723115861416,-0.9997067451477051
1676104289.6341286,365,1676104289,632852635,world,-0.3601861894130707,-0.6238951683044434,0.13924811780452728,-0.008356206119060516,0.012183649465441704,0.019147422164678574,-0.9997075796127319
1676104289.6386945,366,1676104289,633208310,world,-0.3601798713207245,-0.62389075756073,0.13923119008541107,-0.008234997279942036,0.012291020713746548,0.01910269446671009,-0.9997081160545349
1676104289.6387212,369,1676104289,633686648,world,-0.3601803779602051,-0.6238996982574463,0.13924415409564972,-0.008277706801891327,0.012306715361773968,0.019067194312810898,-0.9997082352638245
1676104289.6427884,370,1676104289,641873820,world,-0.3601926565170288,-0.623903214931488,0.13924551010131836,-0.008090044371783733,0.012232321314513683,0.01914500817656517,-0.9997091889381409
1676104289.645037,371,1676104289,642115239,world,-0.36018264293670654,-0.6239028573036194,0.13923296332359314,-0.008032459765672684,0.01221101637929678,0.019060783088207245,-0.9997115731239319
1676104289.6527865,372,1676104289,651967438,world,-0.3601871132850647,-0.6238909959793091,0.1392398476600647,-0.00820279773324728,0.01216340996325016,0.019052889198064804,-0.9997109174728394
1676104289.6550498,373,1676104289,652079065,world,-0.36018484830856323,-0.6238938570022583,0.13923297822475433,-0.008192474953830242,0.012248443439602852,0.019099773839116096,-0.9997090697288513
1676104289.66308,374,1676104289,661867284,world,-0.3601836562156677,-0.6238987445831299,0.13923795521259308,-0.008077713660895824,0.012179643847048283,0.01904560625553131,-0.9997118711471558
1676104289.6630912,375,1676104289,662115295,world,-0.36018410325050354,-0.6238979697227478,0.1392284780740738,-0.008072404190897942,0.012277517467737198,0.019027292728424072,-0.9997110962867737
1676104289.6631029,376,1676104289,662223570,world,-0.36018359661102295,-0.6239004135131836,0.13924142718315125,-0.008205651305615902,0.012329330667853355,0.01909228414297104,-0.9997081160545349
1676104289.6725674,377,1676104289,671881367,world,-0.3601790964603424,-0.6238924264907837,0.13923469185829163,-0.008397283032536507,0.012164904735982418,0.019099365919828415,-0.999708354473114
1676104289.6728334,378,1676104289,672153878,world,-0.36018645763397217,-0.6238946318626404,0.13924680650234222,-0.008428574539721012,0.01218047458678484,0.019141554832458496,-0.999707043170929
1676104289.683046,379,1676104289,681948911,world,-0.3601803183555603,-0.6238940954208374,0.13924507796764374,-0.008336683735251427,0.012193847447633743,0.01913219317793846,-0.9997079372406006
1676104289.683081,380,1676104289,682160202,world,-0.3601885139942169,-0.6238974332809448,0.13923823833465576,-0.008336679078638554,0.012227511033415794,0.019090786576271057,-0.9997082352638245
1676104289.6831093,381,1676104289,682258199,world,-0.3601815700531006,-0.6239036321640015,0.1392386555671692,-0.008223812095820904,0.012300942093133926,0.019027043133974075,-0.9997095465660095
1676104289.6923141,382,1676104289,691850572,world,-0.36018648743629456,-0.6238957047462463,0.1392321139574051,-0.008248993195593357,0.012188144959509373,0.019162535667419434,-0.9997080564498901
1676104289.6938944,383,1676104289,692057084,world,-0.3601762652397156,-0.6238980889320374,0.13924330472946167,-0.008204793557524681,0.012264088727533817,0.019039751961827278,-0.9997098445892334
1676104289.703721,384,1676104289,701869044,world,-0.3601900041103363,-0.6239060759544373,0.1392446607351303,-0.008086270652711391,0.012412263080477715,0.019227473065257072,-0.99970543384552
1676104289.7037606,385,1676104289,702091982,world,-0.3601813316345215,-0.6239039897918701,0.13923580944538116,-0.007965009659528732,0.012326384894549847,0.019015271216630936,-0.9997115731239319
1676104289.7123845,386,1676104289,711869608,world,-0.36017906665802,-0.6238933801651001,0.13924047350883484,-0.008371012285351753,0.012238405644893646,0.01906421035528183,-0.9997082948684692
1676104289.712884,387,1676104289,712101268,world,-0.3601822555065155,-0.6238927841186523,0.13924917578697205,-0.008404106833040714,0.012233412824571133,0.019125979393720627,-0.9997069835662842
1676104289.7222824,388,1676104289,721843433,world,-0.3601912558078766,-0.6238934993743896,0.13924430310726166,-0.00829407013952732,0.012242143042385578,0.01906544528901577,-0.9997089505195618
1676104289.7225695,389,1676104289,722047372,world,-0.3601822853088379,-0.6238951086997986,0.13924060761928558,-0.008167434483766556,0.01239100657403469,0.019054992124438286,-0.999708354473114
1676104289.732552,390,1676104289,731876275,world,-0.3601841926574707,-0.6238961815834045,0.1392398178577423,-0.008174131624400616,0.012207375839352608,0.019062325358390808,-0.9997103810310364
1676104289.7328758,391,1676104289,732115620,world,-0.360192209482193,-0.623908281326294,0.13925497233867645,-0.008219625800848007,0.012325446121394634,0.019223930314183235,-0.9997054934501648
1676104289.7331529,393,1676104289,732289763,world,-0.3601815402507782,-0.6238992214202881,0.13923777639865875,-0.008154024370014668,0.012251683510839939,0.019074123352766037,-0.9997098445892334
1676104289.7427824,394,1676104289,741899839,world,-0.3601909279823303,-0.6239010691642761,0.13925600051879883,-0.008228983730077744,0.012249402701854706,0.019313016906380653,-0.9997046589851379
1676104289.7438943,395,1676104289,742750333,world,-0.36018913984298706,-0.623896598815918,0.139244943857193,-0.008259915746748447,0.01223242562264204,0.01904768869280815,-0.9997096657752991
1676104289.7527828,396,1676104289,751857646,world,-0.3601836860179901,-0.6238966584205627,0.13923762738704681,-0.00830681063234806,0.012317512184381485,0.019058234989643097,-0.9997079968452454
1676104289.753137,397,1676104289,752082084,world,-0.36018410325050354,-0.623895525932312,0.13923992216587067,-0.00828560907393694,0.012253914959728718,0.019051048904657364,-0.9997091293334961
1676104289.7625222,398,1676104289,761847989,world,-0.3601783812046051,-0.6239003539085388,0.13924771547317505,-0.00840089377015829,0.012230398133397102,0.01927856169641018,-0.999704122543335
1676104289.7630734,399,1676104289,762058983,world,-0.3601807653903961,-0.6238916516304016,0.13924455642700195,-0.008241829462349415,0.012288267724215984,0.019042493775486946,-0.9997091889381409
1676104289.7631109,400,1676104289,762138222,world,-0.36018452048301697,-0.6238924264907837,0.13923753798007965,-0.008478160947561264,0.012203152291476727,0.01917334459722042,-0.9997058510780334
1676104289.77264,401,1676104289,771857424,world,-0.36018091440200806,-0.6239004731178284,0.13923175632953644,-0.008246486075222492,0.012265306897461414,0.019013138487935066,-0.9997100234031677
1676104289.772853,402,1676104289,772079955,world,-0.3601915240287781,-0.6238980889320374,0.13924479484558105,-0.008308013901114464,0.012239279225468636,0.01906643994152546,-0.9997087717056274
1676104289.792764,403,1676104289,791888201,world,-0.3601810038089752,-0.6238927841186523,0.1392480880022049,-0.0084708696231246,0.012303631752729416,0.01903688535094261,-0.9997072219848633
1676104289.7930248,404,1676104289,792150101,world,-0.36019086837768555,-0.623907744884491,0.1392439901828766,-0.008169705979526043,0.012315457686781883,0.019260279834270477,-0.9997053742408752
1676104289.7933316,407,1676104289,792445908,world,-0.3601840138435364,-0.6238929629325867,0.13924267888069153,-0.00833297148346901,0.012271791696548462,0.01906484179198742,-0.9997082352638245
1676104289.8028963,408,1676104289,801909840,world,-0.36019018292427063,-0.6239064335823059,0.13924476504325867,-0.008141732774674892,0.01239869836717844,0.01916235312819481,-0.9997063875198364
1676104289.8029058,409,1676104289,802077816,world,-0.36018529534339905,-0.6238998174667358,0.13924235105514526,-0.008054994978010654,0.012327517382800579,0.01907235011458397,-0.9997096657752991
1676104289.8137443,410,1676104289,812036290,world,-0.3601807653903961,-0.6238980293273926,0.13923379778862,-0.008324118331074715,0.012261936441063881,0.019117390736937523,-0.9997074007987976
1676104289.8137753,411,1676104289,812296357,world,-0.36017751693725586,-0.6239022016525269,0.1392361968755722,-0.008165872655808926,0.012270072475075722,0.019012417644262314,-0.9997106790542603
1676104289.8137894,412,1676104289,812426001,world,-0.36018943786621094,-0.6239064335823059,0.1392413228750229,-0.008288034237921238,0.012376701459288597,0.019264480099081993,-0.9997035264968872
1676104289.8230133,413,1676104289,821994856,world,-0.36018043756484985,-0.6239055395126343,0.13923785090446472,-0.00814304780215025,0.01232148427516222,0.01899692788720131,-0.9997104406356812
